[
  {
    "slug": "lnajshi-riad-13213-saudi-arabia",
    "name": "مسجد النجاشي",
    "image1": "https://cdn.mawaqit.net/images/backend/mosque/fbdd3783-a0fb-4629-9fb7-6f24318a2dd2/mosque/1eea8e84-455b-6ebc-8d55-066ed47a7584.jpg",
    "address": "حي الروضة شارع صالح عبد الواحد",
    "city": "الرياض",
    "zipcode": "13213",
    "countryFullName": "Saudi Arabia",
    "lng": 46.770681480096,
    "lat": 24.745164758198
  },
  {
    "slug": "al-haram-makkah-saudi-arabia",
    "name": "المسجد الحرام",
    "image1": "https://cdn.mawaqit.net/images/backend/mosque/1b112176-d9c5-4508-8cbd-8c6a00b10aee/mosque/1eea8e84-8155-60da-b7f3-066ed47a7584.jpg",
    "address": "Al Haram",
    "city": "مكة",
    "zipcode": "24231",
    "countryFullName": "Saudi Arabia",
    "lng": 39.8271968,
    "lat": 21.4259317
  },
  {
    "slug": "almasjid-annabawi-saudi-arabia",
    "name": "المسجد النبوي",
    "image1": "https://cdn.mawaqit.net/images/backend/mosque/7622a163-8b58-41a9-bbf2-40911106e58c/mosque/1eea8e84-8e38-6612-be89-066ed47a7584.jpg",
    "address": "Al Haram",
    "city": "المدينة المنورة",
    "zipcode": "42311",
    "countryFullName": "Saudi Arabia",
    "lng": 39.6163915,
    "lat": 24.468605
  },
  {
    "slug": "msjd-lnrjs-lryd-13324-saudi-arabia",
    "name": "مسجد النرجس",
    "image1": "https://cdn.mawaqit.net/images/backend/mosque/72ff5ff2-6f4a-48c0-8e73-e90fd2f42ca4/mosque/1eea8e94-b930-6a6c-b454-066ed47a7584.jpg",
    "address": "السعوديه الرياض",
    "city": "الرياض",
    "zipcode": "١٣٣٢٤",
    "countryFullName": "Saudi Arabia",
    "lng": 46.6922669,
    "lat": 24.8244228
  },
  {
    "slug": "masjid-lforqan-blrihab-ltayf-11111-saudi-arabia",
    "name": "جامع الفرقان برحاب",
    "image1": "https://cdn.mawaqit.net/images/backend/mosque/06f26d98-d8cc-4e24-a4fe-fa62a490737f/mosque/1eea8ec5-e1a0-6502-b192-066ed47a7584.jpg",
    "address": "الطائف / حي الرحاب",
    "city": "الطائف",
    "zipcode": "11111",
    "countryFullName": "Saudi Arabia",
    "lng": 40.4276398,
    "lat": 21.4569727
  },
  {
    "slug": "al-rrokbah-baljurashi-65632-saudi-arabia",
    "name": "الركبة",
    "image1": "https://cdn.mawaqit.net/images/backend/mosque/192c5727-1ccb-4578-ae37-34cb7fffb6aa/mosque/1eea8ee0-0a34-685a-85b4-066ed47a7584.jpg",
    "address": "Al-rrokbah",
    "city": "BALJURASHI",
    "zipcode": "65632",
    "countryFullName": "Saudi Arabia",
    "lng": 41.556976,
    "lat": 19.860234
  },
  {
    "slug": "jamii-laaz-bn-abd-lsalam-khmis-mchit-62641-saudi-arabia",
    "name": "جامع العز بن عبد السلام",
    "image1": "https://cdn.mawaqit.net/images/backend/mosque/8af05087-ae3a-46ab-b688-5f3de71d3bc6/mosque/1eebadbf-a6cd-65fa-b354-06afdcf8e716.jpg",
    "address": "خميس مشيط - أم سرار",
    "city": "خميس مشيط",
    "zipcode": "62641",
    "countryFullName": "Saudi Arabia",
    "lng": 42.7444098,
    "lat": 18.2974613
  },
  {
    "slug": "jm-lkwyty-ltyf-26513-saudi-arabia",
    "name": "جامع الكويتي",
    "image1": "https://cdn.mawaqit.net/images/backend/mosque/1dad0f59-d555-4d10-ac7a-06eec2f34f3f/mosque/1eecc2eb-bb22-6a40-8887-06acfcd1c88a.jpg",
    "address": "الشهداء الجنوبية شارع التلفزيون",
    "city": "الطائف",
    "zipcode": "26513",
    "countryFullName": "Saudi Arabia",
    "lng": 40.4225187,
    "lat": 21.261697
  },
  {
    "slug": "msjd-lwlw-ltsn-lrs-51921-saudi-arabia",
    "name": "أستغفر الله وأتوب إليه",
    "image1": "https://cdn.mawaqit.net/images/backend/mosque/a52e8e8b-3d2d-45c2-ae8f-f812e4a3d2dc/mosque/1eee6fbf-a71e-63e6-8a2b-0a9258a77f81.jpg",
    "address": "القصيم-الرس",
    "city": "الرس",
    "zipcode": "51921",
    "countryFullName": "Saudi Arabia",
    "lng": 43.49294095176,
    "lat": 25.847059541719
  },
  {
    "slug": "jamii-lamir-mtaab-bn-abdl-aziz-chamali-lryad-12842-saudi-arabia",
    "name": "جامع الأمير متعب بن عبدالعزيز الشمالي",
    "image1": "https://cdn.mawaqit.net/images/backend/mosque/b00a1b61-e4db-416d-b5a1-0a41a03e5b2b/mosque/1eeebcb0-f91d-644c-8f8c-0a9258a77f81.png",
    "address": "Ali Bin Abi Taleb",
    "city": "الرياض",
    "zipcode": "12842",
    "countryFullName": "Saudi Arabia",
    "lng": 46.7469816,
    "lat": 24.654043
  },
  {
    "slug": "masjid-lsalam-thwual-23952-saudi-arabia",
    "name": "مسجد السلام تأسس عام ١٣٩٨ هـ",
    "image1": "https://cdn.mawaqit.net/images/backend/mosque/69eae184-9d3e-478b-ac52-4bc166f57b99/mosque/1ef23117-8bce-6768-8409-0ecb5e3f0f5f.jpg",
    "address": "Thuwal Al-Madinah rd",
    "city": "THWUAL",
    "zipcode": "23952",
    "countryFullName": "Saudi Arabia",
    "lng": 39.1147104,
    "lat": 22.2467182
  },
  {
    "slug": "masjid-lrahman-jazan-82781-saudi-arabia",
    "name": "مسجد الرحمن - المحصام",
    "image1": "https://cdn.mawaqit.net/images/backend/mosque/789b8480-afd9-407c-aca4-7eed2ff256a1/mosque/1ef2f8ca-2708-60f6-b198-0e4a6d39a313.jpeg",
    "address": "جازان-الخشابية",
    "city": "جازان",
    "zipcode": "82781",
    "countryFullName": "Saudi Arabia",
    "lng": 42.7296017,
    "lat": 16.9308136
  },
  {
    "slug": "jamii-lnour-blrmida-ltaif-252655-saudi-arabia",
    "name": "جامع النور بالرميدة",
    "image1": "https://cdn.mawaqit.net/images/backend/mosque/c367217b-016d-488a-93be-dbf1f4a3b7cd/mosque/1ef3b22e-3869-60b6-a8ec-0a67bcb0d635.jpg",
    "address": "الطائف",
    "city": "الطائف",
    "zipcode": "٢٥٢٦٥٥",
    "countryFullName": "Saudi Arabia",
    "lng": 40.535521886289,
    "lat": 21.333695523765
  },
  {
    "slug": "rebda-lhfouf-36471-saudi-arabia",
    "name": "ربدة",
    "image1": "https://cdn.mawaqit.net/images/backend/mosque/7f0e21c0-1117-4a07-91e3-2b873494243a/mosque/1ef4f777-ef6f-65dc-9f86-0600dbafaeef.jpg",
    "address": "حي ربدة",
    "city": "الهفوف",
    "zipcode": "36471",
    "countryFullName": "Saudi Arabia",
    "lng": 49.5934331,
    "lat": 25.3732932
  },
  {
    "slug": "jame3-alahmadi-jeddah",
    "name": "جامع الشيخ عبدالله الاحمدي",
    "image1": "https://cdn.mawaqit.net/images/backend/mosque/79946aee-46ce-4682-bd36-4e243e4c68fd/mosque/1ef50b05-ecdf-6744-969a-0600dbafaeef.png",
    "address": "أبو القاسم الشارعي، حي المنار",
    "city": "JEDDAH",
    "zipcode": "23463",
    "countryFullName": "Saudi Arabia",
    "lng": 39.2381631,
    "lat": 21.6102542
  },
  {
    "slug": "-22",
    "name": "مسجد الشيخ راشد بن محمد بن دايل",
    "image1": "https://cdn.mawaqit.net/images/backend/mosque/e18ab922-63f0-487e-b6e7-83f5dede119e/mosque/1ef5c709-4f09-698c-8259-0afeeb7ee923.png",
    "address": "RQGF+V44, Al Sahaba Rd, Al Munsiyah",
    "city": "RIYADH",
    "zipcode": "13253",
    "countryFullName": "Saudi Arabia",
    "lng": 46.7717565,
    "lat": 24.8237996
  },
  {
    "slug": "-25",
    "name": "مسجد معاذ بن جبل رضي الله عنه",
    "image1": "https://cdn.mawaqit.net/images/backend/mosque/d49f8766-08fc-4a4c-9713-f78f0c51ac38/mosque/1ef5ebab-69c3-6662-9464-0afeeb7ee923.png",
    "address": "Mosque 13th St",
    "city": "KHOBAR",
    "zipcode": "34446",
    "countryFullName": "Saudi Arabia",
    "lng": 50.190238,
    "lat": 26.291074
  },
  {
    "slug": "masjid-kachman-boukhari-taif-215613-saudi-arabia-1",
    "name": "مسجد كشمان بخاري",
    "image1": "https://cdn.mawaqit.net/images/backend/mosque/fc14e032-b251-424b-96d6-2d4a64661ffc/mosque/1ef65b5d-124b-6e94-976b-0600dbafaeef.jpg",
    "address": "الشهداء الجنوبية",
    "city": "TAIF",
    "zipcode": "215613",
    "countryFullName": "Saudi Arabia",
    "lng": 40.4241517,
    "lat": 21.2613101
  },
  {
    "slug": "masjud-rabiaa-bn-kaab-ldamam-6796-saudi-arabia",
    "name": "مسجد ربيعة بن كعب رضي الله عنه",
    "image1": "https://cdn.mawaqit.net/images/backend/mosque/dc1df661-0eff-4cc5-bc73-6d79a40b35aa/mosque/1ef6aaf4-abb2-64a2-b652-0a30a0d770d7.jpg",
    "address": "الدمام",
    "city": "الدمام",
    "zipcode": "6796",
    "countryFullName": "Saudi Arabia",
    "lng": 50.0887943,
    "lat": 26.4206828
  },
  {
    "slug": "-20",
    "name": "مسجد النور",
    "image1": "https://cdn.mawaqit.net/images/backend/mosque/b76538a1-7d32-49a6-ba9e-e10fb18f8e56/mosque/1ef71cde-ff25-6e8e-b301-0a30a0d770d7.png",
    "address": "القناوي، 8360، حي الفيصلية، Saudi Arabia",
    "city": "جدة",
    "zipcode": "2554",
    "countryFullName": "Saudi Arabia",
    "lng": 39.1713281,
    "lat": 21.5772012
  },
  {
    "slug": "-29",
    "name": "مسجد حمود بن ابراهيم العبيدالله",
    "image1": "https://cdn.mawaqit.net/images/backend/mosque/e01f6fc1-16c2-4c6a-b453-465bf27bb944/mosque/1ef72553-0646-64ee-a293-0600dbafaeef.png",
    "address": "شارع عمر بن الخطاب، بجوار",
    "city": "UNAIZAH",
    "zipcode": "56241",
    "countryFullName": "Saudi Arabia",
    "lng": 43.95173,
    "lat": 26.0697931
  },
  {
    "slug": "-32",
    "name": "جامع سيد الشهداء",
    "image1": "https://cdn.mawaqit.net/images/backend/mosque/ec61cd37-9afe-4417-8e20-c5edfa1fa4a6/mosque/1ef74a7e-b911-6b0a-aa40-0affcb0701ab.jpeg",
    "address": "6669، خميس مشيط 62452",
    "city": "خميس مشيط",
    "zipcode": "62452",
    "countryFullName": "Saudi Arabia",
    "lng": 42.6636005,
    "lat": 18.3139293
  },
  {
    "slug": "jamii-ibrahim-salh-lmzini-lras-58881-saudi-arabia",
    "name": "جامع إبراهيم صالح المزيني",
    "image1": "https://cdn.mawaqit.net/images/backend/mosque/5dd933be-c3b8-4117-b68a-2c18b0d9ad90/mosque/1ef9dcf5-6393-601e-a3fe-0a0389a4e0f5.jpg",
    "address": "القصيم-الرس-شارع الشنانة",
    "city": "الرس",
    "zipcode": "58881",
    "countryFullName": "Saudi Arabia",
    "lng": 43.494433164597,
    "lat": 25.862206770195
  },
  {
    "slug": "masjid-abdllah-lansar-lryad-01-01245-saudi-arabia",
    "name": "مسجد عبدالله الناصر",
    "image1": "https://cdn.mawaqit.net/images/backend/mosque/d2fb7f2c-2d47-4a0d-bba6-2e073e8d756a/mosque/1efc47f9-cfc8-6efc-90c3-0ef2881d9837.png",
    "address": "السويدي",
    "city": "الرياض",
    "zipcode": "01-01245",
    "countryFullName": "Saudi Arabia",
    "lng": 46.6726953,
    "lat": 24.5903985
  },
  {
    "slug": "masjid-cheikh-mohamed-bn-jassir-ryad-01-04419-saudi-arabia",
    "name": "مسجد الشيخ محمد بن جاسر المهيدب",
    "image1": "https://cdn.mawaqit.net/images/backend/mosque/2c1527d1-0046-4a41-976e-d9aff829dff2/mosque/1efcabf5-5433-6c32-9e40-0a21b15e7a1f.png",
    "address": "الملقا الرياض",
    "city": "الرياض",
    "zipcode": "01-04419",
    "countryFullName": "Saudi Arabia",
    "lng": 46.6106897,
    "lat": 24.8142533
  },
  {
    "slug": "masjid-omarbn-abdel-aziz-al-khobar-34446-saudi-arabia",
    "name": "مسجد عمربن عبدالعزيز",
    "image1": "https://cdn.mawaqit.net/images/backend/mosque/75845c2e-5e67-4aaf-b2bd-8016ef06af7a/mosque/1efd8bc5-7bfb-6bc4-943f-0e61b0058d45.jpg",
    "address": "13th street, al aqrabiyah",
    "city": "AL KHOBAR",
    "zipcode": "34446",
    "countryFullName": "Saudi Arabia",
    "lng": 50.192768161215,
    "lat": 26.291244892006
  },
  {
    "slug": "masjid-fatima-abou-talib-darb-89595-saudi-arabia",
    "name": "مسجد فاطمة ابو طالب رحمها الله",
    "image1": "https://cdn.mawaqit.net/images/backend/mosque/88cc5776-69e3-4c3b-91dd-c5dc4e66cc2e/mosque/1efda3f8-1e08-6d3c-ab54-06bada7b305f.jpg",
    "address": "جازان - الدرب -قرية ابو العشر",
    "city": "الدرب",
    "zipcode": "89595",
    "countryFullName": "Saudi Arabia",
    "lng": 42.141595,
    "lat": 17.6852202
  },
  {
    "slug": "abdllah-bn-sliman-laayd-lrass-58884-saudi-arabia",
    "name": "عبدالله بن سليمان العايد - رحمه الله",
    "image1": "https://cdn.mawaqit.net/images/backend/mosque/ef1a3509-9b6b-4e53-9a88-d336999c4178/mosque/1efdd857-4a35-6ed0-9a15-0e61b0058d45.jpeg",
    "address": "الرس",
    "city": "الرس",
    "zipcode": "58884",
    "countryFullName": "Saudi Arabia",
    "lng": 43.5174213,
    "lat": 25.8867645
  },
  {
    "slug": "masjid-abdllah-bn-salah-ras-51921-saudi-arabia",
    "name": "مسجد عبدالله بن صالح المعثم",
    "image1": "https://cdn.mawaqit.net/images/backend/mosque/c0dc6239-7efb-42f6-a1b8-618250b96940/mosque/1efe17d8-e2f7-68ce-b412-0ac178b258e1.jpg",
    "address": "شارع أبي بكر الصديق",
    "city": "الرس",
    "zipcode": "51921",
    "countryFullName": "Saudi Arabia",
    "lng": 43.490074574947,
    "lat": 25.872760859142
  },
  {
    "slug": "jm-lmyr-mshhwr-bn-ms-d-bn-bdl-zyz-lryd-13763-saudi-arabia",
    "name": "جامع الأمير مشهور بن مساعد بن عبدالعزيز",
    "image1": "https://cdn.mawaqit.net/images/backend/mosque/70e9608c-dbe2-4ed3-9e81-992fd120e681/mosque/1efe94ae-f15d-676c-892b-0a7d06691847.jpeg",
    "address": "شارع أبي عبدالله بن تيمية",
    "city": "الرياض",
    "zipcode": "13763",
    "countryFullName": "Saudi Arabia",
    "lng": 46.768874,
    "lat": 24.7208701
  },
  {
    "slug": "oqba-bn-nafi-lahssa-36292-saudi-arabia",
    "name": "مسجد عقبه بن نافع",
    "image1": "https://cdn.mawaqit.net/images/backend/mosque/c7a73476-8262-40bd-a1a3-7e603ff3cd45/mosque/1efecbef-5b76-6708-bc9c-0e61b0058d45.jpg",
    "address": "بجانب شارع الستين",
    "city": "الأحساء",
    "zipcode": "36292",
    "countryFullName": "Saudi Arabia",
    "lng": 49.7268841,
    "lat": 25.2624051
  },
  {
    "slug": "msjd-lhsn-blrmyd-ltyf-94244-saudi-arabia",
    "name": "مسجد الإحسان بالرميدة",
    "image1": "https://cdn.mawaqit.net/images/backend/mosque/95cb3043-1174-42c8-a218-cbe9ba7e747c/mosque/1eff3c4f-f46e-6ed0-be46-0e61b0058d45.jpg",
    "address": "الطائف الرميده",
    "city": "الطائف",
    "zipcode": "94244",
    "countryFullName": "Saudi Arabia",
    "lng": 40.566284406269,
    "lat": 21.351769291528
  },
  {
    "slug": "msjd-s-d-bn-m-dh-jd-22443-saudi-arabia",
    "name": "مسجد سعد بن معاذ",
    "image1": "https://cdn.mawaqit.net/images/backend/mosque/7d4ef793-7175-452a-bda8-84f5b21d2b4a/mosque/1efff25a-31fa-6c34-b8cf-0a2e1c0b5725.jpeg",
    "address": "شارع عبدالرحمن بن الأسود",
    "city": "جدة",
    "zipcode": "22443",
    "countryFullName": "Saudi Arabia",
    "lng": 39.295057301454,
    "lat": 21.39809223034
  },
  {
    "slug": "masjid-al-khorqan-al-khorqan-village-65439-al-ardhiyah-al-shamaliyah-saudi-arabia",
    "name": "مسجد الخرقان",
    "image1": "https://cdn.mawaqit.net/images/backend/mosque/d3442a64-511d-4dc7-a25b-fe5886d4e6f5/mosque/1effdfde-d0ff-60f2-877e-06ef9144e88f.jpg",
    "address": "Al-Khorqan Village",
    "city": "العرضية الشمالية",
    "zipcode": "65439",
    "countryFullName": "Saudi Arabia",
    "lng": 41.6644907,
    "lat": 19.5824504
  },
  {
    "slug": "msjd-rf-lsyd-rbg-25812-saudi-arabia",
    "name": "مسجد عارف السيد",
    "image1": "https://cdn.mawaqit.net/images/backend/mosque/dc41f0d1-06bd-40c6-b706-0c9957c2eefb/mosque/1f002e74-7d06-6722-9199-06bdda781935.jpeg",
    "address": "قرية كلية - النخل",
    "city": "رابغ",
    "zipcode": "25812",
    "countryFullName": "Saudi Arabia",
    "lng": 39.270361149341,
    "lat": 22.522249973369
  },
  {
    "slug": "msjd-lmm-bn-ljwzy-dammam-32274-saudi-arabia",
    "name": "مسجد الإمام ابن الجوزي",
    "image1": "https://cdn.mawaqit.net/images/backend/mosque/68e11388-74f6-4407-86b4-4706c9279afd/mosque/1f003293-2cba-6a0c-8ab6-0e4fa23cf9cb.jpg",
    "address": "EDSC3308، 3308 بديع الزمان الهمداني، 7375، المنار، الدمام 32274",
    "city": "DAMMAM",
    "zipcode": "32274",
    "countryFullName": "Saudi Arabia",
    "lng": 50.0348089,
    "lat": 26.3758535
  },
  {
    "slug": "jm-mr-l-mwdy-jd-22443-saudi-arabia",
    "name": "جامع عمر العمودي",
    "image1": "https://cdn.mawaqit.net/images/backend/mosque/83dce9ba-1d8c-4048-9cf6-073e2fc655c6/mosque/1f0040a0-a4ab-6942-96df-0a2e1c0b5725.jpeg",
    "address": "أبي المجد الأنصاري",
    "city": "جدة",
    "zipcode": "22443",
    "countryFullName": "Saudi Arabia",
    "lng": 39.1882542,
    "lat": 21.7588658
  },
  {
    "slug": "msjd-mr-bn-lkhtb-mhyl-63312-saudi-arabia",
    "name": "مسجد عمر بن الخطاب",
    "image1": "https://cdn.mawaqit.net/images/backend/mosque/2fb18f2b-ce88-488f-a775-eb903f920d88/mosque/1f016c01-6594-6c62-a7b4-0ac73cfd41db.jpeg",
    "address": "الحيلة الغربي",
    "city": "محايل",
    "zipcode": "63312",
    "countryFullName": "Saudi Arabia",
    "lng": 42.062443309934,
    "lat": 18.482945478195
  },
  {
    "slug": "jamii-labrar-hafrlbatn-31991-saudi-arabia",
    "name": "جامع الأبرار",
    "image1": "https://cdn.mawaqit.net/images/backend/mosque/a43074bc-4d78-4cb6-bebb-98e0b8b0773a/mosque/1f0168e3-4f38-687c-afa5-0ac73cfd41db.jpeg",
    "address": "حي الروضة",
    "city": "حفرالباطن",
    "zipcode": "31991",
    "countryFullName": "Saudi Arabia",
    "lng": 46.0446935,
    "lat": 28.4472786
  },
  {
    "slug": "msjd-m-lmwmnyn-khdyj-bnt-khwyld-jeddah-23522-saudi-arabia",
    "name": "مسجد أم المؤمنين خديجة بنت خويلد",
    "image1": "https://cdn.mawaqit.net/images/backend/mosque/a09f99a4-93c5-4c4d-ae6c-a99be8077db9/mosque/1f019219-dba8-66a4-b211-0e61b0058d45.jpg",
    "address": "شارع عبدالرحمن المازن",
    "city": "JEDDAH",
    "zipcode": "23522",
    "countryFullName": "Saudi Arabia",
    "lng": 39.1350552,
    "lat": 21.5986577
  },
  {
    "slug": "jm-slmn-lfrsy-bjd-jeddah-22371-saudi-arabia",
    "name": "جامع سلمان الفارسي بجدة",
    "image1": "https://cdn.mawaqit.net/images/backend/mosque/940fe20a-0571-4da4-b21f-b983c9c8b0e4/mosque/1f01b381-48b9-6364-89bb-0ac73cfd41db.jpg",
    "address": "4549",
    "city": "JEDDAH",
    "zipcode": "22371",
    "countryFullName": "Saudi Arabia",
    "lng": 39.3167325,
    "lat": 21.4856292
  },
  {
    "slug": "jawharah-taybah-dammam-32275-saudi-arabia",
    "name": "جوهرة طيبة",
    "image1": "https://cdn.mawaqit.net/images/backend/mosque/94fb31c1-475b-4568-bcc5-d5453157f520/mosque/1f01bc66-1ecf-6fd8-8e3e-0e61b0058d45.jpg",
    "address": "أبو يحيى السلمي، Dammam Saudi Arabia",
    "city": "DAMMAM",
    "zipcode": "32275",
    "countryFullName": "Saudi Arabia",
    "lng": 50.0351476,
    "lat": 26.3474587
  },
  {
    "slug": "msjd-lshykh-ly-bn-mhmd-lzml-nyz-52382-saudi-arabia",
    "name": "مسجد الشيخ علي بن محمد الزامل",
    "image1": "https://cdn.mawaqit.net/images/backend/mosque/90294baf-bf3c-4fca-8b5d-f38ae4162a8b/mosque/1f01e213-cefc-6938-b1c4-0ac73cfd41db.jpeg",
    "address": "عنيزه، طريق أبو بكر الصديق",
    "city": "عنيزة",
    "zipcode": "52382",
    "countryFullName": "Saudi Arabia",
    "lng": 43.9532346,
    "lat": 26.3577608
  },
  {
    "slug": "msjd-qb-bn-mr-yanbu-al-bahr-46455-saudi-arabia",
    "name": "جامع عقبة بن عامر رضي الله عنه",
    "image1": "https://cdn.mawaqit.net/images/backend/mosque/d8e694cf-ec7a-43f5-8a4f-1daef67ad695/mosque/1f01ec21-9bc6-6812-90d7-0ac73cfd41db.jpg",
    "address": "Al-Hizam, 46455, Al-Semairi, Yanbu 46455, Saudi Arabia",
    "city": "YANBU AL BAHR",
    "zipcode": "46455",
    "countryFullName": "Saudi Arabia",
    "lng": 38.217585,
    "lat": 24.0156362
  },
  {
    "slug": "msjd-bdllh-lfrj-bryd-52372-saudi-arabia",
    "name": "مسجد عبدالله إبراهيم الفراج",
    "image1": "https://cdn.mawaqit.net/images/backend/mosque/72b8be52-6298-41aa-8b1d-523d188289f8/mosque/1f01efb8-80e9-6d24-bc3f-0ac73cfd41db.png",
    "address": "حي الزرقاء، بريدة السعودية",
    "city": "بريدة",
    "zipcode": "52372",
    "countryFullName": "Saudi Arabia",
    "lng": 43.921604,
    "lat": 26.35626
  },
  {
    "slug": "msjd-qbh-bn-mr-ljhny-ynb-46455-saudi-arabia",
    "name": "مسجد عقبه بن عامر الجهني",
    "image1": "https://cdn.mawaqit.net/images/backend/mosque/c3c238a8-1c18-43fa-88cd-81069e28620f/mosque/1f027478-e661-6efa-8710-0e31fcfe1275.png",
    "address": "ينبع الصناعية، ينبع السعودية",
    "city": "ينبع",
    "zipcode": "46455",
    "countryFullName": "Saudi Arabia",
    "lng": 38.2058155,
    "lat": 24.0235664
  },
  {
    "slug": "jm-s-d-bn-slh-lqhtny-tbwk-47919-saudi-arabia",
    "name": "جامع سعد بن صالح القحطاني",
    "image1": "https://cdn.mawaqit.net/images/backend/mosque/b0b1d4f4-ffbc-4fdf-bfd8-84ba7305a345/mosque/1f02065c-aeba-69a0-a6cb-06bdda781935.jpg",
    "address": "تبوك السعودية",
    "city": "تبوك",
    "zipcode": "47919",
    "countryFullName": "Saudi Arabia",
    "lng": 36.484469175339,
    "lat": 28.371691225287
  },
  {
    "slug": "masjid-al-faraj-buraidah-2337-saudi-arabia",
    "name": "مسجد الفراج",
    "image1": "https://cdn.mawaqit.net/images/backend/mosque/723b867d-dadf-4efb-8e31-4337ead37a9e/mosque/1f025a1b-07ad-660e-9ce9-0e61b0058d45.jpeg",
    "address": "بريدة السعودية",
    "city": "بريدة",
    "zipcode": "2337",
    "countryFullName": "Saudi Arabia",
    "lng": 43.8890723,
    "lat": 26.3765511
  },
  {
    "slug": "msjd-mntq-bryd-52548-saudi-arabia",
    "name": "مسجد منطقة أ",
    "image1": "https://cdn.mawaqit.net/images/backend/mosque/d7b7a34c-986b-47ef-ac77-56a489e83621/mosque/1f02f413-fed6-624a-8370-0a17f0e78aa5.jpeg",
    "address": "المليداء, المليداء، بريدة السعودية",
    "city": "بريدة",
    "zipcode": "52548",
    "countryFullName": "Saudi Arabia",
    "lng": 43.756926,
    "lat": 26.351507
  },
  {
    "slug": "jm-lfrwq-al-jubail-35816-saudi-arabia",
    "name": "جامع الفاروق",
    "image1": "https://cdn.mawaqit.net/images/backend/mosque/af2a522c-8ed3-4d5b-81c9-c010654adecc/mosque/1f037d50-4d26-6240-88f2-0abb1d73129d.jpeg",
    "address": "الفاروق، Al Jubail Saudi Arabia",
    "city": "AL JUBAIL",
    "zipcode": "35816",
    "countryFullName": "Saudi Arabia",
    "lng": 49.5256745,
    "lat": 27.1278714
  },
  {
    "slug": "jm-ns-bn-mlk-al-jubail-35718-saudi-arabia",
    "name": "جامع انس بن مالك",
    "image1": "https://cdn.mawaqit.net/images/backend/mosque/08adffe5-d989-4276-a1a0-9f24d73ae515/mosque/1f037d66-2003-66ee-a6da-0e64c74f2ff1.jpeg",
    "address": "الحويلات سنتر، Al Jubail Saudi Arabia",
    "city": "AL JUBAIL",
    "zipcode": "35718",
    "countryFullName": "Saudi Arabia",
    "lng": 49.5724041,
    "lat": 27.0977046
  }
]