[
  {
    "slug": "ahl-allah-beyne-heusay",
    "name": "Ahl Allah",
    "image1": "https://cdn.mawaqit.net/images/backend/mosque_default_picture.png",
    "address": "Rue de huit mai 24",
    "city": "Beyne-Heusay",
    "zipcode": "4610",
    "countryFullName": "BELGIUM",
    "lng": 5.6587348,
    "lat": 50.6250572
  },
  {
    "slug": "almohajirin-bruxelles",
    "name": "Al Mohajirin",
    "image1": "https://cdn.mawaqit.net/images/backend/mosque_default_picture.png",
    "address": "72,rue Malibran",
    "city": "IXELLES",
    "zipcode": "1050",
    "countryFullName": "Belgium",
    "lng": 4.3734957,
    "lat": 50.8310781
  },
  {
    "slug": "mosquee-assalam-court-saint-etienne",
    "name": "Mosquée Assalam CSE",
    "image1": "https://cdn.mawaqit.net/images/backend/mosque_default_picture.png",
    "address": "avenue des combattants 169A",
    "city": "Court-Saint-Etienne",
    "zipcode": "1490",
    "countryFullName": "Belgium",
    "lng": 4.5588578,
    "lat": 50.6430595
  },
  {
    "slug": "mosquee-de-hensies",
    "name": "Mosquée AL MOUHAGIRINE",
    "image1": "https://cdn.mawaqit.net/images/backend/mosque_default_picture.png",
    "address": "Rue de Villers",
    "city": "Hensies",
    "zipcode": "7350",
    "countryFullName": "BELGIUM",
    "lng": 3.6897318,
    "lat": 50.4282386
  },
  {
    "slug": "al-khalil-bruxelles",
    "name": "Al Khalil",
    "image1": "https://cdn.mawaqit.net/images/backend/mosque/b163e106-e9bd-49b1-b030-3806279e922c/mosque/1eea8d9f-67d5-6fdc-8d92-066ed47a7584.jpg",
    "address": "rue vanderstraeten 9",
    "city": "Bruxelles",
    "zipcode": "1080",
    "countryFullName": "Belgium",
    "lng": 4.3324585,
    "lat": 50.8514002
  },
  {
    "slug": "de-toekomst-ghant-9000-belgium",
    "name": "De Toekomst مسجد المستقبل",
    "image1": "https://cdn.mawaqit.net/images/backend/mosque/322975e0-55b0-43cd-8d4a-1c4fee191f49/mosque/1eee8df1-3032-6f16-8f9c-060bd329544b.jpg",
    "address": "Rerum-Novarumplein 1",
    "city": "GENT",
    "zipcode": "9000",
    "countryFullName": "Belgium",
    "lng": 3.7203594,
    "lat": 51.0233371
  },
  {
    "slug": "m-annasr-koekelberg",
    "name": "Mosquée Annasr",
    "image1": "https://cdn.mawaqit.net/images/backend/mosque_default_picture.png",
    "address": "Chaussée de jette 294",
    "city": "Koekelberg",
    "zipcode": "1081",
    "countryFullName": "Belgium",
    "lng": 4.3326807,
    "lat": 50.8638479
  },
  {
    "slug": "m-aloumma-saint-josse",
    "name": "Mosqée Al Oumma",
    "image1": "https://cdn.mawaqit.net/images/backend/mosque_default_picture.png",
    "address": "Rue Braemt 15",
    "city": "Saint-josse",
    "zipcode": "1210",
    "countryFullName": "BELGIUM",
    "lng": 4.3772522,
    "lat": 50.8502356
  },
  {
    "slug": "emir-abdelkader-colfontaine",
    "name": "مسجد الأمير عبد القادر - Emir Abdelkader",
    "image1": "https://cdn.mawaqit.net/images/backend/mosque/306051ab-6df5-4355-8a32-ffb2055170c5/mosque/1eea8da3-2947-6780-94ed-066ed47a7584.jpg",
    "address": "7, rue du temple",
    "city": "Colfontaine",
    "zipcode": "7340",
    "countryFullName": "Belgium",
    "lng": 3.8570854,
    "lat": 50.4086819
  },
  {
    "slug": "assahaba-verviers",
    "name": "مسجد الصحابة CECIV",
    "image1": "https://cdn.mawaqit.net/images/backend/mosque/e1a0d3ce-97ee-42c7-a2d3-f4b144b3e4f1/mosque/1eea8da3-ba7a-68a6-97ac-066ed47a7584.jpeg",
    "address": "rue de Hodimont 244",
    "city": "Verviers",
    "zipcode": "4800",
    "countryFullName": "BELGIUM",
    "lng": 5.8534377,
    "lat": 50.5955636
  },
  {
    "slug": "be1083",
    "name": "Centre Malik Ibn Anas",
    "image1": "https://cdn.mawaqit.net/images/backend/mosque_default_picture.png",
    "address": "Rue de termonde 250",
    "city": "Bruxelles",
    "zipcode": "1083",
    "countryFullName": "Belgium",
    "lng": 4.3002235,
    "lat": 50.8710523
  },
  {
    "slug": "annajah-bruxelles-com",
    "name": "ANNAJAH",
    "image1": "https://cdn.mawaqit.net/images/backend/mosque_default_picture.png",
    "address": "RUE DE GROENINGHE, n° 42-44",
    "city": "Molenbeek-Saint-Jean",
    "zipcode": "1080",
    "countryFullName": "Belgium",
    "lng": 4.3276925,
    "lat": 50.8545873
  },
  {
    "slug": "annsar-vilvorde",
    "name": "مسجد النصر",
    "image1": "https://cdn.mawaqit.net/images/backend/mosque_default_picture.png",
    "address": "Mechelsesteenweg, 89",
    "city": "Vilvorde",
    "zipcode": "1800",
    "countryFullName": "Belgium",
    "lng": 4.4264912,
    "lat": 50.9343188
  },
  {
    "slug": "el-mouahidine-bruxelles",
    "name": "مسجد الموحدين",
    "image1": "https://cdn.mawaqit.net/images/backend/mosque/72332e9c-078f-4130-813e-52eb20de44e2/mosque/1eea8da5-118a-6122-a627-066ed47a7584.jpg",
    "address": "Rue de Wautier 100",
    "city": "Bruxelles",
    "zipcode": "1020",
    "countryFullName": "Belgium",
    "lng": 4.3531905,
    "lat": 50.8724592
  },
  {
    "slug": "mouwahidine-tournai",
    "name": "مسجد آلموحدين",
    "image1": "https://cdn.mawaqit.net/images/backend/mosque_default_picture.png",
    "address": "13, rue Saint-Maur",
    "city": "Tournai",
    "zipcode": "7500",
    "countryFullName": "Belgium",
    "lng": 3.3989579,
    "lat": 50.5926356
  },
  {
    "slug": "alinaba-berchem-sainte-agathe",
    "name": "مسجد الإنابة - Al-Inaba",
    "image1": "https://cdn.mawaqit.net/images/backend/mosque_default_picture.png",
    "address": "Chaussée de Zellik 29-31",
    "city": "Berchem-s.a",
    "zipcode": "1082",
    "countryFullName": "Belgium",
    "lng": 4.2902673,
    "lat": 50.8702872
  },
  {
    "slug": "alimane-cuesmes",
    "name": "Mosquée Al Imane",
    "image1": "https://cdn.mawaqit.net/images/backend/mosque/418faa8d-5b0c-4bd1-bc67-283ba09e338d/mosque/1efafeff-0bce-61b2-9471-0e9d077f5bb1.jpg",
    "address": "Rue Commandent Lemaire, 159",
    "city": "Cuesmes",
    "zipcode": "7033",
    "countryFullName": "Belgium",
    "lng": 3.909047,
    "lat": 50.438601
  },
  {
    "slug": "mosquee-alislah",
    "name": "مسجد لوط عليه السلام (masjid Lot)",
    "image1": "https://cdn.mawaqit.net/images/backend/mosque_default_picture.png",
    "address": "stationsstraat 23",
    "city": "Lot",
    "zipcode": "1651",
    "countryFullName": "Belgium",
    "lng": 4.2739599,
    "lat": 50.7658715
  },
  {
    "slug": "pres-javais-verviers",
    "name": "MASJID ASSALAM PRES-JAVAIS",
    "image1": "https://cdn.mawaqit.net/images/backend/mosque/e6b8968f-8a46-406c-a269-cfe4ede1d351/mosque/1eea8da7-3e94-6986-adc1-066ed47a7584.jpg",
    "address": "26 RUE DU PRINCE",
    "city": "Verviers",
    "zipcode": "4800",
    "countryFullName": "Belgium",
    "lng": 5.8754893,
    "lat": 50.5982413
  },
  {
    "slug": "arrajae-bruxelles",
    "name": "Mosquée Arrajae - مسجد الرجاء",
    "image1": "https://cdn.mawaqit.net/images/backend/mosque/16949d76-8842-4d05-8315-e0ea0c075587/mosque/1eea8da9-56ea-6466-9ebf-066ed47a7584.jpg",
    "address": "Rue de ter Plast, 54",
    "city": "Bruxelles",
    "zipcode": "1020",
    "countryFullName": "Belgium",
    "lng": 4.346717,
    "lat": 50.8816409
  },
  {
    "slug": "assakina-farciennes",
    "name": "مسجد السكينة",
    "image1": "https://cdn.mawaqit.net/images/backend/mosque/107392f9-9d29-454f-8c1b-080810fdf26a/mosque/1eea8da9-e244-6750-8fc1-066ed47a7584.jpeg",
    "address": "Rue de wainage 105b",
    "city": "Farciennes",
    "zipcode": "6240",
    "countryFullName": "Belgium",
    "lng": 4.5277553,
    "lat": 50.4367467
  },
  {
    "slug": "annour-roeselare",
    "name": "مسجد النور",
    "image1": "https://cdn.mawaqit.net/images/backend/mosque/4b51a968-ea85-4db3-bd2f-36943e3da74e/mosque/1eea8daa-1c2f-6a3c-b2b6-066ed47a7584.jpg",
    "address": "SPINNERSSTRAAT 6A",
    "city": "Roeselare",
    "zipcode": "8800",
    "countryFullName": "Belgium",
    "lng": 3.1339589,
    "lat": 50.9498306
  },
  {
    "slug": "arrayane-bruxelles",
    "name": "مسجد الريان",
    "image1": "https://cdn.mawaqit.net/images/backend/mosque/50dfcd51-ef0a-4710-bbad-b34c13da6f5b/mosque/1eea8daa-a94d-69dc-9226-066ed47a7584.jpg",
    "address": "Rue des prés communs,98",
    "city": "Bruxelles",
    "zipcode": "1120",
    "countryFullName": "Belgium",
    "lng": 4.3848646,
    "lat": 50.8891512
  },
  {
    "slug": "assalam-namur",
    "name": "مسجد السلام",
    "image1": "https://cdn.mawaqit.net/images/backend/mosque_default_picture.png",
    "address": "Rue Marie  Henriette 9",
    "city": "Namur",
    "zipcode": "5000",
    "countryFullName": "Belgium",
    "lng": 4.8582467,
    "lat": 50.4707037
  },
  {
    "slug": "https-mawaqit-net-fr-messages-id-4491",
    "name": "Mosquée Essalam",
    "image1": "https://cdn.mawaqit.net/images/backend/mosque/aa10957d-7107-4a47-8bbf-59a0dd0a90df/mosque/1eea8dab-491f-646a-8234-066ed47a7584.jpg",
    "address": "Avenue Fonsny 81",
    "city": "St-Gilles",
    "zipcode": "1060",
    "countryFullName": "Belgium",
    "lng": 4.3348819,
    "lat": 50.8330355
  },
  {
    "slug": "muslimine-antwerpen",
    "name": "مسجد المسلمين",
    "image1": "https://cdn.mawaqit.net/images/backend/mosque/7bf0c5cf-91da-4b7b-bc33-f1d5bf44dee4/mosque/1eea8dab-8aad-6c60-bfc8-066ed47a7584.jpeg",
    "address": "jan palfijnstraat 35",
    "city": "Antwerpen",
    "zipcode": "2060",
    "countryFullName": "Belgium",
    "lng": 4.4311271,
    "lat": 51.2232267
  },
  {
    "slug": "bilal-antwerpen",
    "name": "Moskee Bilal مسجد بلال",
    "image1": "https://cdn.mawaqit.net/images/backend/mosque/a2f95a5c-31be-4f26-bb16-b585d7522caa/mosque/1eea8dab-a274-611e-b7f6-066ed47a7584.jpeg",
    "address": "van montfortstraat 33",
    "city": "Borgerhout",
    "zipcode": "2140",
    "countryFullName": "Belgium",
    "lng": 4.4374787,
    "lat": 51.2190177
  },
  {
    "slug": "elfath-hoboken",
    "name": "الفتح و النصر Elfath en Nassr",
    "image1": "https://cdn.mawaqit.net/images/backend/mosque/979da01b-a2cc-4147-a805-9e400f7f3220/mosque/1eea8dab-cd8b-6596-9d4e-066ed47a7584.jpeg",
    "address": "Polostraat 59",
    "city": "Hoboken",
    "zipcode": "2660",
    "countryFullName": "Belgium",
    "lng": 4.3744763731956,
    "lat": 51.185192323733
  },
  {
    "slug": "ettaouba-bruxelles",
    "name": "Ettaouba / مسجد التوبة",
    "image1": "https://cdn.mawaqit.net/images/backend/mosque/1a1d3995-890c-4d27-9353-e1d1e3ce1fab/mosque/1eea8dab-ee5e-63fe-b930-066ed47a7584.jpg",
    "address": "Rue Edouard Stuckens 128-130",
    "city": "Bruxelles",
    "zipcode": "1140",
    "countryFullName": "Belgium",
    "lng": 4.398558,
    "lat": 50.8761668
  },
  {
    "slug": "ahle-allah-bruxelles",
    "name": "مسجد أهل الله",
    "image1": "https://cdn.mawaqit.net/images/backend/mosque/3cf315a3-cbd1-4422-962f-6a860086f477/mosque/1eea8dac-1f21-6c84-b506-066ed47a7584.PNG",
    "address": "11 Rue Georges Garnir",
    "city": "Bruxelles",
    "zipcode": "1030",
    "countryFullName": "Belgium",
    "lng": 4.3773661,
    "lat": 50.8754495
  },
  {
    "slug": "alamal-antwerpen",
    "name": "Moskee Al Amal - مسجد الأمل",
    "image1": "https://cdn.mawaqit.net/images/backend/mosque/5cfce0d1-5550-4adb-9c55-79f5b7280223/mosque/1eea8dac-5674-6358-9ab6-066ed47a7584.jpg",
    "address": "palinckstraat124",
    "city": "Antwerpen-Deurne",
    "zipcode": "2100",
    "countryFullName": "Belgium",
    "lng": 4.4605723,
    "lat": 51.2251681
  },
  {
    "slug": "elfath-verviers",
    "name": "مسجد الفتح",
    "image1": "https://cdn.mawaqit.net/images/backend/mosque/84f49cab-531f-4e55-b4ab-fadb2cca3b8e/mosque/1eea8dac-ac76-6ddc-8729-066ed47a7584.jpeg",
    "address": "Rue chat volant 3",
    "city": "Verviers",
    "zipcode": "4800",
    "countryFullName": "Belgium",
    "lng": 5.8705686,
    "lat": 50.5918753
  },
  {
    "slug": "inaba-deurne",
    "name": "inaba انابة",
    "image1": "https://cdn.mawaqit.net/images/backend/mosque/06d56f7c-2336-43df-bc90-292cd789135a/mosque/1eea8dad-4bb6-63c0-9b39-066ed47a7584.jpg",
    "address": "boterlaarbaan 172/174",
    "city": "Deurne",
    "zipcode": "2100",
    "countryFullName": "Belgium",
    "lng": 4.4675507,
    "lat": 51.2089738
  },
  {
    "slug": "alansar-leeuw",
    "name": "مسجد الأنصار",
    "image1": "https://cdn.mawaqit.net/images/backend/mosque_default_picture.png",
    "address": "Bergensesteenweg 375",
    "city": "Sint-Pieters-Leeuw",
    "zipcode": "1600",
    "countryFullName": "Belgium",
    "lng": 4.2795335,
    "lat": 50.7885575
  },
  {
    "slug": "bilal-schaerbeek",
    "name": "Mosquée Bilal",
    "image1": "https://cdn.mawaqit.net/images/backend/mosque/3675a1ae-7a7f-4292-8573-8e12f28a722a/mosque/1eea8dae-74cc-6812-94df-066ed47a7584.jpg",
    "address": "rue D'hoogvorst 23",
    "city": "Schaerbeek",
    "zipcode": "1030",
    "countryFullName": "Belgium",
    "lng": 4.3650824,
    "lat": 50.8631318
  },
  {
    "slug": "ottignies-louvain-la-neuve",
    "name": "Mosquée de Louvain-La-Neuve",
    "image1": "https://cdn.mawaqit.net/images/backend/mosque_default_picture.png",
    "address": "Avenue George Lemaître n°12",
    "city": "Louvain-La-Neuve",
    "zipcode": "1348",
    "countryFullName": "Belgium",
    "lng": 4.6193622,
    "lat": 50.670575
  },
  {
    "slug": "othman-zaventem",
    "name": "مسجد عثمان",
    "image1": "https://cdn.mawaqit.net/images/backend/mosque/42cef5c6-6991-462b-96e2-aea65d5e8fa1/mosque/1eea8daf-cc42-674e-a76d-066ed47a7584.jpg",
    "address": "Hoogstrat 148",
    "city": "Zaventem",
    "zipcode": "1930",
    "countryFullName": "Belgium",
    "lng": 4.467458,
    "lat": 50.8823322
  },
  {
    "slug": "eden-louviere",
    "name": "Mosquée Eden - مسجد عدن",
    "image1": "https://cdn.mawaqit.net/images/backend/mosque/9f56cd87-ad18-4f38-85f5-9628804ce7f2/mosque/1eea8db0-20c4-624a-84e9-066ed47a7584.JPG",
    "address": "Rue de l'Olive 33",
    "city": "La-Louviere",
    "zipcode": "7100",
    "countryFullName": "Belgium",
    "lng": 4.188528,
    "lat": 50.4703468
  },
  {
    "slug": "gm-renaix",
    "name": "الرابطة الثقافية الاسلامية رونس",
    "image1": "https://cdn.mawaqit.net/images/backend/mosque/56c8df7b-82f2-4834-a71f-db08195dc42f/mosque/1eea8db1-62a1-6194-af7d-066ed47a7584.jpeg",
    "address": "Hermes Van Wynghenestraat 14 - 20",
    "city": "Renaix",
    "zipcode": "9600",
    "countryFullName": "Belgium",
    "lng": 3.60867,
    "lat": 50.7436473
  },
  {
    "slug": "attawhid-antwerpen",
    "name": "مسجد التوحيد Moskee Attawhid",
    "image1": "https://cdn.mawaqit.net/images/backend/mosque/bb277762-26f8-4837-a6da-da132c752355/mosque/1eea8db2-2fc9-6c20-a7da-066ed47a7584.jpg",
    "address": "havanastraat 5",
    "city": "Antwerpen",
    "zipcode": "2030",
    "countryFullName": "Belgium",
    "lng": 4.4228384,
    "lat": 51.2618612
  },
  {
    "slug": "ennasr-manage",
    "name": "Mosquée Ennasr - مسجد النصر",
    "image1": "https://cdn.mawaqit.net/images/backend/mosque_default_picture.png",
    "address": "5 Rue Saint-Nicolas",
    "city": "Manage",
    "zipcode": "7170",
    "countryFullName": "Belgium",
    "lng": 4.2274213,
    "lat": 50.4938959
  },
  {
    "slug": "mosquee-aiseau-presles",
    "name": "مسجد الغرباء",
    "image1": "https://cdn.mawaqit.net/images/backend/mosque/12b82aff-00ba-4d5c-b80f-17c6ed10fe58/mosque/1eea8db3-2a01-6d6e-8919-066ed47a7584.jpeg",
    "address": "Rue Lambot 168",
    "city": "Aiseau-Presles",
    "zipcode": "6250",
    "countryFullName": "Belgium",
    "lng": 4.592539,
    "lat": 50.427367
  },
  {
    "slug": "alfath-flenu",
    "name": "Mosquée Al Fath-مسجد الفتح",
    "image1": "https://cdn.mawaqit.net/images/backend/mosque/2b78b8f8-f7d4-432e-9778-c0ee38cb245b/mosque/1eea8db4-ac25-6966-9814-066ed47a7584.jpg",
    "address": "20-2 Rue Du Moulin",
    "city": "Flénu",
    "zipcode": "7012",
    "countryFullName": "Belgium",
    "lng": 3.8986015,
    "lat": 50.438812
  },
  {
    "slug": "msjid-badr-hasselt",
    "name": "مسجد بدر",
    "image1": "https://cdn.mawaqit.net/images/backend/mosque_default_picture.png",
    "address": "Mouterijstraat 1",
    "city": "Hasselt",
    "zipcode": "3500",
    "countryFullName": "Belgium",
    "lng": 5.3299978,
    "lat": 50.933699
  },
  {
    "slug": "bilal-verviers",
    "name": "Mosquée Bilal بلال",
    "image1": "https://cdn.mawaqit.net/images/backend/mosque/2790eeda-dfcd-4c5a-9dd8-96e464d2afc1/mosque/1eea8db5-3f22-6426-a172-066ed47a7584.jpeg",
    "address": "Rue de Hodimont 49",
    "city": "Verviers",
    "zipcode": "4800",
    "countryFullName": "Belgium",
    "lng": 5.8542211,
    "lat": 50.5936983
  },
  {
    "slug": "iframe-src-https-mawaqit-net-fr-w-iframe-src-https-mawaqit-net-nl-w-imam-malik-lokeren-frameborder-0-scrolling-no-class-widget-iframe-frameborder-0-scrolling-no-class-widget-iframe",
    "name": "الإمام مالك",
    "image1": "https://cdn.mawaqit.net/images/backend/mosque/8c9bce6b-edb2-4bc1-b015-473defd5d559/mosque/1eea8db5-4a15-6cc0-95e5-066ed47a7584.jpeg",
    "address": "hoedhaarstraat 5",
    "city": "Lokeren",
    "zipcode": "9160",
    "countryFullName": "Belgium",
    "lng": 3.994116,
    "lat": 51.0997277
  },
  {
    "slug": "boom",
    "name": "Moskee Al Hijra Boom",
    "image1": "https://cdn.mawaqit.net/images/backend/mosque_default_picture.png",
    "address": "kruisstraat 29",
    "city": "Boom",
    "zipcode": "2850",
    "countryFullName": "Belgium",
    "lng": 4.3674789,
    "lat": 51.0904195
  },
  {
    "slug": "assalam-nivelles",
    "name": "Mosquée Salam - مسجد السلام",
    "image1": "https://cdn.mawaqit.net/images/backend/mosque/93b69415-3dc9-4f05-afab-e4a263ba4245/mosque/1eea8db8-200f-6324-a384-066ed47a7584.jpg",
    "address": "Faubourg de Bruxelles, 47",
    "city": "Nivelles",
    "zipcode": "1400",
    "countryFullName": "Belgium",
    "lng": 4.3276166,
    "lat": 50.6016547
  },
  {
    "slug": "fraternite-molenbeek-saint-jean",
    "name": "CENTRE FRATERNITÉ - مركز الأخوة",
    "image1": "https://cdn.mawaqit.net/images/backend/mosque/fd4ce295-a1a1-4d64-bd63-27e4233ee19e/mosque/1eea8db9-826e-6bf4-a95d-066ed47a7584.png",
    "address": "Rue Edmond de Grimberghe 28",
    "city": "Molenbeek-Saint-Jean",
    "zipcode": "1080",
    "countryFullName": "Belgium",
    "lng": 4.3334993,
    "lat": 50.855779
  },
  {
    "slug": "m-jette",
    "name": "Mosquée de jette",
    "image1": "https://cdn.mawaqit.net/images/backend/mosque/fd5438a1-79dc-4ed2-a7a8-766de29bd089/mosque/1eea8db9-b826-69fe-88ea-066ed47a7584.jpg",
    "address": "Rue Théodore 251",
    "city": "Jette",
    "zipcode": "1090",
    "countryFullName": "Belgium",
    "lng": 4.3301235,
    "lat": 50.8807516
  },
  {
    "slug": "annour-mons",
    "name": "مسجد النور - Mosquée An-nour",
    "image1": "https://cdn.mawaqit.net/images/backend/mosque/57041bc8-814e-4e24-9f37-eadafc4efaf2/mosque/1eea8dba-c752-613e-a3e9-066ed47a7584.jpg",
    "address": "14 Rue des Cinq Visages",
    "city": "Mons",
    "zipcode": "7000",
    "countryFullName": "Belgium",
    "lng": 3.9459575,
    "lat": 50.4524254
  },
  {
    "slug": "amanah-anvers",
    "name": "Masjid Amanah",
    "image1": "https://cdn.mawaqit.net/images/backend/mosque/66e4e386-c9e6-43e1-bccd-5d8e748b0088/mosque/1eea8dbb-b680-642c-b996-066ed47a7584.jpg",
    "address": "adbijstraat 237",
    "city": "Antwerpen",
    "zipcode": "2020",
    "countryFullName": "Belgium",
    "lng": 4.3866911,
    "lat": 51.1866441
  },
  {
    "slug": "arrahman-halle",
    "name": "مسجد الرحمان",
    "image1": "https://cdn.mawaqit.net/images/backend/mosque/e43d1458-165f-476d-95fb-afd6c0c4305b/mosque/1eea8dbc-d3d2-6c0e-9ae1-066ed47a7584.jpg",
    "address": "Nijvelsesteenweg 341",
    "city": "Halle",
    "zipcode": "1500",
    "countryFullName": "Belgium",
    "lng": 4.2496586,
    "lat": 50.7221489
  },
  {
    "slug": "moskee-al-buraq-msjd-lbrq-mechelen-2800-belgium",
    "name": "Moskee Al Buraq - مسجد البراق",
    "image1": "https://cdn.mawaqit.net/images/backend/mosque/35137ae8-31b3-4321-bbc5-e0b3aa7f2b33/mosque/1eedcc0d-d7ea-6214-86e9-06acfcd1c88a.jpeg",
    "address": "Generaal de Ceuninckstraat 7",
    "city": "Mechelen",
    "zipcode": "2800",
    "countryFullName": "Belgium",
    "lng": 4.4820535,
    "lat": 51.0351469
  },
  {
    "slug": "masjid-attaqwa-deurne",
    "name": "مسجد التقوى - Moskee Attaqwa",
    "image1": "https://cdn.mawaqit.net/images/backend/mosque_default_picture.png",
    "address": "Van Duyststraat 35",
    "city": "Deurne",
    "zipcode": "2100",
    "countryFullName": "Belgium",
    "lng": 4.4453189,
    "lat": 51.2314263
  },
  {
    "slug": "attaoubah-tubize",
    "name": "مسجد التوبة - Mosquée Attaoubah",
    "image1": "https://cdn.mawaqit.net/images/backend/mosque/981b2769-e43d-4153-8e97-fd6931c17653/mosque/1eea8dbe-ceb4-60d6-a478-066ed47a7584.jpg",
    "address": "Rue des frères Lefort 24",
    "city": "Tubize",
    "zipcode": "1480",
    "countryFullName": "Belgium",
    "lng": 4.2027354,
    "lat": 50.6840552
  },
  {
    "slug": "safa-burcht",
    "name": "SAFA-ZWIJNDRECHT",
    "image1": "https://cdn.mawaqit.net/images/backend/mosque/86ea520d-eed8-45fa-b919-8da372d24276/mosque/1eea8dbf-2032-65f2-95c1-066ed47a7584.jpg",
    "address": "KRIJGSBAAN 331",
    "city": "Burcht",
    "zipcode": "2070",
    "countryFullName": "Belgium",
    "lng": 4.3205002,
    "lat": 51.1950541
  },
  {
    "slug": "alkafaalah-antwerpen",
    "name": "مسجد الكفالة moskee alkafaalah",
    "image1": "https://cdn.mawaqit.net/images/backend/mosque/b677a251-2843-4c7f-a2a5-4775aa666279/mosque/1eea8dbf-b4e3-6318-bdcf-066ed47a7584.jpeg",
    "address": "Turnhoutsebaan 271",
    "city": "Antwerpen",
    "zipcode": "2140",
    "countryFullName": "Belgium",
    "lng": 4.4392407,
    "lat": 51.2141016
  },
  {
    "slug": "chatibi-bruxelles",
    "name": "مسجد الشاطبي El Chatibi",
    "image1": "https://cdn.mawaqit.net/images/backend/mosque/3189b62e-2fd2-43e4-9d12-9a83dd0a0def/mosque/1eea8dc0-5527-67ca-a85f-066ed47a7584.png",
    "address": "Boulevard Léopold I, 236",
    "city": "Bruxelles",
    "zipcode": "1020",
    "countryFullName": "Belgium",
    "lng": 4.3409355,
    "lat": 50.8767455
  },
  {
    "slug": "ben-ziad-wavre",
    "name": "Mosquée Tarik Ben Ziad",
    "image1": "https://cdn.mawaqit.net/images/backend/mosque/a2f2182d-7091-428b-9631-958ceb3a8af1/mosque/1eea8dc1-03a6-6d00-a87a-066ed47a7584.jpg",
    "address": "Rue Provinciale 51A",
    "city": "Wavre",
    "zipcode": "1301",
    "countryFullName": "Belgium",
    "lng": 4.6006082,
    "lat": 50.7128884
  },
  {
    "slug": "el-fath-antwerpenn",
    "name": "مسجد الفتح",
    "image1": "https://cdn.mawaqit.net/images/backend/mosque/f6e6e0fe-6e26-49b0-bbb7-e405a7df952f/mosque/1eea8dc1-3a75-6dd6-99bc-066ed47a7584.jpeg",
    "address": "Ranststraat 26",
    "city": "Antwerpenn",
    "zipcode": "2140",
    "countryFullName": "Belgium",
    "lng": 4.4405385,
    "lat": 51.2190873
  },
  {
    "slug": "oqba-gent",
    "name": "Moskee Okba  مسجد عقبة",
    "image1": "https://cdn.mawaqit.net/images/backend/mosque_default_picture.png",
    "address": "warandestraat 39",
    "city": "Gent",
    "zipcode": "9000",
    "countryFullName": "Belgium",
    "lng": 3.7368254363537,
    "lat": 51.05797813021
  },
  {
    "slug": "1-2-3",
    "name": "مسجد المحسنين",
    "image1": "https://cdn.mawaqit.net/images/backend/mosque/b96c0120-fa3e-4c34-b957-a8cedb53236f/mosque/1eea8dc2-4677-6e30-a772-066ed47a7584.jpeg",
    "address": "sint lambertusstraat 68",
    "city": "Antwerpen",
    "zipcode": "2600",
    "countryFullName": "Belgium",
    "lng": 4.4207561,
    "lat": 51.197926
  },
  {
    "slug": "assounna-anderlecht",
    "name": "ASSOUNNA",
    "image1": "https://cdn.mawaqit.net/images/backend/mosque/fe4db587-0438-400a-8dbd-82ac26b7b0f9/mosque/1eea8dc3-097d-6cea-b80c-066ed47a7584.jpg",
    "address": "Rue Bisse 16-18",
    "city": "Anderlecht",
    "zipcode": "1070",
    "countryFullName": "Belgium",
    "lng": 4.3334452,
    "lat": 50.8425728
  },
  {
    "slug": "elmohsinine-saint-gilles",
    "name": "Mosquée El Mohsinine      مسجد المحسنين",
    "image1": "https://cdn.mawaqit.net/images/backend/mosque/2104d8f8-2c57-4ceb-bc58-765d358d96af/mosque/1eea8dc3-fc39-6984-8525-066ed47a7584.jpg",
    "address": "Rue de Suède, 42-46",
    "city": "Saint-Gilles",
    "zipcode": "1060",
    "countryFullName": "Belgium",
    "lng": 4.3388753,
    "lat": 50.8337005
  },
  {
    "slug": "badr-antwerpen",
    "name": "مسجد بدر",
    "image1": "https://cdn.mawaqit.net/images/backend/mosque/1195f1ca-68b2-4044-9005-279013145261/mosque/1eea8dc4-1a92-6bba-8566-066ed47a7584.jpg",
    "address": "Van Halmalestraat 18",
    "city": "Antwerpen",
    "zipcode": "2020",
    "countryFullName": "Belgium",
    "lng": 4.37626,
    "lat": 51.1865356
  },
  {
    "slug": "omar-antwerpen",
    "name": "مسجد عمر Moskee omar",
    "image1": "https://cdn.mawaqit.net/images/backend/mosque/f499ec1b-9de6-4d85-9a98-78a8147115f0/mosque/1eea8dc4-ed86-60c6-b15c-066ed47a7584.jpeg",
    "address": "Tulpstraat 49",
    "city": "Antwerpen",
    "zipcode": "2060",
    "countryFullName": "Belgium",
    "lng": 4.4266748,
    "lat": 51.2269232
  },
  {
    "slug": "ama-arlon",
    "name": "Masjid Arlon - AMA",
    "image1": "https://cdn.mawaqit.net/images/backend/mosque/a5deb2fa-0f9b-467c-930c-da258cef0508/mosque/1eea8dc5-d8a4-606c-8987-066ed47a7584.jpg",
    "address": "ROUTE DE NEUFCHATEAU 215",
    "city": "Arlon",
    "zipcode": "6700",
    "countryFullName": "Belgium",
    "lng": 5.7960197,
    "lat": 49.6870867
  },
  {
    "slug": "assabil",
    "name": "Mosquée Assabil - مسجد السبيل",
    "image1": "https://cdn.mawaqit.net/images/backend/mosque/f905c85d-2bc1-4928-8b4b-01037b0b3b51/mosque/1eea8dc6-2932-6a9c-ab88-066ed47a7584.jpg",
    "address": "Place de le résistance, 10",
    "city": "Bressoux",
    "zipcode": "4020",
    "countryFullName": "Belgium",
    "lng": 5.5986595,
    "lat": 50.6434595
  },
  {
    "slug": "al-moutaquine-bruxelles",
    "name": "مسجد المتقين - Al Moutaquine",
    "image1": "https://cdn.mawaqit.net/images/backend/mosque/0cba363d-16b8-444a-84da-e348066d0ee9/mosque/1eea8dc7-9f65-6f6a-ac52-066ed47a7584.jpg",
    "address": "Chaussée de Merchtem, 53A",
    "city": "Bruxelles",
    "zipcode": "1080",
    "countryFullName": "Belgium",
    "lng": 4.3371195,
    "lat": 50.857592
  },
  {
    "slug": "youssef-diegem-1",
    "name": "مسجد يوسف",
    "image1": "https://cdn.mawaqit.net/images/backend/mosque/9f51220a-021e-4a5a-807e-b6562c48475a/mosque/1eea8dcf-1415-66d8-aa56-066ed47a7584.jpeg",
    "address": "Oude Haachtsesteenweg 78",
    "city": "Diegem",
    "zipcode": "1831",
    "countryFullName": "Belgium",
    "lng": 4.4346708,
    "lat": 50.8951987
  },
  {
    "slug": "alhouda-lebbeke",
    "name": "مسجد الهدى",
    "image1": "https://cdn.mawaqit.net/images/backend/mosque/128acdae-e4fb-4a4f-bd09-a7a8b486f0c6/mosque/1eea8dcf-b98b-63a6-b3c9-066ed47a7584.jpeg",
    "address": "Konkelgoedstraat 28",
    "city": "Lebbeke",
    "zipcode": "9280",
    "countryFullName": "Belgium",
    "lng": 4.1352311,
    "lat": 51.0013641
  },
  {
    "slug": "el-fath-bruxelles",
    "name": "EL FATH",
    "image1": "https://cdn.mawaqit.net/images/backend/mosque/a023d32f-5cf3-41d7-bde8-bf2b1c95da4a/mosque/1eea8dd2-df92-66fa-ac2f-066ed47a7584.jpg",
    "address": "Rue du Chimiste, 21",
    "city": "Bruxelles",
    "zipcode": "1070",
    "countryFullName": "Belgium",
    "lng": 4.333265,
    "lat": 50.8455482
  },
  {
    "slug": "kn-antwerpen",
    "name": "Masjid Khatumul Anbia",
    "image1": "https://cdn.mawaqit.net/images/backend/mosque/b3e0119c-9760-40a3-a7a6-0c17723ed63f/mosque/1eea8dd4-d62a-6c32-aca9-066ed47a7584.jpg",
    "address": "biekorfstraat 10",
    "city": "Antwerpen",
    "zipcode": "2060",
    "countryFullName": "Belgium",
    "lng": 4.42282,
    "lat": 51.2274374
  },
  {
    "slug": "assounnah-soignies",
    "name": "مسجد السنة",
    "image1": "https://cdn.mawaqit.net/images/backend/mosque/daae90a4-c34a-49c5-a254-e60e692b20ea/mosque/1eea8dd7-0207-6042-935f-066ed47a7584.jpg",
    "address": "rue de Neufvilles 13",
    "city": "Soignies",
    "zipcode": "7060",
    "countryFullName": "Belgium",
    "lng": 4.06620089539,
    "lat": 50.579264723416
  },
  {
    "slug": "almuslimine-molenbeek",
    "name": "مسجد المسلمين",
    "image1": "https://cdn.mawaqit.net/images/backend/mosque/53448554-bdb7-4794-a4ba-ffc6d87c1910/mosque/1eea8dd8-181a-673e-af53-066ed47a7584.JPG",
    "address": "20 rue de Ribaucourt",
    "city": "Molenbeek-Saint-Jean",
    "zipcode": "1080",
    "countryFullName": "Belgium",
    "lng": 4.3391136,
    "lat": 50.8576522
  },
  {
    "slug": "mosquee-al-imane-bastogne",
    "name": "مسجد الإيمان",
    "image1": "https://cdn.mawaqit.net/images/backend/mosque/4bd05e97-8f2a-41e3-9d79-96819127b633/mosque/1eea8ddf-63cc-6662-be07-066ed47a7584.jpg",
    "address": "Avenue de l'indépendance n°100",
    "city": "Bastogne",
    "zipcode": "6600",
    "countryFullName": "Belgium",
    "lng": 5.7274492,
    "lat": 50.011717
  },
  {
    "slug": "assalam-ghlin",
    "name": "Masdjid Assalam - Ghlin",
    "image1": "https://cdn.mawaqit.net/images/backend/mosque/9070c1ad-e23f-46ee-96ad-c7a243203092/mosque/1eea8de2-141c-69fc-836d-066ed47a7584.jpg",
    "address": "2-4 Rue des Coquelicots",
    "city": "Mons",
    "zipcode": "7011",
    "countryFullName": "Belgium",
    "lng": 3.923766,
    "lat": 50.4701979
  },
  {
    "slug": "msjd-ltsmh-athus",
    "name": "مسجد التسامح",
    "image1": "https://cdn.mawaqit.net/images/backend/mosque/ceae2367-a8e8-4eab-b128-5658e357a79a/mosque/1eea8de7-f076-6c40-a94e-066ed47a7584.jpeg",
    "address": "7, Avenue de Luxembourg",
    "city": "Athus",
    "zipcode": "6791",
    "countryFullName": "Belgium",
    "lng": 5.8393785,
    "lat": 49.5615154
  },
  {
    "slug": "https-mawaqit-net-ar-https-mawaqit-net-ar-mosquee-assalam-courcelles",
    "name": "Mosquée Assalam Trazegnies",
    "image1": "https://cdn.mawaqit.net/images/backend/mosque/05e806a2-e8da-41d7-a4bb-8901d4ba0768/mosque/1eea8de9-fbed-639c-b4c3-066ed47a7584.jpg",
    "address": "Grand-rue 93A",
    "city": "Courcelles",
    "zipcode": "6180",
    "countryFullName": "Belgium",
    "lng": 4.336437,
    "lat": 50.4597514
  },
  {
    "slug": "hamza-bruxelles",
    "name": "Mosquée Hamza - مسجد حمزة",
    "image1": "https://cdn.mawaqit.net/images/backend/mosque/a19d35f2-9313-44e3-8a80-a6158a0a2aec/mosque/1eea8dea-7a03-66d2-950a-066ed47a7584.jpg",
    "address": "Boulevard de NIEUPORT 8",
    "city": "Bruxelles",
    "zipcode": "1000",
    "countryFullName": "Belgium",
    "lng": 4.3423491,
    "lat": 50.8537526
  },
  {
    "slug": "es-sabur-antwepen",
    "name": "الصبور  Es Sabur",
    "image1": "https://cdn.mawaqit.net/images/backend/mosque/d33f787d-9eb4-4b94-92da-80cbb27f344c/mosque/1eea8df0-0c62-6df2-bae9-066ed47a7584.jpeg",
    "address": "Tulpstraat 38",
    "city": "Antwerpen",
    "zipcode": "2060",
    "countryFullName": "Belgium",
    "lng": 4.4258284,
    "lat": 51.2266147
  },
  {
    "slug": "masjid-al-khaire-willebroek",
    "name": "Moskee Al Khaire  -  مسجد الخير",
    "image1": "https://cdn.mawaqit.net/images/backend/mosque/6533ddac-78a0-4654-99ba-8d44c0cdf48d/mosque/1eea8df0-45f5-64e8-9806-066ed47a7584.jpg",
    "address": "Stationsstraat 42",
    "city": "Willebroek",
    "zipcode": "2830",
    "countryFullName": "Belgium",
    "lng": 4.3597445,
    "lat": 51.0637005
  },
  {
    "slug": "al-imran-molenbeek",
    "name": "Mosquée Al Imran",
    "image1": "https://cdn.mawaqit.net/images/backend/mosque/e13167e3-36c4-49df-9465-12cfe7959386/mosque/1eea8dfa-82c6-6e80-ad5c-066ed47a7584.JPG",
    "address": "26 rue de Osiers",
    "city": "Molenbeek",
    "zipcode": "1080",
    "countryFullName": "Belgium",
    "lng": 4.3320827,
    "lat": 50.8548521
  },
  {
    "slug": "al-albani-bruxelles",
    "name": "Al Albani",
    "image1": "https://cdn.mawaqit.net/images/backend/mosque/c8f0b269-9f2e-4192-a74d-8cf362c2d380/mosque/1eea8dfb-b0af-62d8-8573-066ed47a7584.jpg",
    "address": "Rue Haeck 31",
    "city": "Bruxelles",
    "zipcode": "1080 Molenbeek",
    "countryFullName": "Belgium",
    "lng": 4.3343847,
    "lat": 50.8638928
  },
  {
    "slug": "mosquee-el-fath-andenne",
    "name": "Mosquée El-Fath",
    "image1": "https://cdn.mawaqit.net/images/backend/mosque/a24c391c-cd2a-4094-9a98-969083f30bfe/mosque/1eea8dfd-9d35-6a98-a8d8-066ed47a7584.jpeg",
    "address": "Rue de la Caserne 28",
    "city": "Andenne",
    "zipcode": "5300",
    "countryFullName": "Belgium",
    "lng": 5.0937087,
    "lat": 50.5013714
  },
  {
    "slug": "mosquee-arrahma-marchienne-au-pont",
    "name": "MOSQUÉE ARRAHMA",
    "image1": "https://cdn.mawaqit.net/images/backend/mosque/5edf4aeb-9fed-440d-9ab1-49f4d72d3c41/mosque/1eea8dfe-1b37-6b94-9512-066ed47a7584.jpeg",
    "address": "rue de chatelet 52",
    "city": "Marchienne-Au-Pont",
    "zipcode": "6030",
    "countryFullName": "Belgium",
    "lng": 4.4007968902588,
    "lat": 50.407847442287
  },
  {
    "slug": "mosquee-maryam-baudour",
    "name": "C.C.C  MARYAM",
    "image1": "https://cdn.mawaqit.net/images/backend/mosque/40a1462a-f6e5-4300-a13e-9672e253e966/mosque/1eea8dfe-cf2a-69c6-8e49-066ed47a7584.jpeg",
    "address": "RUE D'HERCHIES, 13 7331 Saint-Ghislain Belgique",
    "city": "Baudour",
    "zipcode": "7331",
    "countryFullName": "Belgium",
    "lng": 3.8315234,
    "lat": 50.4851655
  },
  {
    "slug": "mosquee-ennour-charleroi",
    "name": "مسجد النور - Mosquée Ennour",
    "image1": "https://cdn.mawaqit.net/images/backend/mosque/ec05f574-b8e2-4dd2-9413-01f80c788bdb/mosque/1eea8e00-696c-6484-9469-066ed47a7584.PNG",
    "address": "Rue de Fayt, 202",
    "city": "Chatelineau",
    "zipcode": "6200",
    "countryFullName": "Belgium",
    "lng": 4.5031488761799,
    "lat": 50.426172061661
  },
  {
    "slug": "essalam-geel-2440-belgium",
    "name": "Essalam",
    "image1": "https://cdn.mawaqit.net/images/backend/mosque/234317d7-d3a3-4d62-b4fa-d511462fdec1/mosque/1eea8e01-238f-6708-9c8c-066ed47a7584.jpg",
    "address": "kollegestraat 85",
    "city": "Geel",
    "zipcode": "2440",
    "countryFullName": "Belgium",
    "lng": 4.9978577,
    "lat": 51.161336
  },
  {
    "slug": "mosquee-tarek-ibno-ziad-bernissart-7320-belgium",
    "name": "Mosquée T.I.Z طارق ابن زياد",
    "image1": "https://cdn.mawaqit.net/images/backend/mosque/9da9818b-fcc1-4469-9044-a598b482c9e6/mosque/1eea8e01-83e6-6db8-bc2f-066ed47a7584.jpg",
    "address": "3 rue valenciennes",
    "city": "Bernissart",
    "zipcode": "7320",
    "countryFullName": "Belgium",
    "lng": 3.6675658,
    "lat": 50.4821714
  },
  {
    "slug": "masjid-somali",
    "name": "Masjid Somali",
    "image1": "https://cdn.mawaqit.net/images/backend/mosque/4d8b78cf-759f-4b9b-8b8a-0d961c4c3f89/mosque/1eea8e01-a13c-6f02-9a2c-066ed47a7584.jpeg",
    "address": "Lange Stuivenbergstraat 30",
    "city": "Antwerpen",
    "zipcode": "2060",
    "countryFullName": "Belgium",
    "lng": 4.4302706,
    "lat": 51.2253757
  },
  {
    "slug": "masjid-anwars-chababs-bruxelles-1080-belgium",
    "name": "Masjid Anwars Chababs",
    "image1": "https://cdn.mawaqit.net/images/backend/mosque/a90a68b6-d9cb-4302-9849-029cad0b97e6/mosque/1eea8e02-524b-6eec-8af7-066ed47a7584.jpeg",
    "address": "Rue Potaerdegat, 10-14",
    "city": "Bruxelles",
    "zipcode": "1080",
    "countryFullName": "Belgium",
    "lng": 4.3057048,
    "lat": 50.8598828
  },
  {
    "slug": "masjid-altasamuh-borgerhout-2140-belgium",
    "name": "Borgerhout  - جامع التسامح",
    "image1": "https://cdn.mawaqit.net/images/backend/mosque/7556aa6d-3b47-4db9-ae20-5b474d2f713a/mosque/1eea8e05-7bb8-6d5e-ba8b-066ed47a7584.PNG",
    "address": "Kattenberg 100",
    "city": "Borgerhout",
    "zipcode": "2140",
    "countryFullName": "Belgium",
    "lng": 4.4385153,
    "lat": 51.2151699
  },
  {
    "slug": "moskee-tawfieq-schelle-2627-belgium",
    "name": "moskee Tawfieq",
    "image1": "https://cdn.mawaqit.net/images/backend/mosque/bd851095-8b49-472c-a0f2-c06912b75021/mosque/1eea8e06-fd04-6556-ad26-066ed47a7584.jpeg",
    "address": "Steenwinkelstraat 11",
    "city": "Schelle",
    "zipcode": "2627",
    "countryFullName": "Belgium",
    "lng": 4.3398087,
    "lat": 51.1256331
  },
  {
    "slug": "mosquee-kobaa-verviers-4800-belgium",
    "name": "Mosquée Kobaa  مسجد قباء",
    "image1": "https://cdn.mawaqit.net/images/backend/mosque/04d90efd-ef07-4244-a19d-411957aac0be/mosque/1eea8e08-64d4-6784-949e-066ed47a7584.jpg",
    "address": "Rue des Fabriques, 28",
    "city": "Verviers",
    "zipcode": "4800",
    "countryFullName": "Belgium",
    "lng": 5.8546884,
    "lat": 50.5971004
  },
  {
    "slug": "mosque-icc-gent-gent-9000-belgium",
    "name": "Moskee ICC Gent مسجد بدر",
    "image1": "https://cdn.mawaqit.net/images/backend/mosque/134d2bdc-cb24-417d-ac0c-c507f23a5f8e/mosque/1eea8e08-acac-6e4e-912e-066ed47a7584.jpg",
    "address": "Kerkstraat 188",
    "city": "Gent",
    "zipcode": "9050",
    "countryFullName": "Belgium",
    "lng": 3.7469952,
    "lat": 51.0437591
  },
  {
    "slug": "moskee-el-hidaya-maaseik-3680-belgium",
    "name": "Moskee El  Hidaya",
    "image1": "https://cdn.mawaqit.net/images/backend/mosque/b0aecf5d-3516-4302-8f41-24dd59fda1a6/mosque/1eea8e08-ca6b-6d22-8ada-066ed47a7584.jpg",
    "address": "31 sportlaan",
    "city": "Maaseik",
    "zipcode": "3680",
    "countryFullName": "Belgium",
    "lng": 5.7922089,
    "lat": 51.1052746
  },
  {
    "slug": "moskee-hamza-antwerpen-2140-belgium",
    "name": "Moskee Hamza / مسجد حمزة",
    "image1": "https://cdn.mawaqit.net/images/backend/mosque/3502270a-03e0-4d3e-b0a3-6e25d8e2d8fb/mosque/1eea8e08-fa15-6726-918f-066ed47a7584.jpg",
    "address": "Kroonstraat 210",
    "city": "Antwerpen",
    "zipcode": "2140",
    "countryFullName": "Belgium",
    "lng": 4.4283247,
    "lat": 51.2103946
  },
  {
    "slug": "masjid-al-muslimeen-houthalen-helchteren-3530-belgium",
    "name": "Moskee El Mouslimeen",
    "image1": "https://cdn.mawaqit.net/images/backend/mosque/c00680bd-5061-4690-b3c8-3bdd718f82c9/mosque/1eea8e09-0c09-6eb4-ba0c-066ed47a7584.jpg",
    "address": "Elzenstraat 14B",
    "city": "Houthalen-Helchteren",
    "zipcode": "3530",
    "countryFullName": "Belgium",
    "lng": 5.398871,
    "lat": 51.0228052
  },
  {
    "slug": "alkaramforest-outlook-com-arabe-https-mawaqit-net-ar-https-mawaqit-net-ar-iframe-src-https",
    "name": "Mosquée Al karam",
    "image1": "https://cdn.mawaqit.net/images/backend/mosque/24f8d839-2e9a-4222-b80f-293e76b58d3f/mosque/1eea8e09-b697-6f0c-bb10-066ed47a7584.jpg",
    "address": "Chaussé de neerstalle 52",
    "city": "Forest",
    "zipcode": "1190",
    "countryFullName": "Belgium",
    "lng": 4.3163489,
    "lat": 50.8077974
  },
  {
    "slug": "lmrkz-ltrbwxy-gent-9000-belgium",
    "name": "المركز التربويAl Markaz Attarbawi",
    "image1": "https://cdn.mawaqit.net/images/backend/mosque/6d17062d-fb04-4243-ad76-07cb874b0315/mosque/1eea8e09-c50d-6316-b6af-066ed47a7584.jpg",
    "address": "Elyzeesevelden 35",
    "city": "Gent",
    "zipcode": "9000",
    "countryFullName": "Belgium",
    "lng": 3.7033998,
    "lat": 51.0630162
  },
  {
    "slug": "masjid-sunnah-lier-lier-2500-belgium",
    "name": "مسجد السنة Masjid Sunnah Lier",
    "image1": "https://cdn.mawaqit.net/images/backend/mosque/d4bf4bd3-0918-41ee-9c11-f2ac3653c11b/mosque/1eea8e0b-c333-625a-be15-066ed47a7584.jpg",
    "address": "Mechelsesteenweg 12",
    "city": "Lier",
    "zipcode": "2500",
    "countryFullName": "Belgium",
    "lng": 4.5616421,
    "lat": 51.1304422
  },
  {
    "slug": "moskee-assalam-duffel-2570-belgium",
    "name": "Moskee Essalaam Duffel",
    "image1": "https://cdn.mawaqit.net/images/backend/mosque/a5733181-0bf1-40f2-aa34-837990a3f64b/mosque/1eea8e0b-f74b-6dda-b965-066ed47a7584.jpg",
    "address": "Handelsstraat 21.23",
    "city": "Duffel",
    "zipcode": "2570",
    "countryFullName": "Belgium",
    "lng": 4.5085904,
    "lat": 51.0944168
  },
  {
    "slug": "moskee-arrahmaan-hamont-achel-3930-belgium",
    "name": "Moskee Arrahmaan",
    "image1": "https://cdn.mawaqit.net/images/backend/mosque/fc3c3d4b-bb4d-4959-bf9a-3c6231a7b1ea/mosque/1eea8e0c-952c-6bee-81d8-066ed47a7584.jpg",
    "address": "Hees 5",
    "city": "Hamont-Achel",
    "zipcode": "3930",
    "countryFullName": "Belgium",
    "lng": 5.5270595,
    "lat": 51.2444606
  },
  {
    "slug": "moskee-ajiaal-bree-3670-belgium",
    "name": "moskee Ajiaal",
    "image1": "https://cdn.mawaqit.net/images/backend/mosque/285a43c1-04d2-497d-9385-ef4d03552b4b/mosque/1eea8e0c-b88d-6f2a-8f85-066ed47a7584.jpg",
    "address": "gruitroderstraat 57",
    "city": "Bree",
    "zipcode": "3670",
    "countryFullName": "Belgium",
    "lng": 5.5940548,
    "lat": 51.1338866
  },
  {
    "slug": "mosquee-raahma-bruxelles",
    "name": "Mosquée Raahma",
    "image1": "https://cdn.mawaqit.net/images/backend/mosque/f2461c3e-223e-41a4-b7f0-1a11cbbce9fd/mosque/1eea8e0e-4c9f-6302-99ef-066ed47a7584.jpg",
    "address": "Rue de l'Eclusier Cogge 10",
    "city": "Bruxelles",
    "zipcode": "1000",
    "countryFullName": "Belgium",
    "lng": 4.3604986,
    "lat": 50.8696418
  },
  {
    "slug": "mosquee-abou-bakr-bruxelles-1080-belgium",
    "name": "Mosquée Abou Bakr",
    "image1": "https://cdn.mawaqit.net/images/backend/mosque/7c19f0f7-3b11-4acc-8ce5-bbe2b30a243f/mosque/1eea8e0f-a673-6652-921f-066ed47a7584.jpg",
    "address": "Rue de la Colonne 32/34",
    "city": "Bruxelles",
    "zipcode": "1080",
    "countryFullName": "Belgium",
    "lng": 4.3353094,
    "lat": 50.8535102
  },
  {
    "slug": "moskee-albidaja-msjd-lbdyh-antwerpen-2600-belgium",
    "name": "Moskee Albidaja - مسجد البدايه",
    "image1": "https://cdn.mawaqit.net/images/backend/mosque/f42a5155-f553-4f99-a7b0-2936cd3ae0c8/mosque/1eea8e0f-c303-68e4-8236-066ed47a7584.jpg",
    "address": "Diksmuidelaan 144",
    "city": "Antwerpen",
    "zipcode": "2600",
    "countryFullName": "Belgium",
    "lng": 4.4436206,
    "lat": 51.1962383
  },
  {
    "slug": "mosquee-al-firdaws-schaerbeek-1030-belgium",
    "name": "Mosquée Al Firdaws",
    "image1": "https://cdn.mawaqit.net/images/backend/mosque/21a57b85-bfd6-4eba-92e1-d9a2c20c9d37/mosque/1eea8e13-8d89-6a84-9330-066ed47a7584.jpg",
    "address": "Chaussée De Louvain 593 1",
    "city": "Schaerbeek",
    "zipcode": "1030",
    "countryFullName": "Belgium",
    "lng": 4.403296,
    "lat": 50.856424
  },
  {
    "slug": "al-moustakbal-bruxelles-1080-belgium",
    "name": "AL Moustakbal",
    "image1": "https://cdn.mawaqit.net/images/backend/mosque/6e3e8210-c1ff-4447-935e-99d43f7981bb/mosque/1eea8e14-7575-6d5c-b3e7-066ed47a7584.jpg",
    "address": "Rue de l'avenir n°18",
    "city": "Bruxelles",
    "zipcode": "1080",
    "countryFullName": "Belgium",
    "lng": 4.3412292,
    "lat": 50.8561513
  },
  {
    "slug": "ibadou-rahman-bruxelles-1020-belgium",
    "name": "IBADOU RAHMAN",
    "image1": "https://cdn.mawaqit.net/images/backend/mosque/e3a40ada-1090-4950-8ccf-32a493851d5c/mosque/1eea8e15-f49a-65be-9cb4-066ed47a7584.jpg",
    "address": "Rue Du Champ De L'eglise 53",
    "city": "Bruxelles",
    "zipcode": "1020",
    "countryFullName": "Belgium",
    "lng": 4.3538921,
    "lat": 50.8759682
  },
  {
    "slug": "moskee-van-hoboken-antwerpen-2660-belgium",
    "name": "Moskee van Hoboken",
    "image1": "https://cdn.mawaqit.net/images/backend/mosque/bc552bc4-b6db-4b9d-85b4-b062b18e48b0/mosque/1eea8e16-74e9-612a-b286-066ed47a7584.jpg",
    "address": "Achturendagstraat 16A",
    "city": "Antwerpen",
    "zipcode": "2660",
    "countryFullName": "Belgium",
    "lng": 4.3376476,
    "lat": 51.1715791
  },
  {
    "slug": "al-ghofrane-anderlecht-1070-belgium",
    "name": "Al Ghoufrane",
    "image1": "https://cdn.mawaqit.net/images/backend/mosque/32e07a25-df93-48b6-a165-ca627b5ba11d/mosque/1eea8e17-e905-6008-bb93-066ed47a7584.jpg",
    "address": "Rue de l'Agrafe 104",
    "city": "Anderlecht",
    "zipcode": "1070",
    "countryFullName": "Belgium",
    "lng": 4.3128430544935,
    "lat": 50.843048997494
  },
  {
    "slug": "sibauaih",
    "name": "Masjid Imaam Sibawayh",
    "image1": "https://cdn.mawaqit.net/images/backend/mosque/d69340c6-6eac-4caa-979a-634461f0696e/mosque/1eea8e18-1283-6f74-8cef-066ed47a7584.jpg",
    "address": "Sint-Bernardsesteenweg 476",
    "city": "Antwerpen",
    "zipcode": "2660",
    "countryFullName": "Belgium",
    "lng": 4.3745451,
    "lat": 51.1860282
  },
  {
    "slug": "mosquee-kouba-bruxelles-1030-belgium",
    "name": "مسجد قباء Mosquée Kouba",
    "image1": "https://cdn.mawaqit.net/images/backend/mosque/61695116-a3fa-42c9-b9e9-2b33f2d22324/mosque/1eea8e18-1fdb-6848-9f21-066ed47a7584.jpg",
    "address": "Rue Vanderlinden 83 Schaerbeek",
    "city": "Bruxelles",
    "zipcode": "1030",
    "countryFullName": "Belgium",
    "lng": 4.3688208,
    "lat": 50.8690559
  },
  {
    "slug": "centre-elhikma-bruxelles-1190-belgium",
    "name": "Centre El Hikma",
    "image1": "https://cdn.mawaqit.net/images/backend/mosque/9eac0c87-ac03-4c8a-a327-bd205142f1ca/mosque/1eea8e18-36fd-6c06-8030-066ed47a7584.jpg",
    "address": "34 rue Berthelot",
    "city": "Bruxelles",
    "zipcode": "1190",
    "countryFullName": "Belgium",
    "lng": 4.3301221,
    "lat": 50.8268751
  },
  {
    "slug": "al-riddaa-msjd-lrd-deurne-2100-belgium",
    "name": "Al Riddaa - مسجد الرضى",
    "image1": "https://cdn.mawaqit.net/images/backend/mosque/9ac2c004-f883-4176-9d6b-e0f08c6c655e/mosque/1eea8e18-7c97-6c08-9dd5-066ed47a7584.jpg",
    "address": "Mattheus Corvensstraat 110",
    "city": "Deurne",
    "zipcode": "2100",
    "countryFullName": "Belgium",
    "lng": 4.4643351,
    "lat": 51.2261809
  },
  {
    "slug": "moskee-salahaddien-gent-9000-belgium",
    "name": "مسجد صلاح الدين",
    "image1": "https://cdn.mawaqit.net/images/backend/mosque/a890ea42-e069-4be2-a424-0c9a7900c784/mosque/1eea8e1a-ebb8-6216-b2e7-066ed47a7584.jpg",
    "address": "Antwerpsesteenweg 21",
    "city": "Gent",
    "zipcode": "9000",
    "countryFullName": "Belgium",
    "lng": 3.742414,
    "lat": 51.0580891
  },
  {
    "slug": "masjid-ibnou-massaoud-forest-1190-belgium",
    "name": "Mosquée IBNOU MASSAOUD",
    "image1": "https://cdn.mawaqit.net/images/backend/mosque/7c66e7ba-d20f-4528-bd94-7b27822628e2/mosque/1eea8e1b-094c-607a-99ad-066ed47a7584.jpg",
    "address": "Rue de Fierlant 107/109",
    "city": "Forest",
    "zipcode": "1190",
    "countryFullName": "Belgium",
    "lng": 4.3314773,
    "lat": 50.8251764
  },
  {
    "slug": "dava-bruxelles-1080-belgium",
    "name": "Da'va",
    "image1": "https://cdn.mawaqit.net/images/backend/mosque/e2673f51-6c85-4f6a-88ff-13eeb5071be5/mosque/1eea8e1b-16ec-69f0-9fb5-066ed47a7584.jpg",
    "address": "Reimond Stijns  87",
    "city": "Bruxelles",
    "zipcode": "1080",
    "countryFullName": "Belgium",
    "lng": 4.315345,
    "lat": 50.8563708
  },
  {
    "slug": "moskee-el-nour-antwerpen-2018-belgium",
    "name": "Moskee El Nour - مسجد النور",
    "image1": "https://cdn.mawaqit.net/images/backend/mosque/1001bbd8-70f5-4153-b7f1-a282f9d9423c/mosque/1eea8e1b-c91a-6118-8682-066ed47a7584.jpg",
    "address": "Wipstraat 16",
    "city": "Antwerpen",
    "zipcode": "2018",
    "countryFullName": "Belgium",
    "lng": 4.4252788,
    "lat": 51.2111379
  },
  {
    "slug": "muwahideen-antwerpen",
    "name": "Masjid muwahideen",
    "image1": "https://cdn.mawaqit.net/images/backend/mosque/b371c62c-1a58-49bf-9670-18ec8443e217/mosque/1eea8e1c-a5e8-648c-b95e-066ed47a7584.jpg",
    "address": "Onderwijsstraat 39",
    "city": "Antwerpen",
    "zipcode": "2060",
    "countryFullName": "Belgium",
    "lng": 4.4347408,
    "lat": 51.2255932
  },
  {
    "slug": "moskee-tawheed-koersel-3582-belgium",
    "name": "مسجد التوحيد - Moskee Tawheed",
    "image1": "https://cdn.mawaqit.net/images/backend/mosque/7af1e7bd-7edc-4764-a753-a651e6ec3719/mosque/1eea8e1d-3fe9-6cd4-9b21-066ed47a7584.jpg",
    "address": "Laan op heusden 65",
    "city": "Koersel",
    "zipcode": "3582",
    "countryFullName": "Belgium",
    "lng": 5.2770019,
    "lat": 51.0491599
  },
  {
    "slug": "al-iman-moskee-antwerpen-antwerpen-2018-belgium",
    "name": "Al Iman Moskee",
    "image1": "https://cdn.mawaqit.net/images/backend/mosque/3929a97b-be07-46c4-ab8c-15f3f73df461/mosque/1eea8e1d-bc89-6046-83fd-066ed47a7584.jpg",
    "address": "Lange kievitstraat 88",
    "city": "Antwerpen",
    "zipcode": "2018",
    "countryFullName": "Belgium",
    "lng": 4.4234609,
    "lat": 51.2132097
  },
  {
    "slug": "imammalik-1210-bruxelles-belgium",
    "name": "Mosquée Imam Malik | مسجد الإمام مالك",
    "image1": "https://cdn.mawaqit.net/images/backend/mosque/1034eff3-1084-4e13-aa78-79d41fe966b4/mosque/1eea8e1d-ef03-6238-a9a7-066ed47a7584.jpg",
    "address": "Rue de la limite 65",
    "city": "Bruxelles",
    "zipcode": "1210",
    "countryFullName": "Belgium",
    "lng": 4.371228,
    "lat": 50.8547408
  },
  {
    "slug": "mosquee-al-hidaya-charleroi-6000-belgium",
    "name": "MOSQUEE AL HIDAYA",
    "image1": "https://cdn.mawaqit.net/images/backend/mosque/ecf420f5-daa7-429b-8cfa-50b9f893a734/mosque/1eea8e1e-6f55-6710-baba-066ed47a7584.jpg",
    "address": "Rue Marie Dance 71",
    "city": "Charleroi",
    "zipcode": "6000",
    "countryFullName": "Belgium",
    "lng": 4.4518256,
    "lat": 50.4206963
  },
  {
    "slug": "masjid-attadamoune-bruxelles-1080-belgium",
    "name": "Mosquée Attadamoune",
    "image1": "https://cdn.mawaqit.net/images/backend/mosque/4e966172-4f6c-46ce-bae8-9bdc8c40565b/mosque/1eea8e1f-0f1a-6c46-9938-066ed47a7584.jpg",
    "address": "Rue des Etangs noirs, 36",
    "city": "Bruxelles",
    "zipcode": "1080",
    "countryFullName": "Belgium",
    "lng": 4.331167,
    "lat": 50.8563969
  },
  {
    "slug": "mosquee-de-couillet-couillet-6010-belgium",
    "name": "Mosquée de Couillet - Belgique",
    "image1": "https://cdn.mawaqit.net/images/backend/mosque/2732bb46-303d-45e8-9d06-f815ee2b700c/mosque/1eea8e20-7772-6cc0-8e26-066ed47a7584.jpg",
    "address": "11 rue de la liaison",
    "city": "Couillet",
    "zipcode": "6010",
    "countryFullName": "Belgium",
    "lng": 4.4663722,
    "lat": 50.3838742
  },
  {
    "slug": "mosquee-an-nour-bruxelles-1030-belgium",
    "name": "Mosquée An-nour",
    "image1": "https://cdn.mawaqit.net/images/backend/mosque/10a12b79-8f8e-4d9f-a687-de37b21457b4/mosque/1eea8e20-99df-675e-a870-066ed47a7584.jpg",
    "address": "Rue massaux",
    "city": "Bruxelles",
    "zipcode": "1030",
    "countryFullName": "Belgium",
    "lng": 4.3748972,
    "lat": 50.8570326
  },
  {
    "slug": "moskee-tauhid-pelt-3910-belgium",
    "name": "Moskee Tauhid مسجد التوحيد",
    "image1": "https://cdn.mawaqit.net/images/backend/mosque/f40aef06-1cd1-496e-9ee1-aa1cb9543093/mosque/1eea8e23-4e46-6948-9518-066ed47a7584.jpg",
    "address": "kolonies 8",
    "city": "Pelt",
    "zipcode": "3910",
    "countryFullName": "Belgium",
    "lng": 5.4549907,
    "lat": 51.2301546
  },
  {
    "slug": "masjidserif1030",
    "name": "Masjid Šerif",
    "image1": "https://cdn.mawaqit.net/images/backend/mosque/a98ebb88-4ee3-42f4-89c7-9725f5a63c31/mosque/1eea8e25-9a4b-6364-ab78-066ed47a7584.jpg",
    "address": "Rue Waelhem 12a",
    "city": "Bruxelles",
    "zipcode": "1030",
    "countryFullName": "Belgium",
    "lng": 4.3771468,
    "lat": 50.8713411
  },
  {
    "slug": "mosquee-al-azhar-msjd-lzhr-saint-josse-ten-noode-1210-belgium",
    "name": "Mosquée Al Azhar  مسجد الأزهر",
    "image1": "https://cdn.mawaqit.net/images/backend/mosque/139ca62f-c598-4446-9a26-8886825240be/mosque/1eea8e27-2f3e-65f6-bbcb-066ed47a7584.jpg",
    "address": "72 Rue Saint François",
    "city": "Saint-Josse-Ten-Noode",
    "zipcode": "1210",
    "countryFullName": "Belgium",
    "lng": 4.3664799,
    "lat": 50.8562218
  },
  {
    "slug": "msjd-lrhm-tienen-3300-belgium",
    "name": "Moskee Arrahma",
    "image1": "https://cdn.mawaqit.net/images/backend/mosque/e6d02af0-4a14-4e04-8637-8ca0720ecb98/mosque/1eea8e27-7b6e-6502-8b07-066ed47a7584.jpg",
    "address": "17 bus 10Leuvenstraat",
    "city": "Tienen",
    "zipcode": "3300",
    "countryFullName": "Belgium",
    "lng": 4.935545,
    "lat": 50.808154
  },
  {
    "slug": "moskeeelalbani",
    "name": "MOSKEE EL ALBANI",
    "image1": "https://cdn.mawaqit.net/images/backend/mosque/54f15ff7-6b87-41e8-8806-9394b5aba51f/mosque/1efa7eb7-1b01-6094-9d13-0e9d077f5bb1.jpeg",
    "address": "Phoenixstraat 49 9000",
    "city": "Gent",
    "zipcode": "9000",
    "countryFullName": "Belgium",
    "lng": 3.706402,
    "lat": 51.0578315
  },
  {
    "slug": "mosquee-errahma-msjd-lrhm-verviers-4800-belgium",
    "name": "Mosquée Errahma - مسجد الرحمة",
    "image1": "https://cdn.mawaqit.net/images/backend/mosque/d913b745-fc31-46c8-9a3c-7ca4acaf3758/mosque/1eea8e2b-2449-6886-9127-066ed47a7584.jpg",
    "address": "Rue du peignage 30",
    "city": "Verviers",
    "zipcode": "4800",
    "countryFullName": "Belgium",
    "lng": 5.8460869,
    "lat": 50.5905311
  },
  {
    "slug": "al-aziz-bruxelles-1080-belgium",
    "name": "AL AZIZ",
    "image1": "https://cdn.mawaqit.net/images/backend/mosque/22782f66-0e7c-40e6-abed-b15ddc658e81/mosque/1eea8e2c-209e-6f8c-bdb0-066ed47a7584.jpg",
    "address": "rue de l Escaut 54",
    "city": "Bruxelles",
    "zipcode": "1080",
    "countryFullName": "Belgium",
    "lng": 4.3417307,
    "lat": 50.8668378
  },
  {
    "slug": "moskee-el-islam-maasmechelen-3630-belgium",
    "name": "Moskee EL ISLAM",
    "image1": "https://cdn.mawaqit.net/images/backend/mosque/6dc41bfb-1e54-42dd-a367-9f5c6712848b/mosque/1efa0eea-9336-6754-b267-0671c73660c5.png",
    "address": "Valkeniersstraat 19B 3630",
    "city": "MAASMECHELEN",
    "zipcode": "3630",
    "countryFullName": "Belgium",
    "lng": 5.6871448,
    "lat": 50.9831461
  },
  {
    "slug": "mosquee-al-ahibba-bruxelles-1070-belgium",
    "name": "Mosquée Al Ahibba",
    "image1": "https://cdn.mawaqit.net/images/backend/mosque/1da0b528-73cf-49f6-801f-2715ecc18818/mosque/1eea8e2d-0796-63a4-b905-066ed47a7584.jpg",
    "address": "Chaussée de Mons 1102",
    "city": "Bruxelles",
    "zipcode": "1070",
    "countryFullName": "Belgium",
    "lng": 4.2943245,
    "lat": 50.821349
  },
  {
    "slug": "amal-al-madina-wervik-8940-belgium",
    "name": "Vzw Amal Al Madina",
    "image1": "https://cdn.mawaqit.net/images/backend/mosque/ebcfaf0c-e810-491c-8dc8-ef72799ce0ef/mosque/1efd95ae-bb34-69a6-b147-06bada7b305f.jpg",
    "address": "ommegangstraat 51",
    "city": "Wervik",
    "zipcode": "8940",
    "countryFullName": "Belgium",
    "lng": 3.0484748,
    "lat": 50.782266
  },
  {
    "slug": "masjid-essalam-borgerhout-2140-belgium-1",
    "name": "Masjid Essalam",
    "image1": "https://cdn.mawaqit.net/images/backend/mosque/1616917e-0516-4810-ab4c-c655d53febcd/mosque/1eea8e36-158d-6f08-aa11-066ed47a7584.jpg",
    "address": "Montenstraat 23",
    "city": "Borgerhout",
    "zipcode": "2140",
    "countryFullName": "Belgium",
    "lng": 4.4330565,
    "lat": 51.2107275
  },
  {
    "slug": "mosquee-arrahman-mouscron-7700-belgium",
    "name": "Mosquée Arrahman",
    "image1": "https://cdn.mawaqit.net/images/backend/mosque/d558848c-60cf-4f34-b639-1f1e014fafd7/mosque/1eea8e37-9116-66ce-8778-066ed47a7584.jpg",
    "address": "rue alois den reep 42",
    "city": "Mouscron",
    "zipcode": "7700",
    "countryFullName": "Belgium",
    "lng": 3.2175923,
    "lat": 50.7405066
  },
  {
    "slug": "anvers-gul-vakfi-hoboken-2660-belgium",
    "name": "Nizam Vakfı",
    "image1": "https://cdn.mawaqit.net/images/backend/mosque/7e0ac771-6d6b-446b-a028-8ef3db6c0dae/mosque/1eea8e38-5129-688a-a568-066ed47a7584.jpg",
    "address": "Sint-Bernardsesteenweg",
    "city": "Hoboken",
    "zipcode": "2660",
    "countryFullName": "Belgium",
    "lng": 4.3655303,
    "lat": 51.1732873
  },
  {
    "slug": "namur-camii",
    "name": "Namur Diyanet Camii",
    "image1": "https://cdn.mawaqit.net/images/backend/mosque/6bed6fc1-5f99-4cba-be63-017b097aa3f6/mosque/1eea8e38-adaf-6014-a2a2-066ed47a7584.jpg",
    "address": "Rue Denis Georges Bayar 13",
    "city": "Namur",
    "zipcode": "5000",
    "countryFullName": "Belgium",
    "lng": 4.8613186,
    "lat": 50.4705158
  },
  {
    "slug": "moskee-al-salam-leuven-3010-belgium",
    "name": "Moskee Al salam",
    "image1": "https://cdn.mawaqit.net/images/backend/mosque/b0d62610-4b5a-4d5e-b6da-93ba30a174db/mosque/1eea8e3b-7edf-6d80-b627-066ed47a7584.jpg",
    "address": "Diestsesteenweg 72C",
    "city": "Leuven",
    "zipcode": "3010",
    "countryFullName": "Belgium",
    "lng": 4.7189927,
    "lat": 50.8836092
  },
  {
    "slug": "moskee-essalam-merksem-2170-belgium",
    "name": "مسجد السلام - Moskee Essalam",
    "image1": "https://cdn.mawaqit.net/images/backend/mosque/df673614-ef22-4b95-99a1-1b0b046bbec7/mosque/1eea8e3c-ec18-6fc2-8328-066ed47a7584.jpg",
    "address": "Borrewaterstraat 131",
    "city": "Merksem",
    "zipcode": "2170",
    "countryFullName": "Belgium",
    "lng": 4.4452878,
    "lat": 51.2392766
  },
  {
    "slug": "mosquee-albanaise-xhamia-e-xhumase-bruxelles-1030-belgium",
    "name": "Mosquée Albanaise - Xhamia e Xhumasë",
    "image1": "https://cdn.mawaqit.net/images/backend/mosque/2e1927ff-ad3a-49cb-a7d7-038808d12ec4/mosque/1eea8e3d-9cd6-6332-bc53-066ed47a7584.jpg",
    "address": "60 avenue Rogier",
    "city": "Bruxelles",
    "zipcode": "1030",
    "countryFullName": "Belgium",
    "lng": 4.3751506,
    "lat": 50.8601332
  },
  {
    "slug": "moskee-el-fath-gent-9000-belgium",
    "name": "مسجد الفتح - Moskee El-Fath",
    "image1": "https://cdn.mawaqit.net/images/backend/mosque/30a3b6f5-1690-4c9f-adfb-f51fb205709b/mosque/1eea8e42-75a4-61c4-b402-066ed47a7584.jpg",
    "address": "beukelaarstraat 25",
    "city": "Gent",
    "zipcode": "9000",
    "countryFullName": "Belgium",
    "lng": 3.702353,
    "lat": 51.0613249
  },
  {
    "slug": "moskee-el-hoeda-genk-3600-belgium",
    "name": "Moskee El Hoeda",
    "image1": "https://cdn.mawaqit.net/images/backend/mosque/d866a410-c0b2-48a1-b42f-fdf2eff649df/mosque/1eea8e44-d0b0-650c-80d6-066ed47a7584.jpg",
    "address": "Socialestraat 6",
    "city": "Genk",
    "zipcode": "3600",
    "countryFullName": "Belgium",
    "lng": 5.5089273,
    "lat": 51.0115148
  },
  {
    "slug": "mosquee-al-amal-bruxelles-1070-belgium",
    "name": "Mosquée Al Amal",
    "image1": "https://cdn.mawaqit.net/images/backend/mosque/81a2ac53-abe1-4be2-806c-6f0fc2c6c787/mosque/1eea8e48-127c-6a6e-8528-066ed47a7584.jpg",
    "address": "Rue du Libre Examen 11",
    "city": "Bruxelles",
    "zipcode": "1070",
    "countryFullName": "Belgium",
    "lng": 4.3137283,
    "lat": 50.8387511
  },
  {
    "slug": "moskee-ennassr-borgerhout-2140-belgium",
    "name": "Moskee Ennassr",
    "image1": "https://cdn.mawaqit.net/images/backend/mosque/c1a3ce4e-d0a5-42c5-bb97-541c302eae8d/mosque/1eea8e48-ba3d-629e-bd04-066ed47a7584.jpg",
    "address": "Kroonstraat 72",
    "city": "Borgerhout",
    "zipcode": "2140",
    "countryFullName": "Belgium",
    "lng": 4.4297278,
    "lat": 51.2141516
  },
  {
    "slug": "pakistan-islamic-cultural-centre-bruxelles-1080-belgium",
    "name": "PAKISTAN ISLAMIC CENTER",
    "image1": "https://cdn.mawaqit.net/images/backend/mosque/5c6ac560-3a3a-4bd6-b1c2-cfb29ed1ac72/mosque/1eea8e4b-8c49-648e-9ac3-066ed47a7584.jpg",
    "address": "Rue des Ateliers 20-22",
    "city": "Bruxelles",
    "zipcode": "1080",
    "countryFullName": "Belgium",
    "lng": 4.3428101,
    "lat": 50.8575644
  },
  {
    "slug": "masjid-el-mohsineen-zelzate-9060-belgium",
    "name": "مسجد المحسنين - El Mohsineen",
    "image1": "https://cdn.mawaqit.net/images/backend/mosque/19916afb-e099-43f6-b8e3-7dc238b20508/mosque/1eea8e4d-ea60-6156-83e3-066ed47a7584.jpg",
    "address": "Knikkerstraat 2",
    "city": "Zelzate",
    "zipcode": "9060",
    "countryFullName": "Belgium",
    "lng": 3.8035142,
    "lat": 51.1978268
  },
  {
    "slug": "centre-culturel-islamique-bangladais-bruxelles-1059-belgium",
    "name": "Centre Culturel Islamique Bangladesh",
    "image1": "https://cdn.mawaqit.net/images/backend/mosque/42315cd9-2aa2-4cbb-b149-e9bc814a585e/mosque/1eea8e4d-ffb3-6d0a-a29c-066ed47a7584.jpg",
    "address": "269 Chaussée de Wavre Ixelles, 1050, Belgium",
    "city": "Bruxelles",
    "zipcode": "1050",
    "countryFullName": "Belgium",
    "lng": 4.3783269,
    "lat": 50.8357438
  },
  {
    "slug": "mosquee-b-i-f-la-louviere-la-louviere-7100-belgium",
    "name": "Mosquée BIF La Louvière",
    "image1": "https://cdn.mawaqit.net/images/backend/mosque/afeb52bd-1eb4-463e-8922-764d71403e76/mosque/1eea8e4f-8f7b-6162-bb53-066ed47a7584.jpg",
    "address": "2 rue Anatole France",
    "city": "La-Louvière",
    "zipcode": "7100",
    "countryFullName": "Belgium",
    "lng": 4.1867956,
    "lat": 50.4792013
  },
  {
    "slug": "alforkan-dilsen-stokkem-3650-belgium",
    "name": "Alforkan - Dilsen - الفرقان",
    "image1": "https://cdn.mawaqit.net/images/backend/mosque/c5d300c4-5376-4c60-99d6-2f3fee9d4f5b/mosque/1eea8e52-6e31-6bf2-af01-066ed47a7584.jpg",
    "address": "Europalaan 127",
    "city": "Dilsen-Stokkem",
    "zipcode": "3650",
    "countryFullName": "Belgium",
    "lng": 5.7137245,
    "lat": 51.0388448
  },
  {
    "slug": "mosquee-des-beaux-arts-de-charleroi-charleroi-6000-belgium",
    "name": "Charleroi Milli Görüş camii- Beaux-arts",
    "image1": "https://cdn.mawaqit.net/images/backend/mosque/9611f407-74c1-4adc-8ca4-c1167c9dc840/mosque/1eea8e56-b267-6ba6-81a4-066ed47a7584.jpg",
    "address": "Boulevard Jacques BERTRAND 77-79",
    "city": "Charleroi",
    "zipcode": "6000",
    "countryFullName": "Belgium",
    "lng": 4.4446211,
    "lat": 50.4143873
  },
  {
    "slug": "masjid-siraat-zwijndrecht-2070-belgium",
    "name": "Moskee Siraat",
    "image1": "https://cdn.mawaqit.net/images/backend/mosque/f065acc8-ac6b-485f-af0a-ea909f732920/mosque/1eea8e58-2624-6b60-86c3-066ed47a7584.jpg",
    "address": "Heidestraat 257",
    "city": "Zwijndrecht",
    "zipcode": "2070",
    "countryFullName": "Belgium",
    "lng": 4.3345597,
    "lat": 51.2092178
  },
  {
    "slug": "mosquee-erahma-jodoigne-1370-belgium",
    "name": "Mosquée E-RAHMA Jodoigne",
    "image1": "https://cdn.mawaqit.net/images/backend/mosque/d28c7bff-1b97-41c1-9c74-88629c5d1ca3/mosque/1eea8e59-4712-6bc8-9d3f-066ed47a7584.jpg",
    "address": "Chaussée de Charleroi 94",
    "city": "Jodoigne",
    "zipcode": "1370",
    "countryFullName": "Belgium",
    "lng": 4.8674795,
    "lat": 50.7177449
  },
  {
    "slug": "al-ihsaan-leuven-vzw-wilsele-leuven-3012-belgium",
    "name": "Al Ihsaan Leuven vzw",
    "image1": "https://cdn.mawaqit.net/images/backend/mosque/d926fcb6-9fa7-410d-bbd8-124598d7622f/mosque/1eea8e5d-7cd6-62ce-b04d-066ed47a7584.jpg",
    "address": "Kolonel Begaultlaan 45",
    "city": "Wilsele-Leuven",
    "zipcode": "3012",
    "countryFullName": "Belgium",
    "lng": 4.7055189,
    "lat": 50.893731
  },
  {
    "slug": "el-forkan-ronse-9600-belgium",
    "name": "Moskee El Forkan",
    "image1": "https://cdn.mawaqit.net/images/backend/mosque/c35deead-962c-4308-9f6a-8ad08a2cc27f/mosque/1eea8e5e-8eb2-6550-80c3-066ed47a7584.jpg",
    "address": "Spinstersstraat 56",
    "city": "Ronse",
    "zipcode": "9600",
    "countryFullName": "Belgium",
    "lng": 3.5921663,
    "lat": 50.7506501
  },
  {
    "slug": "masjid-al-ansaar-dendermonde-9200-belgium",
    "name": "Masjid Al Ansaar - مسجد الأنصار",
    "image1": "https://cdn.mawaqit.net/images/backend/mosque/9f0f9ef7-35b1-49fe-87b3-9ad411067ea7/mosque/1eea8e5e-fa99-6db8-9a87-066ed47a7584.jpg",
    "address": "Van Langenhovestraat 205",
    "city": "Dendermonde",
    "zipcode": "9200",
    "countryFullName": "Belgium",
    "lng": 4.1004541,
    "lat": 51.0175054
  },
  {
    "slug": "icc-al-umma-msjd-lm-antwerpen-2050-belgium",
    "name": "ICC Al Umma مسجد الأمة",
    "image1": "https://cdn.mawaqit.net/images/backend/mosque/a14ec3cd-995a-4f33-b0cf-cc23abaa2391/mosque/1eff2f45-5594-68d0-a36f-06ef9144e88f.jpg",
    "address": "Blancefloerlaan 179 G",
    "city": "Antwerpen",
    "zipcode": "2050",
    "countryFullName": "Belgium",
    "lng": 4.3717422,
    "lat": 51.2197097
  },
  {
    "slug": "mosquee-daroul-arqam-antwerpen-2060-belgium",
    "name": "MOSQUÉE DAROUL ARQAM",
    "image1": "https://cdn.mawaqit.net/images/backend/mosque/c12365ce-636f-4932-b506-32dfb20469d6/mosque/1eea8e62-ee84-6df8-a940-066ed47a7584.jpg",
    "address": "Lange Van Bloerstraat 99",
    "city": "Antwerpen",
    "zipcode": "2060",
    "countryFullName": "Belgium",
    "lng": 4.4343052,
    "lat": 51.2206916
  },
  {
    "slug": "bilal-i-habesi-chatelineau-diyanet-chatelineau-6200-belgium",
    "name": "Bilal-i Habeşi Châtelineau Diyanet",
    "image1": "https://cdn.mawaqit.net/images/backend/mosque/99e8e91c-ab96-485a-8bef-3a1b883f4512/mosque/1eea8e63-825f-6578-adc0-066ed47a7584.jpg",
    "address": "Rue de de la poste 47",
    "city": "Châtelineau",
    "zipcode": "6200",
    "countryFullName": "Belgium",
    "lng": 4.51986,
    "lat": 50.41533
  },
  {
    "slug": "moskee-alfurqaan-msjd-lfrqn-gent-9000-belgium",
    "name": "Masjid Alfurqaan - مسجد الفرقان",
    "image1": "https://cdn.mawaqit.net/images/backend/mosque/b9f5ae12-412a-483f-b3e1-52d9bbbe3e67/mosque/1eea8e64-3b4e-6f2a-b96f-066ed47a7584.jpg",
    "address": "Rietstraat 35",
    "city": "Gent",
    "zipcode": "9000",
    "countryFullName": "Belgium",
    "lng": 3.7100862,
    "lat": 51.0641733
  },
  {
    "slug": "badr-bdr-molenbeek-st-jean-1080-belgium",
    "name": "Badr.     بدر",
    "image1": "https://cdn.mawaqit.net/images/backend/mosque/f7f3a8b3-e774-4761-8987-0a0df9c09975/mosque/1eea8e66-7761-6aa6-8fef-066ed47a7584.jpg",
    "address": "108 rue de ribaucourt",
    "city": "Molenbeek-St-Jean",
    "zipcode": "1080",
    "countryFullName": "Belgium",
    "lng": 4.3416885,
    "lat": 50.8605108
  },
  {
    "slug": "masjid-omar-ibn-al-khattab-bruxelles-1000-belgium",
    "name": "Mosquée Omar Bruxellesمسجد عمر بن الخطاب",
    "image1": "https://cdn.mawaqit.net/images/backend/mosque/d512e71c-ab4c-4fc0-848f-9a82a737a4a4/mosque/1eea8e7a-cb52-6dfe-8662-066ed47a7584.jpg",
    "address": "Rue de Passchendaele 43/45",
    "city": "Bruxelles",
    "zipcode": "1000",
    "countryFullName": "Belgium",
    "lng": 4.3455939,
    "lat": 50.8554681
  },
  {
    "slug": "masjid-islami-kontich-kontich-2550-belgium",
    "name": "Masjid Islami مسجد اسلامي",
    "image1": "https://cdn.mawaqit.net/images/backend/mosque/edd49bd6-26a4-4042-bb7b-7319cfe42d0f/mosque/1eea8e7b-e9d8-6ae8-8ef9-066ed47a7584.jpg",
    "address": "Transvaalstraat 15",
    "city": "Kontich",
    "zipcode": "2550",
    "countryFullName": "Belgium",
    "lng": 4.442562,
    "lat": 51.1376466
  },
  {
    "slug": "moskee-wetteren-9230-belgium",
    "name": "Moskee Wetteren  مسجد وترن",
    "image1": "https://cdn.mawaqit.net/images/backend/mosque/ab078e89-2991-4d08-a1d4-61aefa71b224/mosque/1eea8e7e-174e-639a-87d9-066ed47a7584.jpg",
    "address": "Kattestraat 14",
    "city": "Wetteren",
    "zipcode": "9230",
    "countryFullName": "Belgium",
    "lng": 3.8834041,
    "lat": 51.0080054
  },
  {
    "slug": "mosquee-fatih-de-bruxelles-diyanet-bruxelles-1030-belgium",
    "name": "Brüksel Fatih Camii (Diyanet)",
    "image1": "https://cdn.mawaqit.net/images/backend/mosque/5b86f006-1d90-4f69-b315-8df1389a263d/mosque/1eea8e7f-2e3b-6e30-a7cd-066ed47a7584.jpg",
    "address": "Chaussée d'Haecht nr 88",
    "city": "Bruxelles",
    "zipcode": "1030",
    "countryFullName": "Belgium",
    "lng": 4.3699022,
    "lat": 50.8574933
  },
  {
    "slug": "mosquee-as-sabirin-uccle-1180-belgium",
    "name": "Mosquée As-Sabirin",
    "image1": "https://cdn.mawaqit.net/images/backend/mosque/d548cefe-f589-4103-80a3-5512eca5b590/mosque/1eea8e80-fecf-6b36-8ac2-066ed47a7584.jpg",
    "address": "chaussée de Neerstalle 495",
    "city": "Uccle",
    "zipcode": "1180",
    "countryFullName": "Belgium",
    "lng": 4.3208997,
    "lat": 50.7966055
  },
  {
    "slug": "mesdzid-hamza-boom-boom-2850-belgium",
    "name": "Masjid Hamza Boom",
    "image1": "https://cdn.mawaqit.net/images/backend/mosque/dd680eb9-4142-4f44-b0dd-1d3ba82d5f35/mosque/1eea8e86-5647-69a4-a262-066ed47a7584.jpg",
    "address": "Velodroomstraat 303",
    "city": "Boom",
    "zipcode": "2850",
    "countryFullName": "Belgium",
    "lng": 4.3745522,
    "lat": 51.0917453
  },
  {
    "slug": "aksemseddin-camii-quaregnon-7390-belgium",
    "name": "DİYANET AKSEMSEDDİN CAMİ",
    "image1": "https://cdn.mawaqit.net/images/backend/mosque/76ab13fc-221a-40bd-9f6e-88f16688c545/mosque/1eea8eaa-2107-6c5c-8b65-066ed47a7584.jpg",
    "address": "Adelson Castiaux 80",
    "city": "QUAREGNON",
    "zipcode": "7390",
    "countryFullName": "Belgium",
    "lng": 3.8650636,
    "lat": 50.4400922
  },
  {
    "slug": "rahman-camii-vilvoorde-1800-belgium",
    "name": "Rahman Camii",
    "image1": "https://cdn.mawaqit.net/images/backend/mosque/430ea7f4-1bdb-428b-96ee-96823883f10c/mosque/1eea8eb6-b4e9-64c8-a4cf-066ed47a7584.jpg",
    "address": "Cyriel Buyssestraat 14",
    "city": "VILVOORDE",
    "zipcode": "1800",
    "countryFullName": "Belgium",
    "lng": 4.4262759,
    "lat": 50.9357038
  },
  {
    "slug": "ayasofya-hasselt-hasselt-3511-belgium",
    "name": "AYASOFYA HASSELT",
    "image1": "https://cdn.mawaqit.net/images/backend/mosque/a5bbcf35-cc6b-4dee-9d11-ff2373ebcc13/mosque/1eea8eb7-9e0e-6734-a89a-066ed47a7584.jpg",
    "address": "CRUTZENSTRAAT 40",
    "city": "HASSELT",
    "zipcode": "3511",
    "countryFullName": "Belgium",
    "lng": 5.3136726289098,
    "lat": 50.94528854572
  },
  {
    "slug": "moskee-aalst-aalst-9300-belgium",
    "name": "Moskee Aalst",
    "image1": "https://cdn.mawaqit.net/images/backend/mosque/d060f222-d11f-4b5c-879a-143cd8ee3ab0/mosque/1eea8eb8-420d-6466-9639-066ed47a7584.jpg",
    "address": "Frits de Wolfkaai 5",
    "city": "AALST",
    "zipcode": "9300",
    "countryFullName": "Belgium",
    "lng": 4.0440571,
    "lat": 50.9405138
  },
  {
    "slug": "masjid-koerdi-antwerpen-2060-belgium",
    "name": "مسجد برايه تي",
    "image1": "https://cdn.mawaqit.net/images/backend/mosque/88a2a75d-7b4a-4c6a-b373-6e3824714584/mosque/1eea8eb8-9fac-6234-8fbf-066ed47a7584.jpg",
    "address": "schijnpoortweg 11",
    "city": "ANTWERPEN",
    "zipcode": "2060",
    "countryFullName": "Belgium",
    "lng": 4.4384850226005,
    "lat": 51.227335711717
  },
  {
    "slug": "mosquee-attakwa-cheratte-4602-belgium",
    "name": "Mosquée Attakwa مسجد التقوى",
    "image1": "https://cdn.mawaqit.net/images/backend/mosque/9bfef18f-7575-4cb3-92cc-59c51c4f7d4d/mosque/1ef679e1-d07b-6016-841c-0600dbafaeef.jpg",
    "address": "Rue derrière les jardins 29",
    "city": "CHERATTE",
    "zipcode": "4602",
    "countryFullName": "Belgium",
    "lng": 5.6766095,
    "lat": 50.6879457
  },
  {
    "slug": "el-gazali-camii-antwerpen-2060-belgium",
    "name": "Moskee El Gazali",
    "image1": "https://cdn.mawaqit.net/images/backend/mosque/955bee6c-a2be-4e11-bf27-2fa857837b8e/mosque/1eea8ebd-4cfc-6ebc-ab56-066ed47a7584.jpg",
    "address": "Gasstraat 70-72",
    "city": "ANTWERPEN",
    "zipcode": "2060",
    "countryFullName": "Belgium",
    "lng": 4.425539,
    "lat": 51.2251992
  },
  {
    "slug": "ebji-gembloux-gembloux-5030-belgium",
    "name": "EBJI Gembloux",
    "image1": "https://cdn.mawaqit.net/images/backend/mosque/d05c48b6-9ac6-4594-8f23-5eb6acdedb0d/mosque/1eea8ebf-5d33-6fcc-9f00-066ed47a7584.jpg",
    "address": "Rue du Huit Mai 10,",
    "city": "GEMBLOUX",
    "zipcode": "5030",
    "countryFullName": "Belgium",
    "lng": 4.6945029,
    "lat": 50.5602635
  },
  {
    "slug": "mosquee-al-jadid-bruxelles-1000-belgium",
    "name": "Mosquée Al-Jadid",
    "image1": "https://cdn.mawaqit.net/images/backend/mosque/0566ae11-5aba-46d2-ad4d-10e09b51514f/mosque/1eea8ec5-afb8-6436-9604-066ed47a7584.jpg",
    "address": "181, Boulevard Maurice Lemonnier",
    "city": "BRUXELLES",
    "zipcode": "1000",
    "countryFullName": "Belgium",
    "lng": 4.3422034,
    "lat": 50.8415304
  },
  {
    "slug": "moskee-el-houda-msjd-lhd-sint-niklaas-9100-belgium",
    "name": "Moskee El Houda - مسجد الهدى",
    "image1": "https://cdn.mawaqit.net/images/backend/mosque/91c8e9e2-b851-41b2-911b-b937965c0927/mosque/1eea8ed1-b907-6ad0-8c5e-066ed47a7584.jpg",
    "address": "atomiumstraat 23 a",
    "city": "SINT-NIKLAAS",
    "zipcode": "9100",
    "countryFullName": "Belgium",
    "lng": 4.133845,
    "lat": 51.1744704
  },
  {
    "slug": "houthalen-yesil-camii-houthalen-helchteren-3530-belgium",
    "name": "Houthalen Yeşil Camii",
    "image1": "https://cdn.mawaqit.net/images/backend/mosque/bd3316a2-e260-4663-9cb2-f6ace8777bc2/mosque/1eea8ed5-e5b2-677a-8264-066ed47a7584.jpg",
    "address": "Saviostraat 49",
    "city": "HOUTHALEN HELCHTEREN",
    "zipcode": "3530",
    "countryFullName": "Belgium",
    "lng": 5.3962802,
    "lat": 51.0234119
  },
  {
    "slug": "centre-culturel-koubaa-bruxelles-1030-belgium",
    "name": "Centre Culturel Koubaa - المركز قباء",
    "image1": "https://cdn.mawaqit.net/images/backend/mosque/3a033f79-9178-4d8e-95aa-42b29a3a65dd/mosque/1eea8ee3-060f-6dc6-bc56-066ed47a7584.jpg",
    "address": "Rue Vanderlinden 81-87",
    "city": "BRUXELLES",
    "zipcode": "1030",
    "countryFullName": "Belgium",
    "lng": 4.3687725,
    "lat": 50.8690152
  },
  {
    "slug": "masjid-arrahma-sint-truiden-3800-belgium",
    "name": "Moskee Arrahma        /      مسجد الرحمة",
    "image1": "https://cdn.mawaqit.net/images/backend/mosque/ed8008f3-caed-4f07-9850-f38f9cc8bc46/mosque/1eea8ee5-615c-6416-8ed6-066ed47a7584.jpg",
    "address": "Haardstraat 80",
    "city": "SINT-TRUIDEN",
    "zipcode": "3800",
    "countryFullName": "Belgium",
    "lng": 5.1854754,
    "lat": 50.8211271
  },
  {
    "slug": "tawheed-vzw-hoogstraten-2328-belgium",
    "name": "Tawheed vzw",
    "image1": "https://cdn.mawaqit.net/images/backend/mosque/03ac5e3d-57b9-4112-894c-7dfeee5dad25/mosque/1eea8ee8-9706-6690-a795-066ed47a7584.jpg",
    "address": "Vrijheid 103",
    "city": "HOOGSTRATEN",
    "zipcode": "2328",
    "countryFullName": "Belgium",
    "lng": 4.7618184,
    "lat": 51.4023557
  },
  {
    "slug": "moskee-el-ouahda-hoboken-2660-belgium",
    "name": "مسجد الوحدة",
    "image1": "https://cdn.mawaqit.net/images/backend/mosque/19d6d850-c876-4ba0-893e-e097cab43d98/mosque/1eea9af1-4cc3-6d3e-bf65-061f509c0970.png",
    "address": "Lelieplaats 25",
    "city": "HOBOKEN",
    "zipcode": "2660",
    "countryFullName": "Belgium",
    "lng": 4.3516875,
    "lat": 51.1739942
  },
  {
    "slug": "moskee-arrahim-temse-temse-9140-belgium",
    "name": "Moskee Arrahim",
    "image1": "https://cdn.mawaqit.net/images/backend/mosque/f90b991f-7f36-4d03-b899-64c6f917f646/mosque/1eeb25d5-6e85-6dae-8afa-06acfcd1c88a.jpg",
    "address": "Vrijheidstraat 71",
    "city": "TEMSE",
    "zipcode": "9140",
    "countryFullName": "Belgium",
    "lng": 4.2198131,
    "lat": 51.129104
  },
  {
    "slug": "mousqee-bader-harelbeke-8530-belgium",
    "name": "Moskee Bader مسجد بدر",
    "image1": "https://cdn.mawaqit.net/images/backend/mosque/d578120b-b6ea-4993-b6c8-6ceca0621c31/mosque/1eec68e8-b96e-68be-a197-0a7eba2dd6b3.jpg",
    "address": "Kortrijksesteenweg 184",
    "city": "HARELBEKE",
    "zipcode": "8530",
    "countryFullName": "Belgium",
    "lng": 3.2976886,
    "lat": 50.8473098
  },
  {
    "slug": "selimiye-cami-diyanet-berchem-2600-belgium",
    "name": "Berchem Selimiye Cami (Diyanet)",
    "image1": "https://cdn.mawaqit.net/images/backend/mosque/5b343f91-4c6b-480b-abad-fb5c0ed704fe/mosque/1eecf0a7-2040-6074-972b-0a7eba2dd6b3.jpeg",
    "address": "Genereaal Drubbelstraat 66",
    "city": "BERCHEM",
    "zipcode": "2600",
    "countryFullName": "Belgium",
    "lng": 4.4257999,
    "lat": 51.199075
  },
  {
    "slug": "moskee-aisja-oostende-8400-belgium",
    "name": "Moskee Aisja",
    "image1": "https://cdn.mawaqit.net/images/backend/mosque/27065574-ea03-4135-b177-04d4e324b76e/mosque/1eed00f3-87de-686e-b514-0a7eba2dd6b3.jpg",
    "address": "Hendrik Conscienceplein 5",
    "city": "OOSTENDE",
    "zipcode": "8400",
    "countryFullName": "Belgium",
    "lng": 2.9025503,
    "lat": 51.217108
  },
  {
    "slug": "moskee-hassan-ebno-thabit-genk-3600-belgium",
    "name": "Moskee Hassan Ebno Tabbit",
    "image1": "https://cdn.mawaqit.net/images/backend/mosque/bcf8a22c-aa6e-46f4-a599-46af87ba745e/mosque/1eed4c69-e660-6d80-8b77-0a41fb876de1.jpg",
    "address": "Noordlaan 133 bus 1",
    "city": "GENK",
    "zipcode": "3600",
    "countryFullName": "Belgium",
    "lng": 5.4634183645248,
    "lat": 50.973291776429
  },
  {
    "slug": "eyyub-el-ensari-camii-zele-9240-belgium",
    "name": "Eyyub El-Ensari Camii",
    "image1": "https://cdn.mawaqit.net/images/backend/mosque/43b836c0-ad8b-4915-a328-abab8283c85f/mosque/1eed73d0-7726-68dc-98e4-06acfcd1c88a.png",
    "address": "Zwaanstraat 17",
    "city": "ZELE",
    "zipcode": "9240",
    "countryFullName": "Belgium",
    "lng": 4.0380482,
    "lat": 51.0672876
  },
  {
    "slug": "het-gezin-berendrecht-2040-belgium",
    "name": "Het Gezin - Berendrecht",
    "image1": "https://cdn.mawaqit.net/images/backend/mosque/0099f450-5534-42c1-8589-220e60377cce/mosque/1eed96d5-4844-60b4-bd02-0a7eba2dd6b3.jpg",
    "address": "Steenovenstraat 95",
    "city": "BERENDRECHT",
    "zipcode": "2040",
    "countryFullName": "Belgium",
    "lng": 4.3397582,
    "lat": 51.3558918
  },
  {
    "slug": "mechelse-moskee-mechelen-2800-belgium",
    "name": "Mechelse Moskee- مسجد ميخلن",
    "image1": "https://cdn.mawaqit.net/images/backend/mosque/76a7f81d-3f78-490f-875c-0a180791c57e/mosque/1eedee30-1865-6c14-a6fc-0e0314f5f227.jpg",
    "address": "Olivetenvest 6",
    "city": "MECHELEN",
    "zipcode": "2800",
    "countryFullName": "Belgium",
    "lng": 4.4702436,
    "lat": 51.0300152
  },
  {
    "slug": "mosque-arafat-molenbeek-saint-jean-1080-belgium",
    "name": "Mosque Arafat",
    "image1": "https://cdn.mawaqit.net/images/backend/mosque/e3a01089-8b52-4c0e-b90c-4a3eba70a8e0/mosque/1eee1587-7385-69c2-9867-0630e78a0ebd.jpg",
    "address": "Rue Ulens 85/87",
    "city": "MOLENBEEK-SAINT-JEAN",
    "zipcode": "1080",
    "countryFullName": "Belgium",
    "lng": 4.3426992,
    "lat": 50.8630135
  },
  {
    "slug": "bayt-al-salaam-willebroek-2830-belgium",
    "name": "Masjid Bayt Al Salaam",
    "image1": "https://cdn.mawaqit.net/images/backend/mosque/c03ea7ef-a63a-4834-b979-980ff5ef39c9/mosque/1eee3142-5dda-6650-89fc-0a9258a77f81.png",
    "address": "Dendermondsesteenweg 123b",
    "city": "WILLEBROEK",
    "zipcode": "2830",
    "countryFullName": "Belgium",
    "lng": 4.3535607,
    "lat": 51.0595387
  },
  {
    "slug": "iccum-antwerp-2050-belgium",
    "name": "Ummatu Muhammad (ﷺ)",
    "image1": "https://cdn.mawaqit.net/images/backend/mosque/6a61466e-cf3a-4975-8724-6a3f07ada3de/mosque/1eee3e22-932f-6110-8659-0621eb7171ad.jpeg",
    "address": "Gloriantlaan 26",
    "city": "ANTWERP",
    "zipcode": "2050",
    "countryFullName": "Belgium",
    "lng": 4.3861012,
    "lat": 51.2307834
  },
  {
    "slug": "moskee-al-fath-vzw-sint-niklaas-sint-niklaas-9100-belgium",
    "name": "Moskee Al Fath vzw - Sint-Niklaas",
    "image1": "https://cdn.mawaqit.net/images/backend/mosque/dee0fae7-92ed-4054-a0e7-bf3d6f16e9fd/mosque/1eee480a-d7ea-6376-a7b0-0e9057d1f981.jpg",
    "address": "Oosterlaan 7",
    "city": "SINT-NIKLAAS",
    "zipcode": "9100",
    "countryFullName": "Belgium",
    "lng": 4.1463332,
    "lat": 51.1715827
  },
  {
    "slug": "essalaam-tessenderlo-3980-belgium",
    "name": "ESSALAAM",
    "image1": "https://cdn.mawaqit.net/images/backend/mosque/c6e3d3ee-d49d-47e4-bdaf-21e1d9c893a3/mosque/1eee6cb0-0c45-6cd2-acec-0a9258a77f81.png",
    "address": "Tussenhoekstraat 28",
    "city": "TESSENDERLO",
    "zipcode": "3980",
    "countryFullName": "Belgium",
    "lng": 5.131137266403,
    "lat": 51.069356249321
  },
  {
    "slug": "moskee-sheikh-mansour-hasselt-3500-belgium",
    "name": "Sheikh Mansour",
    "image1": "https://cdn.mawaqit.net/images/backend/mosque/8bc2e207-38a4-4f27-9305-5b4e07045af0/mosque/1eee86e7-2eca-6626-b0f0-0e8f4a8ce035.jpg",
    "address": "Sint-Truidersteenweg 466",
    "city": "HASSELT",
    "zipcode": "3500",
    "countryFullName": "Belgium",
    "lng": 5.3140499,
    "lat": 50.9042923
  },
  {
    "slug": "moskee-al-azhar-waregem-waregem-8790-belgium",
    "name": "Moskee Al Azhar Waregem",
    "image1": "https://cdn.mawaqit.net/images/backend/mosque/cd9972ac-a5c8-4a9e-8933-b6238815d275/mosque/1eee9112-f0dd-6e54-9630-0621eb7171ad.jpg",
    "address": "Roger Vansteenbruggestraat 123",
    "city": "WAREGEM",
    "zipcode": "8790",
    "countryFullName": "Belgium",
    "lng": 3.4199702,
    "lat": 50.8902137
  },
  {
    "slug": "taoubat-moskee-antwerpen-2000-belgium",
    "name": "Taoubat moskee",
    "image1": "https://cdn.mawaqit.net/images/backend/mosque/11d357c8-31be-4315-8a26-40472bc858cb/mosque/1eeebbe0-eadf-6004-b1dc-060bd329544b.jpg",
    "address": "Pourbusstraat 9",
    "city": "ANTWERPEN",
    "zipcode": "2000",
    "countryFullName": "Belgium",
    "lng": 4.3906591,
    "lat": 51.208903
  },
  {
    "slug": "lmb-saint-gilles-1060-belgium",
    "name": "LIIB",
    "image1": "https://cdn.mawaqit.net/images/backend/mosque/6160888c-f9ab-4592-97bf-ca607d06215a/mosque/1eeecebf-2ef0-618a-b694-0621eb7171ad.png",
    "address": "Rue Joseph Claes 68",
    "city": "SAINT-GILLES",
    "zipcode": "1060",
    "countryFullName": "Belgium",
    "lng": 4.3389286,
    "lat": 50.8323732
  },
  {
    "slug": "alansar-bruxelles-1030-belgium",
    "name": "AL-ANSAR",
    "image1": "https://cdn.mawaqit.net/images/backend/mosque/6a28c0ea-bd74-4cad-b60c-b2ccb7d7316e/mosque/1eeee079-95ae-657c-a75f-0e8f4a8ce035.jpg",
    "address": "Rue verte 240",
    "city": "BRUXELLES",
    "zipcode": "1030",
    "countryFullName": "Belgium",
    "lng": 4.3665011,
    "lat": 50.8629818
  },
  {
    "slug": "islamitisch-centrum-geel-geel-2440-belgium",
    "name": "Islamitisch Centrum Geel",
    "image1": "https://cdn.mawaqit.net/images/backend/mosque/862ce7af-e841-443a-91be-6181b62b250d/mosque/1eef01d2-370a-67bc-b09c-0621eb7171ad.jpg",
    "address": "Zwanenstraat 4",
    "city": "GEEL",
    "zipcode": "2440",
    "countryFullName": "Belgium",
    "lng": 4.9719611,
    "lat": 51.1711817
  },
  {
    "slug": "mosquee-bilal-schaerbeek-1030-belgium",
    "name": "Mosquée Bilal.",
    "image1": "https://cdn.mawaqit.net/images/backend/mosque/5f7549cc-a008-4f1d-932c-6758bf7faebc/mosque/1eef4934-d84a-6970-86be-0e21237a51f7.jpg",
    "address": "Rue d'hoogvorst, 23",
    "city": "SCHAERBEEK",
    "zipcode": "1030",
    "countryFullName": "Belgium",
    "lng": 4.3650262,
    "lat": 50.8630975
  },
  {
    "slug": "xhamia-drita-aalst-9320-belgium",
    "name": "Xhamia DRITA",
    "image1": "https://cdn.mawaqit.net/images/backend/mosque/b3c57f12-7dc4-4cfb-bbab-4ba16bd22daa/mosque/1eef5b0e-1581-63bc-a284-0aca010661ff.png",
    "address": "Hogeweg 125A",
    "city": "AALST",
    "zipcode": "9320",
    "countryFullName": "Belgium",
    "lng": 4.0684622,
    "lat": 50.920701
  },
  {
    "slug": "mosquee-lunion-athus-6791-belgium",
    "name": "Mosquée l'Union",
    "image1": "https://cdn.mawaqit.net/images/backend/mosque/e297c642-d8a3-4b46-a6cf-d8db530e9566/mosque/1eef9ae5-ee06-6a54-93b3-0a382b7256a1.jpg",
    "address": "29 Rue Floréal",
    "city": "ATHUS",
    "zipcode": "6791",
    "countryFullName": "Belgium",
    "lng": 5.8339876,
    "lat": 49.5608691
  },
  {
    "slug": "al-mouhsinine-bilzen-3740-belgium",
    "name": "Al Mouhsinine",
    "image1": "https://cdn.mawaqit.net/images/backend/mosque/45aed19e-ddcb-47ee-a15b-4082b27fa767/mosque/1eefa55a-224d-6fc8-92bb-0e8f4a8ce035.jpg",
    "address": "Hasseltsepoort 17",
    "city": "BILZEN",
    "zipcode": "3740",
    "countryFullName": "Belgium",
    "lng": 5.5138089,
    "lat": 50.8730406
  },
  {
    "slug": "yunus-emre-camii-willebroek-2830-belgium",
    "name": "Yunus Emre Camii",
    "image1": "https://cdn.mawaqit.net/images/backend/mosque/3bfbdd4c-e440-420e-92f4-5aaa42b87419/mosque/1eefd01e-f223-6d94-8860-0a382b7256a1.png",
    "address": "Stationsstraat 106",
    "city": "WILLEBROEK",
    "zipcode": "2830",
    "countryFullName": "Belgium",
    "lng": 4.3579624,
    "lat": 51.065714
  },
  {
    "slug": "masjid-bilal-liege-4000-belgium",
    "name": "Mosquée bilal  مسجد بلال لييج",
    "image1": "https://cdn.mawaqit.net/images/backend/mosque/4e5254a5-c03f-41a9-8914-d8c7fcb288c2/mosque/1ef00a66-400d-65ba-bf03-0a382b7256a1.jpg",
    "address": "Rue emile Vandervelde 292",
    "city": "LIEGE",
    "zipcode": "4000",
    "countryFullName": "Belgium",
    "lng": 5.5389864,
    "lat": 50.6462101
  },
  {
    "slug": "alaaddin-charleroi-6030-belgium",
    "name": "ALAADDIN CAMII",
    "image1": "https://cdn.mawaqit.net/images/backend/mosque/94ee7c09-c9b5-496b-81a3-5567da387b57/mosque/1ef04d12-5cff-60e4-8ea3-0621eb7171ad.jpeg",
    "address": "Rue de la providence 36",
    "city": "CHARLEROI",
    "zipcode": "6030",
    "countryFullName": "Belgium",
    "lng": 4.3977706,
    "lat": 50.4122194
  },
  {
    "slug": "moskee-al-tasamuh-antwerpen-2140-belgium",
    "name": "Moskee Al Tasamuh",
    "image1": "https://cdn.mawaqit.net/images/backend/mosque/71a0bba8-0b8b-4b49-94a1-2da0b0ab3447/mosque/1ef0ecd3-3dad-689c-a783-0e8f4a8ce035.jpeg",
    "address": "Kattenberg 100",
    "city": "ANTWERPEN",
    "zipcode": "2140",
    "countryFullName": "Belgium",
    "lng": 4.4385153,
    "lat": 51.2151699
  },
  {
    "slug": "gulvakfi-serhendi-hoboken-2660-belgium-1",
    "name": "Gülvakfi SERHENDI",
    "image1": "https://cdn.mawaqit.net/images/backend/mosque/bec7d939-8414-4320-a57b-21a2ca034424/mosque/1ef119f4-11ee-65aa-b2a7-0a33d0408e15.jpg",
    "address": "St. Bernardsesteenweg 657",
    "city": "HOBOKEN",
    "zipcode": "2660",
    "countryFullName": "Belgium",
    "lng": 4.3671443,
    "lat": 51.1748619
  },
  {
    "slug": "albanese-cultureel-centrum-oostende-oostende-8400-belgium-1",
    "name": "Albanese Cultureel centrum oostende",
    "image1": "https://cdn.mawaqit.net/images/backend/mosque/1601021e-f13e-49fe-b5c3-bd29142bde30/mosque/1ef21a58-bb0f-6430-8865-069cfb0c4e97.jpg",
    "address": "Torhoutsesteenweg 211",
    "city": "OOSTENDE",
    "zipcode": "8400",
    "countryFullName": "Belgium",
    "lng": 2.9074911,
    "lat": 51.2190729
  },
  {
    "slug": "mehmet-akif-camii-antwerpen-2018-belgium",
    "name": "Mehmet Akif Camii",
    "image1": "https://cdn.mawaqit.net/images/backend/mosque/55051e1c-317e-480d-996d-afb9237b78db/mosque/1ef21edb-23d3-6eae-b663-0ecb5e3f0f5f.jpg",
    "address": "Dendermondestraat 34",
    "city": "ANTWERPEN",
    "zipcode": "2018",
    "countryFullName": "Belgium",
    "lng": 4.3933795,
    "lat": 51.2042388
  },
  {
    "slug": "imsal-leuven-3000-belgium",
    "name": "IMSAL",
    "image1": "https://cdn.mawaqit.net/images/backend/mosque/0fbdbbae-9128-4dab-947a-1fbf6c3c7379/mosque/1ef476fa-38aa-6188-b44a-0600dbafaeef.jpg",
    "address": "Rijschoolstraat 23",
    "city": "LEUVEN",
    "zipcode": "3000",
    "countryFullName": "Belgium",
    "lng": 4.703709,
    "lat": 50.881568
  },
  {
    "slug": "el-houda-genk-3600-belgium-1",
    "name": "El Houda",
    "image1": "https://cdn.mawaqit.net/images/backend/mosque/98985495-32eb-4025-b58e-52b5e6f6e988/mosque/1ef595a5-7d91-69fc-ab9b-0afeeb7ee923.jpg",
    "address": "socialestraat 6",
    "city": "GENK",
    "zipcode": "3600",
    "countryFullName": "Belgium",
    "lng": 5.5009081,
    "lat": 51.011642
  },
  {
    "slug": "masjid-a-rahmaan-antwerpen-2018-belgium",
    "name": "Masjid A Rahmaan",
    "image1": "https://cdn.mawaqit.net/images/backend/mosque/6e8547d1-1835-4cc7-8e1d-993913e319b6/mosque/1ef6ddbc-3d85-68f8-bfaf-0a30a0d770d7.jpg",
    "address": "boudewijnsstraat 19",
    "city": "ANTWERPEN",
    "zipcode": "2018",
    "countryFullName": "Belgium",
    "lng": 4.3989465,
    "lat": 51.2058031
  },
  {
    "slug": "immamu-abou-houreyra-bruxelles-1030-belgium",
    "name": "Centre culturel Immamu Abou Houreyra",
    "image1": "https://cdn.mawaqit.net/images/backend/mosque/c3310da7-2f8f-47a1-8779-00864676525b/mosque/1ef71aef-8615-6c6a-b9a4-0600dbafaeef.png",
    "address": "Rue Waelhem 12a",
    "city": "BRUXELLES",
    "zipcode": "1030",
    "countryFullName": "Belgium",
    "lng": 4.3771737,
    "lat": 50.8713623
  },
  {
    "slug": "la-louviere-yavuz-sultan-selim-camii-la-louviere-7100-belgium",
    "name": "La Louvière Yavuz Sultan Selim Camii",
    "image1": "https://cdn.mawaqit.net/images/backend/mosque/9ac98dc1-98d1-4fae-99a7-eff6bd5393c5/mosque/1ef75fa8-5b9f-697e-8287-0600dbafaeef.jpg",
    "address": "Rue Émile Urbain 208",
    "city": "LA LOUVIèRE",
    "zipcode": "7100",
    "countryFullName": "Belgium",
    "lng": 4.1737504,
    "lat": 50.4691838
  },
  {
    "slug": "atawhid-ath-7800-belgium",
    "name": "ATAWHID",
    "image1": "https://cdn.mawaqit.net/images/backend/mosque/71057645-b040-407c-9c65-40c63ee964f5/mosque/1ef7a90a-0da1-6dac-b949-0600dbafaeef.jpg",
    "address": "Rue du Rempart 8",
    "city": "ATH",
    "zipcode": "7800",
    "countryFullName": "Belgium",
    "lng": 3.7821616,
    "lat": 50.628203
  },
  {
    "slug": "lmasjid-laadam-tongeren-3700-belgium",
    "name": "مسجد تونغيرين",
    "image1": "https://cdn.mawaqit.net/images/backend/mosque/22474044-eb11-49bd-aaa2-1e1dc9d79010/mosque/1ef7b635-27d5-64e8-98b9-0600dbafaeef.jpg",
    "address": "Elderseweg 35",
    "city": "TONGEREN",
    "zipcode": "3700",
    "countryFullName": "Belgium",
    "lng": 5.4772349,
    "lat": 50.7849098
  },
  {
    "slug": "gmb",
    "name": "La Grande Mosquée de Bruxelles",
    "image1": "https://cdn.mawaqit.net/images/backend/mosque/baf20f83-11a3-404a-bf05-61175972ad07/mosque/1ef7cf49-e209-65da-a468-0600dbafaeef.jpg",
    "address": "Parc du Cinquantenaire 14",
    "city": "BRUXELLES",
    "zipcode": "1000",
    "countryFullName": "Belgium",
    "lng": 4.3876335,
    "lat": 50.8435627
  },
  {
    "slug": "moskee-ennour-diest-3290-belgium",
    "name": "MOSKEE ENNOUR",
    "image1": "https://cdn.mawaqit.net/images/backend/mosque/103407ec-4583-45eb-a4ea-e22326dba96e/mosque/1ef8f0e8-264f-64f4-b85d-0e9d077f5bb1.jpg",
    "address": "Leuvensestraat 75",
    "city": "DIEST",
    "zipcode": "3290",
    "countryFullName": "Belgium",
    "lng": 5.0494098,
    "lat": 50.9818901
  },
  {
    "slug": "mevlana-mosquee-bruxelles-1080-belgium",
    "name": "Mevlana Cami",
    "image1": "https://cdn.mawaqit.net/images/backend/mosque/90b82421-3305-4042-970b-7556d95fb947/mosque/1ef968de-9516-67b6-bf46-0671c73660c5.jpg",
    "address": "Rue de Ribeaucourt 32",
    "city": "BRUXELLES",
    "zipcode": "1080",
    "countryFullName": "Belgium",
    "lng": 4.3393127,
    "lat": 50.8578594
  },
  {
    "slug": "itehad-ulmaslimin-gent-9000-belgium",
    "name": "Itehad ulmaslimin",
    "image1": "https://cdn.mawaqit.net/images/backend/mosque/f1eafc59-3e43-49c4-8adf-d1c2a6400630/mosque/1ef98898-0949-656a-a9f3-0a0389a4e0f5.jpg",
    "address": "Voormuide 71/C",
    "city": "GENT",
    "zipcode": "9000",
    "countryFullName": "Belgium",
    "lng": 3.7291365,
    "lat": 51.0688034
  },
  {
    "slug": "anderlecht-merkez-camii-brussels-1070-belgium",
    "name": "ANDERLECHT MERKEZ CAMII",
    "image1": "https://cdn.mawaqit.net/images/backend/mosque/cf20132d-8bb8-4a82-9e2f-32572223edfd/mosque/1ef9cde7-3a7c-6dbe-9400-0a0389a4e0f5.png",
    "address": "Rue Auguste Gevaert 39, Anderlecht",
    "city": "BRUSSELS",
    "zipcode": "1070",
    "countryFullName": "Belgium",
    "lng": 4.3290929,
    "lat": 50.8374893
  },
  {
    "slug": "mosquee-ar-rahma-waremme-4300-belgium",
    "name": "Mosquée Ar Rahma",
    "image1": "https://cdn.mawaqit.net/images/backend/mosque/00399684-8226-42e4-b533-a065bdd103cd/mosque/1efa5d75-1022-6604-a235-0a0389a4e0f5.jpeg",
    "address": "Avenue Guillaume Joachim 1D",
    "city": "WAREMME",
    "zipcode": "4300",
    "countryFullName": "Belgium",
    "lng": 5.259692,
    "lat": 50.6976338
  },
  {
    "slug": "masjid-vaynah-wondelgem-9032-belgium",
    "name": "Masjid VAYNAH",
    "image1": "https://cdn.mawaqit.net/images/backend/mosque/d7d19a97-3326-44f5-a5f9-d6bfd754de9c/mosque/1efa1d87-3465-680a-a024-0a0389a4e0f5.jpeg",
    "address": "Kapiteinstraat 42",
    "city": "WONDELGEM",
    "zipcode": "9032",
    "countryFullName": "Belgium",
    "lng": 3.7232026,
    "lat": 51.0882362
  },
  {
    "slug": "moskee-ikc-gazi-husrev-beg-antwerpen-2100-belgium",
    "name": "MOSKEE IKC GAZI HUSREV BEG",
    "image1": "https://cdn.mawaqit.net/images/backend/mosque/28edd42d-1d7f-434c-b761-e86df8bd35f0/mosque/1efa5c63-ff3f-6998-aa27-0a0389a4e0f5.jpg",
    "address": "Ten eekhovelei 223",
    "city": "ANTWERPEN",
    "zipcode": "2100",
    "countryFullName": "Belgium",
    "lng": 4.4478925,
    "lat": 51.2275456
  },
  {
    "slug": "mosquee-ulu-camii-bruxelles-1000-belgium",
    "name": "Mosquee Bruxelles ULU Camii",
    "image1": "https://cdn.mawaqit.net/images/backend/mosque/43758c09-7e98-4dff-ba5c-ce785f34266c/mosque/1efabfba-c7dc-6db0-a590-0671c73660c5.jpg",
    "address": "Rue Masui 101",
    "city": "BRUXELLES",
    "zipcode": "1000",
    "countryFullName": "Belgium",
    "lng": 4.359789,
    "lat": 50.8673055
  },
  {
    "slug": "stichting-ikhlaas-zemst-1981-belgium",
    "name": "Stichting Ikhlaas",
    "image1": "https://cdn.mawaqit.net/images/backend/mosque/2e24b335-66c2-49bb-beb7-48d818ecbdfb/mosque/1efaff96-7910-65a8-b3f0-0a0389a4e0f5.jpg",
    "address": "Tervuursesteenweg 7",
    "city": "ZEMST",
    "zipcode": "1981",
    "countryFullName": "Belgium",
    "lng": 4.4866067,
    "lat": 51.0049115
  },
  {
    "slug": "mosquee-at-touba-gilly-6060-belgium",
    "name": "Mosquée At-Touba",
    "image1": "https://cdn.mawaqit.net/images/backend/mosque/1679e20e-57f1-4ecb-ae5e-8acaa8770ca1/mosque/1efb8a4a-3517-6006-875f-069dbb1b261f.jpg",
    "address": "Rue du Bois de Lobbes 30",
    "city": "GILLY",
    "zipcode": "6060",
    "countryFullName": "Belgium",
    "lng": 4.4738486,
    "lat": 50.430015
  },
  {
    "slug": "a-s-b-l-taqwa-jumet-6040-belgium",
    "name": "A.S.B.L Taqwa",
    "image1": "https://cdn.mawaqit.net/images/backend/mosque/6429f91c-8704-4c41-b4f3-f6f8af0f1fab/mosque/1efbf98c-ea08-6e68-a582-0a21b15e7a1f.jpeg",
    "address": "Rue Jacques Lion, 75",
    "city": "JUMET",
    "zipcode": "6040",
    "countryFullName": "Belgium",
    "lng": 4.4335584,
    "lat": 50.4470931
  },
  {
    "slug": "oudenaarde-ensar-moskee-oudenaarde-9700-belgium",
    "name": "ENSAR MOSKEE",
    "image1": "https://cdn.mawaqit.net/images/backend/mosque/22284bec-0346-414d-bf6a-fa6b0845d11e/mosque/1efc25d0-e319-609c-8d3e-0ef2881d9837.jpg",
    "address": "Nestor de Tierrestraat 166",
    "city": "OUDENAARDE",
    "zipcode": "9700",
    "countryFullName": "Belgium",
    "lng": 3.6209617,
    "lat": 50.8694129
  },
  {
    "slug": "oosterse-culturele-organisatie-antwerpen-2140-belgium",
    "name": "Moskee Al Rayyan",
    "image1": "https://cdn.mawaqit.net/images/backend/mosque/219d5620-c52f-4f78-8195-a70db15bd684/mosque/1efd3491-7743-66ee-9aaf-0e61b0058d45.jpg",
    "address": "Turnhoutsebaan 31",
    "city": "ANTWERPEN",
    "zipcode": "2140",
    "countryFullName": "Belgium",
    "lng": 4.4299719,
    "lat": 51.2168427
  },
  {
    "slug": "msjd-bw-bkr-tournai-tournai-7500-belgium",
    "name": "Mosquée Aboubakr",
    "image1": "https://cdn.mawaqit.net/images/backend/mosque/a0f5245c-1701-4e86-8434-118a6de4f04f/mosque/1efd29a5-5bed-6940-8713-0ac178b258e1.jpg",
    "address": "Rue des récollets 27",
    "city": "TOURNAI",
    "zipcode": "7500",
    "countryFullName": "Belgium",
    "lng": 3.3970396,
    "lat": 50.6025974
  },
  {
    "slug": "moskee-asalam-al-madina-tienen-3300-belgium",
    "name": "Moskee Asalam Al madina",
    "image1": "https://cdn.mawaqit.net/images/backend/mosque/4af51e18-ac27-4171-a8e8-f8d8f2e7e4ad/mosque/1eff2d95-dca6-6ad2-b7bb-06ef9144e88f.jpg",
    "address": "Beauduinstraat 138",
    "city": "TIENEN",
    "zipcode": "3300",
    "countryFullName": "Belgium",
    "lng": 4.9462541,
    "lat": 50.8031642
  },
  {
    "slug": "shahjalal-baitul-aman-antwerpen-2060-belgium",
    "name": "Moskee Shahjalal Baitul Aman",
    "image1": "https://cdn.mawaqit.net/images/backend/mosque/840e8dc3-7802-4a5c-be4b-f6e555158e89/mosque/1eff946b-14c2-66dc-8bcb-0e61b0058d45.jpeg",
    "address": "Dambrugstraat 60",
    "city": "ANTWERPEN",
    "zipcode": "2060",
    "countryFullName": "Belgium",
    "lng": 4.423437,
    "lat": 51.2204546
  },
  {
    "slug": "mosquee-attawba-eupen-4700-belgium",
    "name": "Mosquée Attawba",
    "image1": "https://cdn.mawaqit.net/images/backend/mosque/92dc0228-b86b-433c-a2bf-bbab76de0029/mosque/1f002697-0f91-68fc-9314-0a2e1c0b5725.jpg",
    "address": "rue Neuve 87",
    "city": "EUPEN",
    "zipcode": "4700",
    "countryFullName": "Belgium",
    "lng": 6.0306969,
    "lat": 50.6256336
  },
  {
    "slug": "mosque-al-fath-leuven-3000-belgium",
    "name": "Masjid Al Fath Leuven",
    "image1": "https://cdn.mawaqit.net/images/backend/mosque/578508ea-30f5-4ab5-8f47-85f2fe6cf5c1/mosque/1f028e2a-8890-644a-b74b-0e31fcfe1275.jpeg",
    "address": "Penitentienenstraat 33",
    "city": "LEUVEN",
    "zipcode": "3000",
    "countryFullName": "Belgium",
    "lng": 4.6950878,
    "lat": 50.8846232
  },
  {
    "slug": "moskee-at-taqwa-mol-2400-belgium",
    "name": "MOSKEE AT-TAQWA",
    "image1": "https://cdn.mawaqit.net/images/backend/mosque/ad8eeed7-6c03-4aaa-b41d-773b7f4c782c/mosque/1f00628e-92f5-6b16-bafe-0e61b0058d45.jpg",
    "address": "Bergstraat",
    "city": "MOL",
    "zipcode": "2400",
    "countryFullName": "Belgium",
    "lng": 5.1211309432983,
    "lat": 51.190361793213
  },
  {
    "slug": "lokeren-diyanet-sakarya-camii-lokeren-9160-belgium",
    "name": "Lokeren Diyanet Sakarya Camii",
    "image1": "https://cdn.mawaqit.net/images/backend/mosque/c92de163-cd8e-4c8c-89b2-dca08738dfb6/mosque/1f006a90-84b3-6a80-954e-0e61b0058d45.jpg",
    "address": "Sterrestraat 96",
    "city": "LOKEREN",
    "zipcode": "9160",
    "countryFullName": "Belgium",
    "lng": 3.9859131,
    "lat": 51.0976562
  },
  {
    "slug": "moskee-arrahman-halle-1500-belgium",
    "name": "Moskee Arrahman",
    "image1": "https://cdn.mawaqit.net/images/backend/mosque/eb7798ad-1e4e-4112-95d0-9a7e749eee77/mosque/1f00f1e5-558a-695c-b32a-0ac73cfd41db.jpg",
    "address": "Nijvelsesteenweg 341",
    "city": "HALLE",
    "zipcode": "1500",
    "countryFullName": "Belgium",
    "lng": 4.2498352,
    "lat": 50.722333
  },
  {
    "slug": "moskee-brugge-brugge-8200-belgium",
    "name": "CIC BRUGGE",
    "image1": "https://cdn.mawaqit.net/images/backend/mosque/7c2ee2fe-9f72-46ca-89aa-0e9e4b2e28b6/mosque/1f016533-7247-6074-9b9a-06bdda781935.jpeg",
    "address": "Hertogenstraat 73",
    "city": "BRUGGE",
    "zipcode": "8200",
    "countryFullName": "Belgium",
    "lng": 3.2011745,
    "lat": 51.1987046
  },
  {
    "slug": "moskee-al-nur-gent-9000-belgium",
    "name": "Moskee Al Nur",
    "image1": "https://cdn.mawaqit.net/images/backend/mosque/f5bb4a5e-10b0-4b30-b3a9-c62f13012164/mosque/1f02528b-9af3-6662-b1ef-0e61b0058d45.jpg",
    "address": "Phoenixstraat, Gent, België",
    "city": "GENT",
    "zipcode": "9000",
    "countryFullName": "Belgium",
    "lng": 3.7059718,
    "lat": 51.0580975
  },
  {
    "slug": "mosquee-al-itissam-liege-4020-belgium",
    "name": "Mosquée Al Itissam",
    "image1": "https://cdn.mawaqit.net/images/backend/mosque/e00e9e45-74dc-41fc-80d7-9bd1e434a053/mosque/1f0257f6-ff28-6c52-a86c-0ac73cfd41db.png",
    "address": "Rue de Porto 64, Liège, Belgique",
    "city": "LIèGE",
    "zipcode": "4020",
    "countryFullName": "Belgium",
    "lng": 5.5946015,
    "lat": 50.642662
  },
  {
    "slug": "jamia-masjid-anwar-e-madina-gent-gent-9000-belgium",
    "name": "Jamia Masjid Anwar E Madina Gent",
    "image1": "https://cdn.mawaqit.net/images/backend/mosque/c09e195f-28cc-44b0-8441-14c58272ce7b/mosque/1f03e050-e9d9-6c1e-9258-0e17cda947f5.jpeg",
    "address": "Victor Frisstraat 27, 9000 Gent, Belgium",
    "city": "GENT",
    "zipcode": "9000",
    "countryFullName": "Belgium",
    "lng": 3.7074661,
    "lat": 51.0629381
  }
]