[
  {
    "slug": "masjid-al-hasan-batam",
    "name": "Masjid Al-Hasan",
    "image1": "https://cdn.mawaqit.net/images/backend/mosque_default_picture.png",
    "address": null,
    "city": "Batam",
    "zipcode": "29433",
    "countryFullName": "INDONESIA",
    "lng": 104.0652887,
    "lat": 1.0733608
  },
  {
    "slug": "haruniyah-pontianak",
    "name": "Masjid Jami' Haruniyah",
    "image1": "https://cdn.mawaqit.net/images/backend/mosque/bf94ee6b-8ce0-408d-b008-916adfc67fc3/mosque/1eea8dce-f605-62d8-af95-066ed47a7584.jpg",
    "address": "Jl. H. Abu Naim, Kelurahan Tambelan Sampit",
    "city": "Pontianak",
    "zipcode": "78124",
    "countryFullName": "Indonesia",
    "lng": 109.3543602,
    "lat": -0.0353768
  },
  {
    "slug": "al-haida-palembang",
    "name": "Masjid Al - Haida",
    "image1": "https://cdn.mawaqit.net/images/backend/mosque/df63e2f7-a7fd-4029-93ff-7087cffbfbff/mosque/1eea8dfb-70de-6a14-950e-066ed47a7584.jpeg",
    "address": "Kencana Damai",
    "city": "Palembang",
    "zipcode": "30164",
    "countryFullName": "Indonesia",
    "lng": 104.76213504264,
    "lat": -2.9139950997783
  },
  {
    "slug": "masjid-al-istiqomah-jakarta-timur-13460-indonesia",
    "name": "Masjid Al-Istiqomah",
    "image1": "https://cdn.mawaqit.net/images/backend/mosque/e5d41bae-4128-438c-8360-267ca122220c/mosque/1eea8e2a-d9f3-6c64-a8af-066ed47a7584.jpg",
    "address": "Teratai Putih blok 19",
    "city": "Jakarta-Timur",
    "zipcode": "13460",
    "countryFullName": "Indonesia",
    "lng": 106.9313511,
    "lat": -6.2217855
  },
  {
    "slug": "masjid-zaidin-palembang-30145-indonesia-1",
    "name": "MASJID ZAIDIN",
    "image1": "https://cdn.mawaqit.net/images/backend/mosque/01a72f97-350f-481f-bf31-cdf7a9614e6a/mosque/1eea8e2e-1485-66d6-8a48-066ed47a7584.jpg",
    "address": "LR FAMILIDIN 32 ILIR PALEMBANG",
    "city": "Palembang",
    "zipcode": "30145",
    "countryFullName": "Indonesia",
    "lng": 104.7481905,
    "lat": -3.0047283
  },
  {
    "slug": "masjid-quba-taman-royal-2",
    "name": "Masjid Quba",
    "image1": "https://cdn.mawaqit.net/images/backend/mosque/c04446fd-60ed-4482-8b1c-236a6510b99a/mosque/1eea8e3a-578f-61e6-899b-066ed47a7584.jpg",
    "address": "Perumahan Taman Royal 2 Kelurahan Poris Plawad Indah",
    "city": "Kota-Tangerang",
    "zipcode": "15141",
    "countryFullName": "Indonesia",
    "lng": 106.6622021,
    "lat": -6.1924998
  },
  {
    "slug": "masjid-at-taqwa-cimahi-40513-indonesia",
    "name": "Masjid At-Taqwa",
    "image1": "https://cdn.mawaqit.net/images/backend/mosque/9cf2e22e-5280-422f-87ef-cbb4f7d489d2/mosque/1eea8e50-d3f9-613a-8359-066ed47a7584.jpg",
    "address": "Jl. Daeng Mohammad  Ardiwinata no 263 Cibabat Cimahi Utara",
    "city": "Cimahi",
    "zipcode": "40513",
    "countryFullName": "Indonesia",
    "lng": 107.5628938,
    "lat": -6.8640654
  },
  {
    "slug": "al-amin-aminah-binti-saif-yogyakarta-55295-indonesia-1",
    "name": "Al-Amin Aminah Binti Saif",
    "image1": "https://cdn.mawaqit.net/images/backend/mosque/cffe9945-6351-4dd9-bdcf-769a6b656bbb/mosque/1eea8e54-427f-655c-8df2-066ed47a7584.jpg",
    "address": "Sumbergamol Balecatur Gamping Sleman",
    "city": "Yogyakarta",
    "zipcode": "55295",
    "countryFullName": "Indonesia",
    "lng": 110.2971325,
    "lat": -7.8010978
  },
  {
    "slug": "masjid-al-ikhlas-prima-harapan-regensi-bekasi-17123-indonesia",
    "name": "Masjid Al-Ikhlas Prima Harapan Regensi",
    "image1": "https://cdn.mawaqit.net/images/backend/mosque/f7920c02-7c09-46e3-815d-2abb16a0cf03/mosque/1eea8e55-61ce-69fc-8be0-066ed47a7584.jpg",
    "address": "Prima Harapan Regensi, Bekasi Utara",
    "city": "Bekasi",
    "zipcode": "17123",
    "countryFullName": "Indonesia",
    "lng": 107.01170146465,
    "lat": -6.2122553870758
  },
  {
    "slug": "masjid-jami-baiturrahmah-jakarta-selatan-12450-indonesia",
    "name": "Masjid Jami' Baiturrahmah",
    "image1": "https://cdn.mawaqit.net/images/backend/mosque/cc615ad0-898f-4230-87a7-f8d776b53d78/mosque/1eea8e5a-2bcf-66c6-81cd-066ed47a7584.jpg",
    "address": "Jalan Agraria Nomor 1 Komplek DDN I, Pondok Labu - Cilandak",
    "city": "Jakarta-Selatan",
    "zipcode": "12450",
    "countryFullName": "Indonesia",
    "lng": 106.79942993235,
    "lat": -6.3032250259429
  },
  {
    "slug": "al-mujahidin-uny-daerah-istimewa-yogyakarta-55281-indonesia",
    "name": "Al-Mujahidin UNY",
    "image1": "https://cdn.mawaqit.net/images/backend/mosque/e44212cf-7c87-47b2-974b-99185effac4d/mosque/1eea8e74-92be-6a20-a1b8-066ed47a7584.jpg",
    "address": "Jl. Colombo Yogyakarta No.1, Karang Malang, Caturtunggal, Depok, Sleman",
    "city": "Daerah-Istimewa-Yogyakarta",
    "zipcode": "55281",
    "countryFullName": "Indonesia",
    "lng": 110.3848945,
    "lat": -7.7742439
  },
  {
    "slug": "masjid-al-aziz-bandung-40862-indonesia",
    "name": "Masjid Al Aziz",
    "image1": "https://cdn.mawaqit.net/images/backend/mosque/3bfe6476-6342-43b9-bd63-2a93ac9226a2/mosque/1eea8e76-7159-6bee-a626-066ed47a7584.jpg",
    "address": "Jl Soekarno Hatta 662 Bandung",
    "city": "Bandung",
    "zipcode": "40862",
    "countryFullName": "Indonesia",
    "lng": 107.672973,
    "lat": -6.9386974
  },
  {
    "slug": "masjid-al-muttaqin-pedusan-bantul-55752-indonesia",
    "name": "MASJID AL MUTTAQIN PEDUSAN",
    "image1": "https://cdn.mawaqit.net/images/backend/mosque/f254ee29-a644-46ab-bdfd-a711722a3c84/mosque/1eea8e87-bcb8-6278-a9c3-066ed47a7584.jpg",
    "address": "Jl Wates Km 11,5 Pedusan Argosari Sedayu",
    "city": "BANTUL",
    "zipcode": "55752",
    "countryFullName": "Indonesia",
    "lng": 110.26455044746,
    "lat": -7.8131138584737
  },
  {
    "slug": "masjid-darussalam-spu-kutai-kartanegara-75381-indonesia",
    "name": "Masjid Darussalam SPU",
    "image1": "https://cdn.mawaqit.net/images/backend/mosque/2982a680-0120-4ded-92f5-e6d30e6b0cf4/mosque/1eea8e8a-7000-6306-b232-066ed47a7584.jpg",
    "address": "Site SPU-PHM",
    "city": "KUTAI KARTANEGARA",
    "zipcode": "75381",
    "countryFullName": "Indonesia",
    "lng": 117.50325185414,
    "lat": -0.69282075909892
  },
  {
    "slug": "masjid-al-muttaqin-waringinsari-pringsewu-35374-indonesia",
    "name": "MASJID AL MUTTAQIN",
    "image1": "https://cdn.mawaqit.net/images/backend/mosque/206a91af-bce8-4c2d-bd9e-79d27d9342f2/mosque/1eea8e8f-81a8-68a6-954c-066ed47a7584.jpg",
    "address": "Komplek Perguruan Muhammadiyah Waringinsari, Jl. Raya Waringinsari Barat, Pekon Waringinsari Barat, Kecamatan Sukoharjo",
    "city": "PRINGSEWU",
    "zipcode": "35374",
    "countryFullName": "Indonesia",
    "lng": 104.9863855,
    "lat": -5.2735508
  },
  {
    "slug": "masjid-jami-attaqwa-perumnas-3-bekasi-17111-indonesia",
    "name": "MASJID JAMI AT-TAQWA  PERUMNAS 3",
    "image1": "https://cdn.mawaqit.net/images/backend/mosque/73493d1a-21ea-4537-82f4-ceb8a671fdd8/mosque/1eea8e95-b034-6930-bd35-066ed47a7584.jpg",
    "address": "Jl. P. TIDORE 1 RT 002/007 AREN JAYA",
    "city": "BEKASI",
    "zipcode": "17111",
    "countryFullName": "Indonesia",
    "lng": 107.0373779,
    "lat": -6.2415436
  },
  {
    "slug": "al-huda-depok-depok-16418-indonesia",
    "name": "Al Huda Depok",
    "image1": "https://cdn.mawaqit.net/images/backend/mosque/1eddc3d2-c6c7-41b4-8282-bc1cd323f899/mosque/1eea8ea7-e27d-68e4-a63a-066ed47a7584.jpg",
    "address": "Jl. Gema Insani Baktijaya Sukmajaya",
    "city": "DEPOK",
    "zipcode": "16418",
    "countryFullName": "Indonesia",
    "lng": 106.8514045,
    "lat": -6.3805026
  },
  {
    "slug": "masjid-al-mujahidin-bogor-16710-indonesia-2",
    "name": "MASJID AL MUJAHIDIN",
    "image1": "https://cdn.mawaqit.net/images/backend/mosque/a73e361c-a7e9-4d6b-9ff4-01955cdd5b91/mosque/1eea8eb7-ece7-663a-8034-066ed47a7584.jpg",
    "address": "Cluster Merbabu - Grand Kahuripan",
    "city": "BOGOR",
    "zipcode": "16710",
    "countryFullName": "Indonesia",
    "lng": 106.96066439152,
    "lat": -6.4516588837314
  },
  {
    "slug": "al-mujaddid-cimahi-40535-indonesia",
    "name": "MASJID AL-MUJADDID",
    "image1": "https://cdn.mawaqit.net/images/backend/mosque/bb5c8ba8-3171-4a0d-a30b-5c79f26bec08/mosque/1eea8ebf-a0c1-62f8-b032-066ed47a7584.jpg",
    "address": "Jl. Teleponia",
    "city": "CIMAHI",
    "zipcode": "40535",
    "countryFullName": "Indonesia",
    "lng": 107.5616618,
    "lat": -6.9084464
  },
  {
    "slug": "masjid-an-nur-gka-tangerang-selatan-15414-indonesia",
    "name": "MASJID AN-NUR",
    "image1": "https://cdn.mawaqit.net/images/backend/mosque/19e48adc-43ec-4a7f-baa6-7045c552061c/mosque/1eea8ec1-2ad2-64c8-8e1c-066ed47a7584.jpg",
    "address": "Griya Kedaung Asri, Sarua Indah, Ciputat",
    "city": "TANGERANG SELATAN",
    "zipcode": "15414",
    "countryFullName": "Indonesia",
    "lng": 106.72778175535,
    "lat": -6.313781029419
  },
  {
    "slug": "masjid-nurul-ikhwan-018-banten-15419-indonesia",
    "name": "Masjid Nurul Ikhwan 018",
    "image1": "https://cdn.mawaqit.net/images/backend/mosque/5acd9311-b1b5-4ae7-981b-05f47655c2f7/mosque/1eea8ecb-d911-6494-86de-066ed47a7584.jpg",
    "address": "Komp. Grand Puri Laras, Jln. Legoso Raya, Pisangan, Ciputat Timur, Tangerang Selatan",
    "city": "BANTEN",
    "zipcode": "15419",
    "countryFullName": "Indonesia",
    "lng": 106.7547428,
    "lat": -6.3163419
  },
  {
    "slug": "masjid-jami-al-umm-malang-65144-indonesia",
    "name": "Masjid Jami' Al-Umm",
    "image1": "https://cdn.mawaqit.net/images/backend/mosque/bc8550bc-12f5-48b7-a3f8-cfb54d8105c0/mosque/1eea8ecd-85aa-6254-adff-066ed47a7584.jpg",
    "address": "Jl. Joyo Agung No1 - Kel.Merjosari -Kec. Lowokwaru",
    "city": "MALANG",
    "zipcode": "65144",
    "countryFullName": "Indonesia",
    "lng": 112.5942342,
    "lat": -7.9402746
  },
  {
    "slug": "masjid-al-kahfi-tenayan-raya-pekanbaru-28281-indonesia",
    "name": "Masjid Al-Kahfi",
    "image1": "https://cdn.mawaqit.net/images/backend/mosque/130e7cb0-90f4-4c7f-b386-adcbe1638303/mosque/1eea8ed1-a608-6646-8020-066ed47a7584.jpg",
    "address": "Jl.Hang Tuah Ujung. Gg.Soponyono No.1A. Kota Pekanbaru - Riau",
    "city": "PEKANBARU",
    "zipcode": "28281",
    "countryFullName": "Indonesia",
    "lng": 101.49396305615,
    "lat": 0.50947688508966
  },
  {
    "slug": "masjid-umar-bin-khatab-sleman-55286-indonesia",
    "name": "Masjid Umar bin Khatab Toragan",
    "image1": "https://cdn.mawaqit.net/images/backend/mosque/bdae4079-8333-4c97-b337-8dbd80737fac/mosque/1eea8ed8-76bf-600e-96cf-066ed47a7584.jpg",
    "address": "Toragan, Tlogoadi, Mlati",
    "city": "SLEMAN",
    "zipcode": "55286",
    "countryFullName": "Indonesia",
    "lng": 110.3387009,
    "lat": -7.7314966
  },
  {
    "slug": "masjid-arkan-bekasi-17155-indonesia",
    "name": "MASJID ARKAN",
    "image1": "https://cdn.mawaqit.net/images/backend/mosque/6d7a4687-e839-4b94-ab88-25fad1ddcb5c/mosque/1eea8ee2-7b12-6ee4-a4de-066ed47a7584.jpg",
    "address": "Jl. Bawang Raya no. 62 Mustika Jaya Bekasi",
    "city": "BEKASI",
    "zipcode": "17155",
    "countryFullName": "Indonesia",
    "lng": 107.0126996,
    "lat": -6.3342632
  },
  {
    "slug": "masjid-jami-al-barkah-jakarta-timur-13860-indonesia",
    "name": "Masjid Jami' Al-Barkah",
    "image1": "https://cdn.mawaqit.net/images/backend/mosque/83987306-8eec-4e7a-be96-7c647f1578d6/mosque/1eea8ee7-22cc-6c8a-8c02-066ed47a7584.jpg",
    "address": "jln. Pangkalan RT002 RW04 Kel. Pondok Ranggon Kec. Cipayung",
    "city": "JAKARTA TIMUR",
    "zipcode": "13860",
    "countryFullName": "Indonesia",
    "lng": 106.9147861,
    "lat": -6.3500953
  },
  {
    "slug": "at-taqwa-harapan-baru-regency-kota-bekasi-17133-indonesia",
    "name": "AT-TAQWA HARAPAN BARU REGENCY",
    "image1": "https://cdn.mawaqit.net/images/backend/mosque/1b4548fd-3701-4b74-821d-36d1b4a5fd8a/mosque/1eea8ee8-73cb-6fa4-be39-066ed47a7584.jpg",
    "address": "Jl. Harapan Baru Raya No 1A Kota Baru",
    "city": "KOTA BEKASI",
    "zipcode": "17133",
    "countryFullName": "Indonesia",
    "lng": 106.9702665,
    "lat": -6.2167723
  },
  {
    "slug": "at-taubah-bandung-40286-indonesia",
    "name": "AT-TAUBAH",
    "image1": "https://cdn.mawaqit.net/images/backend/mosque/6624808a-f6ef-4cb6-ad1c-45afd4b63ea5/mosque/1eeabac5-3afd-66f6-b2e2-0edc40567d2a.jpg",
    "address": "Jl. Neptunus Barat VII, Sekejati, Kec. Buahbatu, Kota Bandung, Jawa Barat 40286",
    "city": "BANDUNG",
    "zipcode": "40286",
    "countryFullName": "Indonesia",
    "lng": 107.6548857,
    "lat": -6.946694
  },
  {
    "slug": "nurul-huda-bekasi-17112-indonesia",
    "name": "MASJID NURUL HUDA",
    "image1": "https://cdn.mawaqit.net/images/backend/mosque/80ec4d44-8e48-4c6b-b1e6-fe56467378a1/mosque/1eeb1dac-91bd-6848-9afe-0aedfd0440f0.jpg",
    "address": "BLK Kompetensi Jalan K.H Agus salim No. 206",
    "city": "BEKASI",
    "zipcode": "17112",
    "countryFullName": "Indonesia",
    "lng": 107.0162675,
    "lat": -6.2259961
  },
  {
    "slug": "masjid-ar-razzaq-medan-20134-indonesia",
    "name": "MASJID AR-RAZZAQ",
    "image1": "https://cdn.mawaqit.net/images/backend/mosque/b08474d9-5558-4559-8a86-c2174611796a/mosque/1eeb9448-4f72-643a-a561-0aedfd0440f0.jpg",
    "address": "Jl. Bunga Sakura, Komplek Taman Alamanda Indah",
    "city": "MEDAN",
    "zipcode": "20134",
    "countryFullName": "Indonesia",
    "lng": 98.6089766,
    "lat": 3.5498747
  },
  {
    "slug": "masjid-nurul-hidayah-bagorejo-68471-indonesia",
    "name": "Masjid Nurul Hidayah Bagorejo",
    "image1": "https://cdn.mawaqit.net/images/backend/mosque/653163ae-5d77-4891-aa73-35331df55945/mosque/1eec589d-dfce-6ad2-94bc-06acfcd1c88a.jpg",
    "address": "Dsn Krajan Bangorejo",
    "city": "BAGOREJO",
    "zipcode": "68471",
    "countryFullName": "Indonesia",
    "lng": 114.305531,
    "lat": -8.400821
  },
  {
    "slug": "masjid-al-baiah-palembang-30319-indonesia",
    "name": "Masjid Al Bai'ah",
    "image1": "https://cdn.mawaqit.net/images/backend/mosque/2bd46552-3227-4b2e-ab96-2278f91e8e79/mosque/1eec97ce-4375-63aa-8e6c-06acfcd1c88a.jpeg",
    "address": "Jalan Kapten A.Rivai No.23",
    "city": "PALEMBANG",
    "zipcode": "30319",
    "countryFullName": "Indonesia",
    "lng": 104.750456,
    "lat": -2.978398
  },
  {
    "slug": "jamiatul-muminin-bandung-40000-indonesia",
    "name": "Jami'atul Mu'minin",
    "image1": "https://cdn.mawaqit.net/images/backend/mosque/4a308133-ae36-4abf-9262-7b07cb383179/mosque/1eecbf5d-6bef-6e0a-9761-06acfcd1c88a.jpg",
    "address": "Jl. Kembar Barat",
    "city": "BANDUNG",
    "zipcode": "40000",
    "countryFullName": "Indonesia",
    "lng": 107.60943,
    "lat": -6.9420641
  },
  {
    "slug": "masjid-al-kautsar-kab-semarang-50775-indonesia",
    "name": "MASJID AL-KAUTSAR REKESAN",
    "image1": "https://cdn.mawaqit.net/images/backend/mosque/81bf7d37-2b61-45ca-b8bd-bbb2efd8a225/mosque/1eed54fd-5081-6f5c-acef-06acfcd1c88a.jpg",
    "address": "JG46+WR5, Jl. Kenari, Rekesan, Karangduren, Kec. Tengaran, Kabupaten Semarang, Jawa Tengah 50775",
    "city": "KAB SEMARANG",
    "zipcode": "50775",
    "countryFullName": "Indonesia",
    "lng": 110.5131758,
    "lat": -7.3929138
  },
  {
    "slug": "masjid-taman-mutiara-cimahi-cimahi-40523-indonesia",
    "name": "Masjid Taman Mutiara - Cimahi",
    "image1": "https://cdn.mawaqit.net/images/backend/mosque/d897e871-74a8-4e81-86ac-ba8a55967e5c/mosque/1eed6921-f558-64da-9908-06acfcd1c88a.jpg",
    "address": "Komplek Taman Mutiara RW 016",
    "city": "CIMAHI",
    "zipcode": "40523",
    "countryFullName": "Indonesia",
    "lng": 107.5504695,
    "lat": -6.8811626
  },
  {
    "slug": "masjid-syahadatullah-bogor-16710-indonesia",
    "name": "MASJID SYAHADATULLAH",
    "image1": "https://cdn.mawaqit.net/images/backend/mosque/11e87f7e-e82b-44dc-b769-a0815b1a09a9/mosque/1eedf735-60f8-6310-b63c-0ea6a6fd327d.jpg",
    "address": "Jalan Bromo Raya RT 2 RW 8, Grand Kahuripan, Klapanunggal",
    "city": "BOGOR",
    "zipcode": "16710",
    "countryFullName": "Indonesia",
    "lng": 106.96205663892,
    "lat": -6.448317381695
  },
  {
    "slug": "masjid-nurusy-syifa-surakarta-57146-indonesia",
    "name": "MASJID NURUSY SYIFA",
    "image1": "https://cdn.mawaqit.net/images/backend/mosque/4386d78e-e931-4a40-9447-e49d7730c4c4/mosque/1eee45c7-14ed-6dea-a083-0621eb7171ad.jpg",
    "address": "Kagokan Rt 03 Rw XI Pajang Laweyan",
    "city": "SURAKARTA",
    "zipcode": "57146",
    "countryFullName": "Indonesia",
    "lng": 110.78438937664,
    "lat": -7.5601618867749
  },
  {
    "slug": "jami-al-manshur-bandung-40253-indonesia",
    "name": "Jami Al-Manshur",
    "image1": "https://cdn.mawaqit.net/images/backend/mosque/8c08b4b0-e336-40a3-bf9d-23d471a15d2d/mosque/1eee5868-1948-6260-a6e8-0e8f4a8ce035.jpg",
    "address": "Jl. Sriwijaya No.112, Cigereleng, Kec. Regol, Kota Bandung, Jawa Barat 40253",
    "city": "BANDUNG",
    "zipcode": "40253",
    "countryFullName": "Indonesia",
    "lng": 107.6126308,
    "lat": -6.9452684
  },
  {
    "slug": "masjid-besar-al-hidayah-wonogiri-57615-indonesia",
    "name": "Masjid Besar Al Hidayah",
    "image1": "https://cdn.mawaqit.net/images/backend/mosque/df679500-444e-4ec9-9942-d293633dabb0/mosque/1eee6da4-8e20-678a-9e64-0a9258a77f81.jpg",
    "address": "Jln. Gatot Subroto No.47, Wonokarto, Wonogiri",
    "city": "WONOGIRI",
    "zipcode": "57615",
    "countryFullName": "Indonesia",
    "lng": 110.9148409,
    "lat": -7.8002725
  },
  {
    "slug": "al-hidayah-karangwuni-yogyakarta-55281-indonesia",
    "name": "Al Hidayah Karangwuni",
    "image1": "https://cdn.mawaqit.net/images/backend/mosque/341f3938-3991-4bad-b37a-994753a93e90/mosque/1eeea90f-2758-6e66-9e40-0e8f4a8ce035.png",
    "address": "Gg. Mulwo Karangwuni RW 02 Caturtunggal Depok Sleman",
    "city": "YOGYAKARTA",
    "zipcode": "55281",
    "countryFullName": "Indonesia",
    "lng": 110.4055789,
    "lat": -7.7721643
  },
  {
    "slug": "masjid-az-zubaidah-malang-65144-indonesia",
    "name": "Masjid Az-Zubaidah",
    "image1": "https://cdn.mawaqit.net/images/backend/mosque/de263df1-24d5-4660-b3c8-7dee0e373e45/mosque/1eef1d76-1a4d-63ee-8b77-0a9258a77f81.jpg",
    "address": "Kavling Joyoagung No.5 Kel. Merjosari Kec. Lowokwaru",
    "city": "MALANG",
    "zipcode": "65144",
    "countryFullName": "Indonesia",
    "lng": 112.5817088,
    "lat": -7.9376466
  },
  {
    "slug": "masjid-as-salaam-maros-90562-indonesia",
    "name": "MASJID AS SALAAM",
    "image1": "https://cdn.mawaqit.net/images/backend/mosque/af9c3db2-306f-40b5-b89e-c727ec308531/mosque/1eef3b15-3977-685c-a188-0a9258a77f81.jpg",
    "address": "BUMI FINDARIA MAS 2",
    "city": "MAROS",
    "zipcode": "90562",
    "countryFullName": "Indonesia",
    "lng": 119.5395776,
    "lat": -5.1509191
  },
  {
    "slug": "musholla-baiturrohmah-bogor-16115-indonesia",
    "name": "Musholla Baiturrohmah",
    "image1": "https://cdn.mawaqit.net/images/backend/mosque/91e09a3b-7953-430d-9012-cf77ed296b2b/mosque/1eef67dc-b2e3-6ca6-bd1c-0621eb7171ad.jpg",
    "address": "Tawakal I RT 03 RW 05, Bubulak, Kota Bogor Barat",
    "city": "BOGOR",
    "zipcode": "16115",
    "countryFullName": "Indonesia",
    "lng": 106.752904,
    "lat": -6.5607111
  },
  {
    "slug": "masjid-al-ikhlas-kpp-pratama-jkt-tambora-jakarta-barat-11230-indonesia",
    "name": "MASJID AL IKHLAS KPP PRATAMA JKT TAMBORA",
    "image1": "https://cdn.mawaqit.net/images/backend/mosque/04a7f1f6-9dfc-4a6a-b971-ac59ad880917/mosque/1eefbc3d-6b57-6be8-a2f3-0e8f4a8ce035.jpeg",
    "address": "Jalan Roa Malaka Selatan no. 4-5, Roa Malaka, Tambora Jakarta Barat",
    "city": "JAKARTA BARAT",
    "zipcode": "11230",
    "countryFullName": "Indonesia",
    "lng": 106.80984,
    "lat": -6.135525
  },
  {
    "slug": "masjid-al-ishlah-bandung-40133-indonesia",
    "name": "MASJID AL ISHLAH",
    "image1": "https://cdn.mawaqit.net/images/backend/mosque/d2dc8f45-18fb-4d07-92f3-76ca40edb090/mosque/1ef00881-dd8c-689a-b74c-0a382b7256a1.jpg",
    "address": "Jl. Puyuh Dalam RW 11 Kelurahan Sadang Serang, Kecamtan Coblong, Kota Bandung",
    "city": "BANDUNG",
    "zipcode": "40133",
    "countryFullName": "Indonesia",
    "lng": 107.6239057,
    "lat": -6.8970374
  },
  {
    "slug": "masjid-al-amanah-bandung-40193-indonesia-1",
    "name": "MASJID JAMI' AL-AMANAH",
    "image1": "https://cdn.mawaqit.net/images/backend/mosque/d05ea4d4-dcef-4f25-aeb5-4e821e5b340c/mosque/1ef04237-244b-6350-a3a9-0e8f4a8ce035.jpg",
    "address": "Jalan Haji Abun RT.03 RW. 07 Padasuka Bandung",
    "city": "BANDUNG",
    "zipcode": "40193",
    "countryFullName": "Indonesia",
    "lng": 107.65561,
    "lat": -6.8932274
  },
  {
    "slug": "al-muhajir-bandung-40286-indonesia",
    "name": "Al Muhajir",
    "image1": "https://cdn.mawaqit.net/images/backend/mosque/3f375244-6e20-412b-a328-05b4ad802f51/mosque/1ef06121-1d68-6ea8-837e-0621eb7171ad.jpg",
    "address": "Komplek Margahayu Raya Barat Blok E 2, Sekejati, Kec. Buahbatu, Kota Bandung, Jawa Barat 40286",
    "city": "BANDUNG",
    "zipcode": "40286",
    "countryFullName": "Indonesia",
    "lng": 107.6549127,
    "lat": -6.9467815
  },
  {
    "slug": "ar-rahman-subang-41271-indonesia",
    "name": "Ar Rahman Lanud Suryadarma",
    "image1": "https://cdn.mawaqit.net/images/backend/mosque/504de0b8-ebcb-4d48-8ece-b97a3afde847/mosque/1ef0b7b1-d066-6280-8666-06724289ed6b.jpeg",
    "address": "Jl. Kalijati Lama",
    "city": "SUBANG",
    "zipcode": "41271",
    "countryFullName": "Indonesia",
    "lng": 107.6565547,
    "lat": -6.5266438
  },
  {
    "slug": "masjid-azizul-aslam-tangerang-selatan-15229-indonesia-1",
    "name": "Masjid Azizul Aslam",
    "image1": "https://cdn.mawaqit.net/images/backend/mosque/32475b80-3ec7-4511-8bda-d0029f498e8d/mosque/1ef0eae9-1870-6ce6-822a-060b560b7889.jpg",
    "address": "Komplek Masjid Azizul Aslam. Jalan Haji Som no.120. Pondok Pucung. Pondok Aren",
    "city": "TANGERANG SELATAN",
    "zipcode": "15229",
    "countryFullName": "Indonesia",
    "lng": 106.71636879444,
    "lat": -6.2776022182399
  },
  {
    "slug": "masjid-agung-nurul-amin-bekasi-17330-indonesia",
    "name": "Masjid Agung Nurul Amin",
    "image1": "https://cdn.mawaqit.net/images/backend/mosque/899137e1-c833-4b56-bd33-8c43772b2541/mosque/1ef0f3b3-1173-6d26-ae55-06724289ed6b.jpg",
    "address": "Perum Mega Regency, Blok A RT07 RW014, Desa Suka Sari, Kec : Serang Baru",
    "city": "BEKASI",
    "zipcode": "17330",
    "countryFullName": "Indonesia",
    "lng": 107.1182701,
    "lat": -6.3827616
  },
  {
    "slug": "al-ikhlas-bandung-40000-indonesia",
    "name": "Al Ikhlas",
    "image1": "https://cdn.mawaqit.net/images/backend/mosque/4061a4ac-8646-4a16-9997-35fc64cca17f/mosque/1ef10355-e2d9-6026-8032-06724289ed6b.jpg",
    "address": "Jl. Jupiter IV no. 11 Blok F2, Margahayu Raya",
    "city": "BANDUNG",
    "zipcode": "40000",
    "countryFullName": "Indonesia",
    "lng": 107.6191228,
    "lat": -6.9174639
  },
  {
    "slug": "al-maruf-sukoharjo-57554-indonesia",
    "name": "MASJID AL MA'RUF",
    "image1": "https://cdn.mawaqit.net/images/backend/mosque/082a840b-5eca-44eb-9134-1dbfcbd0011f/mosque/1ef14dc8-9a60-6692-bef9-0e8f4a8ce035.jpeg",
    "address": "Gendengan, Wirun, Mojolaban",
    "city": "SUKOHARJO",
    "zipcode": "57554",
    "countryFullName": "Indonesia",
    "lng": 110.8583716,
    "lat": -7.6028526
  },
  {
    "slug": "masjid-nurul-iman-bekasi-17116-indonesia",
    "name": "MASJID NURUL IMAN",
    "image1": "https://cdn.mawaqit.net/images/backend/mosque/3ea06cd4-7930-466d-8e83-9974781492b1/mosque/1ef1d0d2-8126-622a-bcd6-0e16b454dc53.jpg",
    "address": "Jalan makrik rt 07 rw 04",
    "city": "BEKASI",
    "zipcode": "17116",
    "countryFullName": "Indonesia",
    "lng": 107.0031494,
    "lat": -6.2785889
  },
  {
    "slug": "masjid-al-ijabah-depok-16451-indonesia",
    "name": "MASJID AL-IJABAH",
    "image1": "https://cdn.mawaqit.net/images/backend/mosque/318720ff-d7b9-4682-9dff-09c61b372713/mosque/1ef2ecd3-fb83-6bee-aae1-0600dbafaeef.jpg",
    "address": "PERUMAHAN PONDOK MANDALA",
    "city": "DEPOK",
    "zipcode": "16451",
    "countryFullName": "Indonesia",
    "lng": 106.8467348814,
    "lat": -6.3681652687872
  },
  {
    "slug": "masjid-roudlotul-muttaqin-demak-59554-indonesia-1",
    "name": "Masjid Roudlotul Muttaqin Menco",
    "image1": "https://cdn.mawaqit.net/images/backend/mosque/0ba6e653-4663-465e-b212-766e6bf8a128/mosque/1ef35c05-a5dd-6824-8e58-0600dbafaeef.jpeg",
    "address": "Menco",
    "city": "DEMAK",
    "zipcode": "59554",
    "countryFullName": "Indonesia",
    "lng": 110.5937997,
    "lat": -6.7517789
  },
  {
    "slug": "masjid-ar-razi-ppdh-lampung-gedong-tataan-35366-fiji",
    "name": "PONDOK PESANTREN DARUL HUFFAZ LAMPUNG",
    "image1": "https://cdn.mawaqit.net/images/backend/mosque/046326f0-4b9a-4ed5-a9ac-e261bcb5592b/mosque/1ef3d03a-1e79-6bcc-94f5-0600dbafaeef.jpg",
    "address": "Pondok Pesantren Darul Huffaz Lampung Jalan Raya Ganjaran No.36 Rt.001 Rw.001 Desa Bernung 1",
    "city": "GEDONG TATAAN",
    "zipcode": "35366",
    "countryFullName": "Indonesia",
    "lng": 105.169462,
    "lat": -5.366383
  },
  {
    "slug": "masjid-arrahman-bogor-16913-indonesia",
    "name": "MASJID ARRAHMAN",
    "image1": "https://cdn.mawaqit.net/images/backend/mosque/68e38492-7a3a-4094-b037-30a38b06ca91/mosque/1ef4cf96-cb59-6e8a-bd22-0600dbafaeef.jpg",
    "address": "Perum BDB 2 Jl. Gunung Salak VII RT02 RW17 Kelurahan Sukahati Kecamatan Cibinong",
    "city": "BOGOR",
    "zipcode": "16913",
    "countryFullName": "Indonesia",
    "lng": 106.80200100151,
    "lat": -6.5057587090716
  },
  {
    "slug": "masjid-smp-juara-bandung-bandung-40614-indonesia",
    "name": "Masjid SMP Juara Bandung",
    "image1": "https://cdn.mawaqit.net/images/backend/mosque/58b36553-4699-4081-8ba7-5413f7de6164/mosque/1ef4edc4-3029-6d9c-85cc-0600dbafaeef.jpg",
    "address": "Komp. Taman Cipadung Indah, Cipadung Kidul, Kec. Panyileukan, Kota Bandung, Jawa Barat 40614",
    "city": "BANDUNG",
    "zipcode": "40614",
    "countryFullName": "Indonesia",
    "lng": 107.7110308,
    "lat": -6.9384335
  },
  {
    "slug": "al-muhajirin-bogor-16810-indonesia",
    "name": "AL MUHAJIRIN",
    "image1": "https://cdn.mawaqit.net/images/backend/mosque/e484e92e-45a5-486e-a0dd-a9dc95c5ed50/mosque/1ef5714b-7db5-6c68-a6d7-0600dbafaeef.jpeg",
    "address": "perum bumi citeureup asri gunungsari citeureup kab bogor",
    "city": "BOGOR",
    "zipcode": "16810",
    "countryFullName": "Indonesia",
    "lng": 106.9074111519,
    "lat": -6.4990450115887
  },
  {
    "slug": "-19",
    "name": "Masjid Al Madinah Al Munawwaroh",
    "image1": "https://cdn.mawaqit.net/images/backend/mosque/f20adbcf-7edd-492a-9918-057434eeb275/mosque/1ef5a1b7-bb0d-6862-812f-0600dbafaeef.jpg",
    "address": "Sunrise Garden Bukit Putra",
    "city": "KAB. BOGOR",
    "zipcode": "16820",
    "countryFullName": "Indonesia",
    "lng": 107.0365329,
    "lat": -6.4287481
  },
  {
    "slug": "masjid-al-ishlah-bekasi-17116-indonesia",
    "name": "MASJID AL-ISHLAH",
    "image1": "https://cdn.mawaqit.net/images/backend/mosque/1e2419e2-1d69-41f9-a9d5-602450df66e2/mosque/1ef620bd-5d90-6b32-ae20-0e4a41cdad45.jpg",
    "address": "JL. Setia No. 97 RT 07 RW 01 Bojong Rawalumbu",
    "city": "BEKASI",
    "zipcode": "17116",
    "countryFullName": "Indonesia",
    "lng": 106.99319690466,
    "lat": -6.2816840409789
  },
  {
    "slug": "al-ikhlas-cimahi-40535-indonesia",
    "name": "AL IKHLAS",
    "image1": "https://cdn.mawaqit.net/images/backend/mosque/b0bd63e8-50e4-4eaf-908f-6546fd3dc7cb/mosque/1ef62aa9-c595-63b8-84c9-0e4a41cdad45.jpg",
    "address": "Jl. Mukodar Tengah RT05 RW07",
    "city": "CIMAHI",
    "zipcode": "40535",
    "countryFullName": "Indonesia",
    "lng": 107.5647421,
    "lat": -6.9096932
  },
  {
    "slug": "al-haq-banjarmasin-70279-indonesia",
    "name": "MASJID AL HAQ",
    "image1": "https://cdn.mawaqit.net/images/backend/mosque/fb85f843-cfcd-44d5-aa8f-9ebe1a795c9b/mosque/1ef673f8-0583-6d70-8805-0600dbafaeef.png",
    "address": "Gg. SMPN 14 Jl. Banua Anyar No.07, Benua Anyar",
    "city": "BANJARMASIN",
    "zipcode": "70239",
    "countryFullName": "Indonesia",
    "lng": 114.6113747,
    "lat": -3.3050934
  },
  {
    "slug": "al-mumtaz-bandung-40623-indonesia",
    "name": "Al Mumtaz",
    "image1": "https://cdn.mawaqit.net/images/backend/mosque/291b91f2-68d3-44fc-8b00-1a990956bb57/mosque/1ef64d23-b2bc-6ede-a935-0600dbafaeef.jpg",
    "address": "Jl pesantren no 1a, cimekar, cileunyi",
    "city": "BANDUNG",
    "zipcode": "40623",
    "countryFullName": "Indonesia",
    "lng": 107.7414496,
    "lat": -6.9357765
  },
  {
    "slug": "at-taubah-bandung-40222-indonesia",
    "name": "At-Taubah",
    "image1": "https://cdn.mawaqit.net/images/backend/mosque/7dc65d82-c902-4ba2-8ca1-6d41c15e10d8/mosque/1ef66d65-6272-60de-8d3d-0e4a41cdad45.jpg",
    "address": "Jl. Pagarsih Barat. Gg. Madrasah. Rt 07. Rw 01. 40222. Kota Bandung",
    "city": "BANDUNG",
    "zipcode": "40222",
    "countryFullName": "Indonesia",
    "lng": 107.5827901,
    "lat": -6.9253752
  },
  {
    "slug": "masjid-al-bahria-cendekia-bandung-barat-40552-indonesia",
    "name": "Masjid Al Bahria",
    "image1": "https://cdn.mawaqit.net/images/backend/mosque/ce19c5f8-8479-49b0-86a4-119d353cd511/mosque/1ef71d43-1f17-6e36-968b-0600dbafaeef.png",
    "address": "Graha Bukit Raya 3 Blok C4 No. 24",
    "city": "BANDUNG BARAT",
    "zipcode": "40552",
    "countryFullName": "Indonesia",
    "lng": 107.5209519,
    "lat": -6.8545487
  },
  {
    "slug": "masjid-al-kahfi-bandung-40379-indonesia",
    "name": "Masjid Al Kahfi",
    "image1": "https://cdn.mawaqit.net/images/backend/mosque/83e7c3a2-2b85-4d90-92e7-20d001e8e48e/mosque/1ef7974e-bf54-6eaa-86eb-0ecd6770c589.jpg",
    "address": "PT. Kimia Farma Banjaran",
    "city": "BANDUNG",
    "zipcode": "40379",
    "countryFullName": "Indonesia",
    "lng": 107.5944593,
    "lat": -7.0388588
  },
  {
    "slug": "masjid-izzatul-ulya-yogyakarta-511588-indonesia",
    "name": "Masjid 'Izzatul 'Ulya",
    "image1": "https://cdn.mawaqit.net/images/backend/mosque/a4066fa2-ce48-454a-98bc-2f41c9d68b14/mosque/1ef7fb54-d3b8-645e-8574-0ecd6770c589.jpg",
    "address": "Nandan, Sariharjo, Ngaglik",
    "city": "YOGYAKARTA",
    "zipcode": "511588",
    "countryFullName": "Indonesia",
    "lng": 110.37237122655,
    "lat": -7.7521467558775
  },
  {
    "slug": "al-battar-bandung-40285-indonesia",
    "name": "MASJID AL-BATTAR",
    "image1": "https://cdn.mawaqit.net/images/backend/mosque/928291bb-ed84-42cf-956b-faed686f5c5e/mosque/1ef816d8-ff2c-6c9e-b20b-0affcb0701ab.jpg",
    "address": "Jalan gatot subroto 517",
    "city": "BANDUNG",
    "zipcode": "40285",
    "countryFullName": "Indonesia",
    "lng": 107.6463437,
    "lat": -6.9381005
  },
  {
    "slug": "masjid-ibn-khaldun-uika-bogor-16630-indonesia",
    "name": "Masjid Ibn Khaldun UIKA",
    "image1": "https://cdn.mawaqit.net/images/backend/mosque/688e2dc4-14e4-4788-9f7e-0b5c4afae184/mosque/1ef861d5-735d-6b3a-8578-0affcb0701ab.jpeg",
    "address": "Jl. KH. Sholeh Iskandar Km. 2 Bogor",
    "city": "BOGOR",
    "zipcode": "16630",
    "countryFullName": "Indonesia",
    "lng": 106.7930949,
    "lat": -6.5584523
  },
  {
    "slug": "masjid-almurabbi-bandung-40152-indonesia",
    "name": "Masjid Al-Murabbi",
    "image1": "https://cdn.mawaqit.net/images/backend/mosque/81735980-d761-40c4-b5a3-2bec4cf0aa48/mosque/1ef86343-dbd4-6a6e-b873-0e9d077f5bb1.png",
    "address": "Jl. Dr. Ir. Sutami nomor 122 Sukarasa Kecamatan Sukasari",
    "city": "BANDUNG",
    "zipcode": "40152",
    "countryFullName": "Indonesia",
    "lng": 107.58342335554,
    "lat": -6.8798508515291
  },
  {
    "slug": "masjid-al-kautsar-bogor-16113-indonesia",
    "name": "Masjid Al Kautsar",
    "image1": "https://cdn.mawaqit.net/images/backend/mosque/d674d6d6-fce8-448d-8c7a-84b4a58363c1/mosque/1ef86f09-fa8b-690e-b1f6-0671c73660c5.png",
    "address": "Perumahan Duta Kencana 2, Jl. Duta Kencana, RT.03/RW.11, Kedungbadak, Kec. Tanah Sereal, Kota Bogor, Jawa Barat 16113",
    "city": "BOGOR",
    "zipcode": "16113",
    "countryFullName": "Indonesia",
    "lng": 106.7958483,
    "lat": -6.5595129
  },
  {
    "slug": "masjid-baitul-quddus-pekalongan-51152-indonesia",
    "name": "MASJID BAITUL QUDDUS",
    "image1": "https://cdn.mawaqit.net/images/backend/mosque/abfa011e-7911-4638-a509-ff49ea8bdb7e/mosque/1ef8a20f-8df6-622e-a86b-0e9d077f5bb1.png",
    "address": "Mayangan Wiradesa",
    "city": "PEKALONGAN",
    "zipcode": "51152",
    "countryFullName": "Indonesia",
    "lng": 109.62187170982,
    "lat": -6.8911802489325
  },
  {
    "slug": "masjid-miftahul-jannah-yogyakarta-55163-indonesia",
    "name": "Masjid Miftahul Jannah",
    "image1": "https://cdn.mawaqit.net/images/backend/mosque/76eb57dd-eeef-4d9c-a6e2-7d24e979f56b/mosque/1efa729f-f2e1-63f2-a5ad-0671c73660c5.jpg",
    "address": "Jl. Ponggalan UHVII/203, Giwangan, Umbulharjo",
    "city": "YOGYAKARTA",
    "zipcode": "55163",
    "countryFullName": "Indonesia",
    "lng": 110.3928455,
    "lat": -7.8288893
  },
  {
    "slug": "masjid-al-barokah-serang-64121-indonesia",
    "name": "Masjid Al Barokah",
    "image1": "https://cdn.mawaqit.net/images/backend/mosque/b8a68326-a0b6-4887-b4ae-1faf284f0025/mosque/1efb0b2a-74d3-6acc-ba72-0a0389a4e0f5.jpg",
    "address": "Pejaten Mas",
    "city": "SERANG",
    "zipcode": "42161",
    "countryFullName": "Indonesia",
    "lng": 106.11384406686,
    "lat": -6.0591945912653
  },
  {
    "slug": "masjid-al-khodamuttaqwa-jakarta-14310-indonesia",
    "name": "Masjid Al - Khodamuttaqwa",
    "image1": "https://cdn.mawaqit.net/images/backend/mosque/e5ee6c73-8d91-4552-ba78-da9a0e6786aa/mosque/1efbf858-24f7-6e7e-9288-06bada7b305f.png",
    "address": "Jl. Padamarang No.10 Tanjung Priok Jakarta Utara",
    "city": "JAKARTA",
    "zipcode": "14310",
    "countryFullName": "Indonesia",
    "lng": 106.8802646,
    "lat": -6.1087941
  },
  {
    "slug": "al-muhajirin-kabupaten-bandung-40394-indonesia",
    "name": "Al-Muhajirin Rw.04",
    "image1": "https://cdn.mawaqit.net/images/backend/mosque/a3e442ab-3f74-4eff-8fa7-1d8f2f8b8bc0/mosque/1efce7a1-16ab-6512-b18d-0a21b15e7a1f.jpg",
    "address": "Jl.Tulip IX RT.05 RW.04 Kel. Rancaekek Kencana Kec. Rancaekek Kab. Bandung Jawa Barat",
    "city": "KABUPATEN BANDUNG",
    "zipcode": "40394",
    "countryFullName": "Indonesia",
    "lng": 107.759973,
    "lat": -6.9677853
  },
  {
    "slug": "masjid-nurul-iman-pandugo-i-surabaya-60297-indonesia",
    "name": "Masjid Nurul Iman Pandugo I",
    "image1": "https://cdn.mawaqit.net/images/backend/mosque/9c77192d-85e9-4e34-8464-8c49d3dcef2a/mosque/1efd3e25-39a7-6c3e-a86b-0ac178b258e1.jpeg",
    "address": "Jl. Penjaringan Timur IX Blok PF 1-5",
    "city": "SURABAYA",
    "zipcode": "60297",
    "countryFullName": "Indonesia",
    "lng": 112.7851732,
    "lat": -7.319748
  },
  {
    "slug": "masjid-baiti-jannati-serang-42162-indonesia",
    "name": "Masjid Baiti Jannati",
    "image1": "https://cdn.mawaqit.net/images/backend/mosque/cb5ad8ef-a647-403d-be96-bfd35e0f4af7/mosque/1efdbad3-e82f-6a24-ac3b-063aa5df5c67.jpg",
    "address": "Perumahan Mountain Residence Blok A6",
    "city": "SERANG",
    "zipcode": "42162",
    "countryFullName": "Indonesia",
    "lng": 106.1639555,
    "lat": -6.1001268
  },
  {
    "slug": "al-amin-gresik-61119-indonesia",
    "name": "Al Amin Sidorukun Indah",
    "image1": "https://cdn.mawaqit.net/images/backend/mosque/3411fb42-5d8e-4fb3-bee6-35f84ca175aa/mosque/1efde2cc-2195-69f6-9fd0-0ac178b258e1.jpg",
    "address": "Perum Sidorukun Indah",
    "city": "GRESIK",
    "zipcode": "61119",
    "countryFullName": "Indonesia",
    "lng": 112.6599985,
    "lat": -7.1680265
  },
  {
    "slug": "masjid-jami-al-iman-telaga-golf-sawangan-depok-16511-indonesia",
    "name": "Masjid Jami' Al Iman TGS",
    "image1": "https://cdn.mawaqit.net/images/backend/mosque/29dc5293-14ff-43c0-aa27-830c739a6ffb/mosque/1f00d57c-0484-6452-9066-0ac73cfd41db.jpg",
    "address": "Jl. Malaka Boulevard No.1, Sawangan Lama, Kec. Sawangan",
    "city": "DEPOK",
    "zipcode": "16511",
    "countryFullName": "Indonesia",
    "lng": 106.7580519,
    "lat": -6.3996594
  },
  {
    "slug": "masjid-al-istiqomah-kabupaten-pekalongan-51152-indonesia",
    "name": "MASJID AL ISTIQOMAH",
    "image1": "https://cdn.mawaqit.net/images/backend/mosque/21ce3e94-009b-47d3-b9d6-8fd4e3c6edee/mosque/1efe5cf6-72cf-6462-9944-0e61b0058d45.jpg",
    "address": "GUMAWANG RT 001 RW 01 KECAMATAN WIRADESA",
    "city": "KABUPATEN PEKALONGAN",
    "zipcode": "51152",
    "countryFullName": "Indonesia",
    "lng": 109.6170624,
    "lat": -6.8980077
  },
  {
    "slug": "masjid-baiturrahim-bina-marga-cipayung-jakarta-timur-13840-indonesia",
    "name": "BAITURRAHIM",
    "image1": "https://cdn.mawaqit.net/images/backend/mosque/d08169ea-63c7-4a19-bd50-3c50e24e6a82/mosque/1efe62ac-0228-6630-8d0f-063aa5df5c67.jpg",
    "address": "Jalan Raya Bina Marga - Cipayung",
    "city": "JAKARTA TIMUR",
    "zipcode": "13840",
    "countryFullName": "Indonesia",
    "lng": 106.8884056,
    "lat": -6.325259
  },
  {
    "slug": "masjid-ulul-albab-lampung-selatan-35365-indonesia",
    "name": "مسجد أولوا الألباب",
    "image1": "https://cdn.mawaqit.net/images/backend/mosque/5b05397a-5465-4f56-ba50-3cc5db3b834c/mosque/1efeba63-3826-6f66-93d3-0a7d06691847.jpg",
    "address": "Banjar Agung, Jati Agung",
    "city": "LAMPUNG SELATAN",
    "zipcode": "35365",
    "countryFullName": "Indonesia",
    "lng": 105.3394635,
    "lat": -5.3419754
  },
  {
    "slug": "masjid-nurul-hikmah-cipayung-jakarta-timur-13840-indonesia",
    "name": "MASJID NURUL HIKMAH CIPAYUNG",
    "image1": "https://cdn.mawaqit.net/images/backend/mosque/ed7ade45-56b9-4242-817b-1e34762d3247/mosque/1eff415b-51eb-6b2a-bed9-0e61b0058d45.jpg",
    "address": "Jl. Mandor Hasan No.1 RT04 RW06 Cipayung",
    "city": "JAKARTA TIMUR",
    "zipcode": "13840",
    "countryFullName": "Indonesia",
    "lng": 106.8934936,
    "lat": -6.3207605
  },
  {
    "slug": "masjid-al-hikmah-sribit-utara-bantul-55764-indonesia",
    "name": "Masjid Al Hikmah Sribit Lor",
    "image1": "https://cdn.mawaqit.net/images/backend/mosque/7b02f34a-8430-4fe2-9ce2-82e7d9b53fbf/mosque/1eff6b4d-b9d6-6b92-8fb5-0e61b0058d45.jpg",
    "address": "Sribit Wonodoro RT005 Mulyodadi Bambanglipuro Bantul",
    "city": "BANTUL",
    "zipcode": "55764",
    "countryFullName": "Indonesia",
    "lng": 110.325431,
    "lat": -7.9496215
  },
  {
    "slug": "musholla-al-khair-pindad-bandung-40285-indonesia",
    "name": "Musholla Al-Khair Pindad",
    "image1": "https://cdn.mawaqit.net/images/backend/mosque/31f165eb-2681-4f27-9683-840d813b6d4a/mosque/1eff985d-210c-6d0c-8dcd-06ef9144e88f.jpg",
    "address": "Jl. Gatot Subroto no 517",
    "city": "BANDUNG",
    "zipcode": "40285",
    "countryFullName": "Indonesia",
    "lng": 107.6463437,
    "lat": -6.9381005
  },
  {
    "slug": "masjid-ash-sholihin-sleman-55281-angola",
    "name": "Masjid Ash-Sholihin",
    "image1": "https://cdn.mawaqit.net/images/backend/mosque/1c86c6d9-c5d8-4206-be23-39665313dd17/mosque/1effb1a8-b2a7-6dca-9b6a-0e4fa23cf9cb.jpg",
    "address": "Paingan",
    "city": "SLEMAN",
    "zipcode": "55281",
    "countryFullName": "Indonesia",
    "lng": 110.4229282,
    "lat": -7.7547512
  },
  {
    "slug": "masjid-at-taufiq-jakarta-timur-13520-indonesia",
    "name": "MASJID AT-TAUFIQ",
    "image1": "https://cdn.mawaqit.net/images/backend/mosque/ee24f999-7d7f-481a-a8ff-4c4c33770583/mosque/1effea03-d751-6a84-9bf2-0a2e1c0b5725.jpg",
    "address": "Jl Tabri No. 23 RT 013 RW 003 Batu Ampar",
    "city": "JAKARTA TIMUR",
    "zipcode": "13520",
    "countryFullName": "Indonesia",
    "lng": 106.85698360205,
    "lat": -6.2827411505334
  },
  {
    "slug": "al-ukhuwah-cimahi-40511-indonesia",
    "name": "MASJID AL-UKHUWAH",
    "image1": "https://cdn.mawaqit.net/images/backend/mosque/0c5d2d8f-d5dd-4e81-9e08-86fbf33e4a00/mosque/1f000dd2-52fd-683a-981c-0e4fa23cf9cb.jpg",
    "address": "Perumahan Rosalie Hills, Cipageran, Cimahi Utara",
    "city": "CIMAHI",
    "zipcode": "40511",
    "countryFullName": "Indonesia",
    "lng": 107.54087280831,
    "lat": -6.8499240852412
  },
  {
    "slug": "ibadurrohman-bandung-17135-angola",
    "name": "MASJID IBADURROHMAN",
    "image1": "https://cdn.mawaqit.net/images/backend/mosque/b4e3977a-5dc5-4b6d-a64b-2619d22ff067/mosque/1f00256a-46af-6646-b89e-0e4fa23cf9cb.jpg",
    "address": "Baleendah",
    "city": "BANDUNG",
    "zipcode": "17135",
    "countryFullName": "Indonesia",
    "lng": 107.6320153,
    "lat": -7.0063295
  },
  {
    "slug": "mushalla-annajah-depok-kota-depok-16434-indonesia",
    "name": "Mushalla Annajah Depok",
    "image1": "https://cdn.mawaqit.net/images/backend/mosque/8012fe29-6792-47c0-aabd-0a0d6e505590/mosque/1f0047e6-e9db-666e-b532-0e61b0058d45.jpg",
    "address": "Jl. H. Kimah No.4, RT.7/RW.1, Rangkapan Jaya Baru, Kec. Pancoran Mas",
    "city": "KOTA DEPOK",
    "zipcode": "16434",
    "countryFullName": "Indonesia",
    "lng": 106.7881562,
    "lat": -6.4105584
  },
  {
    "slug": "jami-hidayatul-islamiah-garut-44172-indonesia",
    "name": "Jami Hidayatul Islamiah",
    "image1": "https://cdn.mawaqit.net/images/backend/mosque/a3b383a3-c06f-472f-bc64-cfd8ed712ce8/mosque/1f00c7f1-c79d-6f80-9e4b-0ac73cfd41db.jpg",
    "address": "Kampung Jambansari, Desa Padahurip, Kec. Banjarwangi, Kab. Garut",
    "city": "GARUT",
    "zipcode": "44172",
    "countryFullName": "Indonesia",
    "lng": 107.9235563,
    "lat": -7.4064369
  },
  {
    "slug": "masjid-haji-syafrudin-subang-41287-indonesia",
    "name": "Masjid Haji Syafrudin",
    "image1": "https://cdn.mawaqit.net/images/backend/mosque/ef0c8a0a-4ef2-4504-951c-7ef4f57c32ce/mosque/1f00d61f-0935-6282-b7ca-0ac73cfd41db.jpg",
    "address": "Kampung Cipunagara RT 04 RW 07 Desa Sindangsari Kecamatan Kasomalang Kabupaten Subang",
    "city": "SUBANG",
    "zipcode": "41287",
    "countryFullName": "Indonesia",
    "lng": 107.74701778512,
    "lat": -6.7059268829861
  },
  {
    "slug": "masjid-al-muqorrobun-karanganyar-57793-indonesia",
    "name": "Masjid Al Muqorrobun",
    "image1": "https://cdn.mawaqit.net/images/backend/mosque/4847ad70-9a74-4f0c-aa6c-56a883151c93/mosque/1f010e9c-bfd7-6796-a487-0ac73cfd41db.jpg",
    "address": "Jl. Candi Sukuh",
    "city": "KARANGANYAR",
    "zipcode": "57793",
    "countryFullName": "Indonesia",
    "lng": 111.120325,
    "lat": -7.620035
  },
  {
    "slug": "masjid-al-ihsan-candimulyo-kabupaten-magelang-56191-indonesia",
    "name": "Masjid Al-Ihsan Candimulyo",
    "image1": "https://cdn.mawaqit.net/images/backend/mosque/93d76881-f867-4e2d-8a91-29e3215ac5c4/mosque/1f01208d-51e6-6824-990b-0ac73cfd41db.jpg",
    "address": "Barisan, Candimulyo Magelang",
    "city": "KABUPATEN MAGELANG",
    "zipcode": "56191",
    "countryFullName": "Indonesia",
    "lng": 110.2721491456,
    "lat": -7.4922470975961
  },
  {
    "slug": "alhijrah-ambon-97128-indonesia",
    "name": "AlHijrah",
    "image1": "https://cdn.mawaqit.net/images/backend/mosque/8cedf479-3768-4038-8f1c-b4215036ef60/mosque/1f01fdc0-d1ea-64a6-9c06-0e61b0058d45.jpg",
    "address": "Masjid Al-Hijrah Arema oihu, Kampung Oihu, RT.002/RW007, Batu Merah, Kota Ambon, Maluku, Indonesia",
    "city": "AMBON",
    "zipcode": "97128",
    "countryFullName": "Indonesia",
    "lng": 128.190572,
    "lat": -3.679722
  },
  {
    "slug": "sampurna-igama-palembang-30265-indonesia",
    "name": "Masjid Sampurna Igama",
    "image1": "https://cdn.mawaqit.net/images/backend/mosque/5139bff7-be5e-46fe-8d15-bc9f71844a5b/mosque/1f022770-e4a7-6d80-8aba-06bdda781935.jpeg",
    "address": "Lorong Fuad, 16 Ulu, Palembang City, South Sumatra, Indonesia",
    "city": "PALEMBANG",
    "zipcode": "30265",
    "countryFullName": "Indonesia",
    "lng": 104.7892634,
    "lat": -2.9917872
  },
  {
    "slug": "al-muhajirin-ligar-wangi-bandung-40191-indonesia",
    "name": "AL MUHAJIRIN LIGAR WANGI",
    "image1": "https://cdn.mawaqit.net/images/backend/mosque/16494463-dd08-4367-9128-6d4780c55c23/mosque/1f023531-1ded-6702-9eb4-06bdda781935.jpg",
    "address": "Cibeunying, Bandung Regency, West Java, Indonesia",
    "city": "BANDUNG",
    "zipcode": "40191",
    "countryFullName": "Indonesia",
    "lng": 107.6337251054,
    "lat": -6.8774946315435
  },
  {
    "slug": "masjid-nurul-iman-pesawaran-35353-indonesia",
    "name": "Masjid Nurul Iman",
    "image1": "https://cdn.mawaqit.net/images/backend/mosque/e1775802-7f98-44fe-acc5-52be083e9059/mosque/1f024264-8c61-6202-bbf6-0ac73cfd41db.jpg",
    "address": "Jl. Bupati Surya No. 4 RT 08 RW 03 Desa Purworejo, Kec. Negeri Katon, Kab. Pesawaran, Lampung. 35353",
    "city": "PESAWARAN",
    "zipcode": "35353",
    "countryFullName": "Indonesia",
    "lng": 105.0761999,
    "lat": -5.3536844
  },
  {
    "slug": "an-nur-bandung-40286-indonesia",
    "name": "Masjid   AN-NUR   PCM Buahbatu",
    "image1": "https://cdn.mawaqit.net/images/backend/mosque/efd43979-87e0-484c-90a6-041bae7b060c/mosque/1f025840-66b1-64e8-a614-0e61b0058d45.jpg",
    "address": "Jl. Jupiter Sel. 13 No.90, Sekejati, Kec. Buahbatu, Kota Bandung, Jawa Barat 40286",
    "city": "BANDUNG",
    "zipcode": "40286",
    "countryFullName": "Indonesia",
    "lng": 107.6555907,
    "lat": -6.9456007
  },
  {
    "slug": "masjid-abdul-wahhab-wonosobo-56311-indonesia",
    "name": "Abdul Wahhab",
    "image1": "https://cdn.mawaqit.net/images/backend/mosque/09e4af95-649b-4897-815d-bdcbf60dfb53/mosque/1f025bf2-f110-652a-8171-0e61b0058d45.webp",
    "address": "Tanjungsari, Binangun, Kabupaten Wonosobo, Jawa Tengah, Indonesia",
    "city": "WONOSOBO",
    "zipcode": "56311",
    "countryFullName": "Indonesia",
    "lng": 109.9005624,
    "lat": -7.3523506
  },
  {
    "slug": "masjid-daarussaadah-jakarta-12120-indonesia",
    "name": "Masjid Daarussa’adah",
    "image1": "https://cdn.mawaqit.net/images/backend/mosque/814be9f1-56c0-4130-beea-edae3f60abf1/mosque/1f0281a2-6700-6ee0-b5e0-0aae5cc50e23.jpeg",
    "address": "Pasar Mayestik, Jalan Tebah III, Gunung, Kota Jakarta Selatan, Daerah Khusus Ibukota Jakarta, Indonesia",
    "city": "JAKARTA",
    "zipcode": "12120",
    "countryFullName": "Indonesia",
    "lng": 106.79097175598,
    "lat": -6.2409030380751
  },
  {
    "slug": "al-munawarah-cirebon-45156-indonesia",
    "name": "Al Munawarah",
    "image1": "https://cdn.mawaqit.net/images/backend/mosque/61e227c5-bf97-4f66-bc30-5218f2b5a29f/mosque/1f02a4ff-9417-6ad4-9451-0e31fcfe1275.jpg",
    "address": "Kec. Klangenan, Kabupaten Cirebon, Jawa Barat 45156, Indonesia",
    "city": "CIREBON",
    "zipcode": "45156",
    "countryFullName": "Indonesia",
    "lng": 108.4607421,
    "lat": -6.6845708
  },
  {
    "slug": "masjid-baiturrahim-semarang-50189-indonesia",
    "name": "Masjid Baiturrahiim",
    "image1": "https://cdn.mawaqit.net/images/backend/mosque/f5db6401-0f0a-4cf1-bd2d-1cd173fa3cb6/mosque/1f02d42d-a2fb-6250-a957-061541fcdf5d.jpg",
    "address": "Jl. Mega Raya, Bringin, Semarang City, Central Java, Indonesia",
    "city": "SEMARANG",
    "zipcode": "50189",
    "countryFullName": "Indonesia",
    "lng": 110.3318102,
    "lat": -6.9982773
  },
  {
    "slug": "al-ishlah-soreang-41971-indonesia",
    "name": "AL-ISHLAH",
    "image1": "https://cdn.mawaqit.net/images/backend/mosque/d031201d-9bf1-49f3-b819-7b2b4002faf3/mosque/1f02d4ed-ccd2-6e8c-beb0-0efc9ea15c0b.jpg",
    "address": "Soreang Indah blok J, Komplek Soreang Indah, Cingcin, Bandung Regency, West Java, Indonesia",
    "city": "SOREANG",
    "zipcode": "41971",
    "countryFullName": "Indonesia",
    "lng": 107.5398785,
    "lat": -7.02772
  },
  {
    "slug": "masjid-an-nuur-pindad-40285-bandung-indonesia",
    "name": "MASJID AN-NUUR PINDAD",
    "image1": "https://cdn.mawaqit.net/images/backend/mosque/978eaa57-5c16-4fcb-ba17-6e6ec6c8702f/mosque/1f032405-8e96-67ec-87f4-0633aa0c74d7.jpg",
    "address": "Jl. Terusan Gatot Subroto No.517, Sukapura, Kec. Kiaracondong, Kota Bandung, Jawa Barat 40285, Indonesia",
    "city": "BANDUNG",
    "zipcode": "40285",
    "countryFullName": "Indonesia",
    "lng": 107.645565,
    "lat": -6.9330314
  },
  {
    "slug": "jami-darussalam-jambi-36132-indonesia",
    "name": "Jami' Darussalam",
    "image1": "https://cdn.mawaqit.net/images/backend/mosque/aa1878e0-bf5b-40c3-88b2-9e9a1feb03af/mosque/1f03c97d-fb42-6d6e-8b41-06c83fd78a17.png",
    "address": "Jl. Letkol A. Tarmizi Kadir No. 01 RT. 05",
    "city": "JAMBI",
    "zipcode": "36132",
    "countryFullName": "Indonesia",
    "lng": 103.62443625927,
    "lat": -1.6059768917479
  },
  {
    "slug": "jami-nurul-iman-bogor-16810-indonesia",
    "name": "MASJID JAMI NURUL IMAN",
    "image1": "https://cdn.mawaqit.net/images/backend/mosque/660ffc50-76f8-4bfd-b245-640ef0070cf1/mosque/1f03a045-1566-6a9a-ae97-0abb1d73129d.jpg",
    "address": "Kp Babakan sirna, Pasarean, Kabupaten Bogor, Jawa Barat, Indonesia",
    "city": "BOGOR",
    "zipcode": "16810",
    "countryFullName": "Indonesia",
    "lng": 106.6659715,
    "lat": -6.6463445
  }
]