[
  {
    "slug": "associazione-culturale-islamica-di-treviso-villorba",
    "name": "Associazione Culturale Islamica  di TV",
    "image1": "https://cdn.mawaqit.net/images/backend/mosque_default_picture.png",
    "address": "VIA A.VOLTA N40",
    "city": "VILLORBA",
    "zipcode": "31020",
    "countryFullName": "Italy",
    "lng": 12.2498198,
    "lat": 45.7247839
  },
  {
    "slug": "kachni-modena",
    "name": "Kachni",
    "image1": "https://cdn.mawaqit.net/images/backend/mosque_default_picture.png",
    "address": null,
    "city": "Modena",
    "zipcode": "41122",
    "countryFullName": "ITALY",
    "lng": 10.9519982,
    "lat": 44.6696794
  },
  {
    "slug": "centro-della-cultura-islamica-in-abruzzo-teramo",
    "name": "Centro della cultura islamica in Abruzzo",
    "image1": "https://cdn.mawaqit.net/images/backend/mosque_default_picture.png",
    "address": "via Galileo Galilei 15. fr.ne San Nicolò a T.",
    "city": "Teramo",
    "zipcode": "64100",
    "countryFullName": "Italy",
    "lng": 13.7978714,
    "lat": 42.7008135
  },
  {
    "slug": "moschea-di-pordenone-pordenone",
    "name": "MOSCHEA DI PORDENONE",
    "image1": "https://cdn.mawaqit.net/images/backend/mosque_default_picture.png",
    "address": "via de la comina 29 ,",
    "city": "Pordenone",
    "zipcode": "33170",
    "countryFullName": "Italy",
    "lng": 12.6439694,
    "lat": 45.995174
  },
  {
    "slug": "alba-de-futuro-villafranca-vr",
    "name": "L'ALBA DEL FUTURO",
    "image1": "https://cdn.mawaqit.net/images/backend/mosque_default_picture.png",
    "address": "Viale del lavoro 18 D",
    "city": "Villafranca",
    "zipcode": "37069",
    "countryFullName": "Italy",
    "lng": 10.8642967,
    "lat": 45.3631325
  },
  {
    "slug": "comunita-islamica-bellunese",
    "name": "Comunità Islamica Bellunese",
    "image1": "https://cdn.mawaqit.net/images/backend/mosque_default_picture.png",
    "address": "Via Tiziano Vecellio , 82T",
    "city": "Belluno",
    "zipcode": "32100",
    "countryFullName": "Italy",
    "lng": 12.2414024,
    "lat": 46.1628791
  },
  {
    "slug": "aci-cureggio",
    "name": "Centro Culturale Islamico di Borgomanero",
    "image1": "https://cdn.mawaqit.net/images/backend/mosque_default_picture.png",
    "address": "Via Borgomanero N.38",
    "city": "Cureggio",
    "zipcode": "28060",
    "countryFullName": "ITALY",
    "lng": 8.45984,
    "lat": 45.68313
  },
  {
    "slug": "al-huda-onlus-biella",
    "name": "Ass Culturale Islamica Al Huda  Biella",
    "image1": "https://cdn.mawaqit.net/images/backend/mosque/5a0fd12b-24f2-4bcf-8afd-f190c50099b2/mosque/1eea8da2-6ab1-6028-9d9c-066ed47a7584.jpg",
    "address": "Via Meschiatis n°3/A",
    "city": "Biella",
    "zipcode": "13900",
    "countryFullName": "Italy",
    "lng": 8.0414332,
    "lat": 45.5561184
  },
  {
    "slug": "ici-milano",
    "name": "المعهد الثقافي الاسلامي",
    "image1": "https://cdn.mawaqit.net/images/backend/mosque/c8dc35a5-1187-4e06-a49c-b27ee4c3ea42/mosque/1eea8da3-0465-6322-a4cf-066ed47a7584.png",
    "address": "VIALE E, JENNER 50",
    "city": "Milano",
    "zipcode": "20159",
    "countryFullName": "Italy",
    "lng": 9.1753113269806,
    "lat": 45.497007413114
  },
  {
    "slug": "masjid-annor",
    "name": "مسجد النور",
    "image1": "https://cdn.mawaqit.net/images/backend/mosque_default_picture.png",
    "address": "Località Chopine, 40,",
    "city": "Verres",
    "zipcode": "11029",
    "countryFullName": "Italy",
    "lng": 7.683219,
    "lat": 45.670894
  },
  {
    "slug": "tawfiq-medesano",
    "name": "مركز التوفيق الإسلامي",
    "image1": "https://cdn.mawaqit.net/images/backend/mosque/95f861c4-3944-443b-aec0-de932f3adba6/mosque/1eea8da5-602c-6d52-9014-066ed47a7584.jpg",
    "address": "Strada Cervo 1",
    "city": "Medesano",
    "zipcode": "43014",
    "countryFullName": "ITALY",
    "lng": 10.1419429,
    "lat": 44.7585852
  },
  {
    "slug": "del-piceno-fermo",
    "name": "C.C.I.P FERMO - مسجد الرحمة",
    "image1": "https://cdn.mawaqit.net/images/backend/mosque_default_picture.png",
    "address": "Via Girola Valtanna 171",
    "city": "Fermo",
    "zipcode": "63900",
    "countryFullName": "Italy",
    "lng": 13.6504103,
    "lat": 43.1532941
  },
  {
    "slug": "almadina-sassuolo",
    "name": "مسجد المدينة",
    "image1": "https://cdn.mawaqit.net/images/backend/mosque/3125c71a-bc79-4beb-9db3-7970deca6930/mosque/1eea8da7-18f4-653c-9486-066ed47a7584.JPG",
    "address": "Via cavour, 68",
    "city": "Sassuolo",
    "zipcode": "41049",
    "countryFullName": "Italy",
    "lng": 10.7930877,
    "lat": 44.5410074
  },
  {
    "slug": "annour-aosta",
    "name": "Moschea Salam",
    "image1": "https://cdn.mawaqit.net/images/backend/mosque/33d66e0f-e870-4998-a6fc-96b81bed9f3d/mosque/1eea8da7-f521-67ee-80d6-066ed47a7584.jpg",
    "address": "Viale Giorgio Carrel , 42",
    "city": "Aosta",
    "zipcode": "11100",
    "countryFullName": "Italy",
    "lng": 7.3267897,
    "lat": 45.7353257
  },
  {
    "slug": "m-assalam",
    "name": "جمعية السلام",
    "image1": "https://cdn.mawaqit.net/images/backend/mosque_default_picture.png",
    "address": "Via Meucci,  n° 4",
    "city": "Piove-Di-Sacco,-Padova",
    "zipcode": "35028",
    "countryFullName": "Italy",
    "lng": 12.0503555,
    "lat": 45.2850031
  },
  {
    "slug": "attawasol-montebelluna",
    "name": "مسجد التواصل Moschea Attawasol",
    "image1": "https://cdn.mawaqit.net/images/backend/mosque/83fd2a13-4831-40f5-b613-10bdfbbd151e/mosque/1eea8da9-0ad7-6038-8b7b-066ed47a7584.jpg",
    "address": "PIAZZA PARIGI N3",
    "city": "Montebelluna",
    "zipcode": "31044",
    "countryFullName": "Italy",
    "lng": 12.061189,
    "lat": 45.7799473
  },
  {
    "slug": "alhidaya-sanremo",
    "name": "مسجد الهداية",
    "image1": "https://cdn.mawaqit.net/images/backend/mosque/974bd4e3-f085-4f65-9007-d24bb83d4eeb/mosque/1eea8daa-180f-6998-a625-066ed47a7584.jpg",
    "address": "Via Galileo Galilei 325",
    "city": "Sanremo",
    "zipcode": "18038",
    "countryFullName": "Italy",
    "lng": 7.7619983,
    "lat": 43.8248145
  },
  {
    "slug": "assalam-reggio",
    "name": "مسجد السلام",
    "image1": "https://cdn.mawaqit.net/images/backend/mosque_default_picture.png",
    "address": "Via Flavio Gioia n 7",
    "city": "Reggio-Emilia",
    "zipcode": "42124",
    "countryFullName": "Italy",
    "lng": 10.6440032,
    "lat": 44.7020485
  },
  {
    "slug": "arrahma-modena",
    "name": "Moschea la Misericordia مسجد الرحمة",
    "image1": "https://cdn.mawaqit.net/images/backend/mosque/a5ebe733-c2ff-420b-a1b3-535be3fc620e/mosque/1eea8daa-caf4-641e-9e09-066ed47a7584.JPG",
    "address": "Via Portogallo, 16",
    "city": "Modena",
    "zipcode": "41122",
    "countryFullName": "Italy",
    "lng": 10.9421629,
    "lat": 44.6662283
  },
  {
    "slug": "iklas-mirandola",
    "name": "مسجد الإخلاص",
    "image1": "https://cdn.mawaqit.net/images/backend/mosque/7d5bb35c-3ecc-43f6-b46b-22276b9c564b/mosque/1eea8dab-3fb3-6ec6-b087-066ed47a7584.jpg",
    "address": "via Seratina n 17",
    "city": "Mirandola",
    "zipcode": "41037",
    "countryFullName": "Italy",
    "lng": 11.0632969,
    "lat": 44.8863605
  },
  {
    "slug": "al-nur-reggio-emilia",
    "name": "مسجد النور",
    "image1": "https://cdn.mawaqit.net/images/backend/mosque/0c458f9f-b627-4fb1-85a4-776684661bb8/mosque/1eea8dab-81b0-69b4-9fb6-066ed47a7584.PNG",
    "address": "VIA: CRISTOFORO MONARI 15/1",
    "city": "Reggio-Emilia",
    "zipcode": "42122",
    "countryFullName": "Italy",
    "lng": 10.6534965,
    "lat": 44.6822269
  },
  {
    "slug": "marzabotto-bologna",
    "name": "Ass. culturale Islamica Marzabotto",
    "image1": "https://cdn.mawaqit.net/images/backend/mosque_default_picture.png",
    "address": "Via Sperticano",
    "city": "Marzabotto-Bologna",
    "zipcode": "40043",
    "countryFullName": "Italy",
    "lng": 11.190841,
    "lat": 44.3277522
  },
  {
    "slug": "omar-torino",
    "name": "مسجد عمر",
    "image1": "https://cdn.mawaqit.net/images/backend/mosque/9dc710d7-75c4-47c3-a298-333968ac33d1/mosque/1eea8dac-1128-6e98-be11-066ed47a7584.jpeg",
    "address": "Via Saluzzo 18",
    "city": "Torino",
    "zipcode": "10125",
    "countryFullName": "Italy",
    "lng": 7.6791774,
    "lat": 45.0596927
  },
  {
    "slug": "taqwa-torino",
    "name": "مسجد التقوى",
    "image1": "https://cdn.mawaqit.net/images/backend/mosque/568875b6-a99e-49c4-9ecb-b153c3b86f8f/mosque/1eea8dac-4853-601c-ad90-066ed47a7584.jpg",
    "address": "Via Sansovino, 5",
    "city": "Torino",
    "zipcode": "10151",
    "countryFullName": "Italy",
    "lng": 7.6353345,
    "lat": 45.0990709
  },
  {
    "slug": "cci-mantovano",
    "name": "CENTRO C. ISLAMICO MANTOVANO",
    "image1": "https://cdn.mawaqit.net/images/backend/mosque/3d788159-4848-4315-b3e7-f6e987818e37/mosque/1eea8dad-a33c-62ac-8d6c-066ed47a7584.jpeg",
    "address": "Via londra 28/30",
    "city": "Porto-Mantovano",
    "zipcode": "46047",
    "countryFullName": "Italy",
    "lng": 10.7750013,
    "lat": 45.1925086
  },
  {
    "slug": "annur-montebelluna",
    "name": "مسجد النور",
    "image1": "https://cdn.mawaqit.net/images/backend/mosque_default_picture.png",
    "address": "Via Enrico fermi, 57",
    "city": "Montebelluna",
    "zipcode": "31044",
    "countryFullName": "Italy",
    "lng": 12.070812,
    "lat": 45.767257
  },
  {
    "slug": "ennour-fidenza",
    "name": "مركز النور",
    "image1": "https://cdn.mawaqit.net/images/backend/mosque/a50a1f22-e96d-4b73-bd5f-6ef2ce754711/mosque/1eea8dae-2cf1-6eac-b586-066ed47a7584.JPG",
    "address": "Via Sandro Pertini 23",
    "city": "Fidenza",
    "zipcode": "43036",
    "countryFullName": "Italy",
    "lng": 10.0880956,
    "lat": 44.8558691
  },
  {
    "slug": "m-carpi",
    "name": "مسجد كاربي",
    "image1": "https://cdn.mawaqit.net/images/backend/mosque_default_picture.png",
    "address": "Via unione sovietica 2/D",
    "city": "Carpi",
    "zipcode": "41012",
    "countryFullName": "Italy",
    "lng": 10.8707934,
    "lat": 44.7725247
  },
  {
    "slug": "montegranaro",
    "name": "مسجد مونتغرنارو",
    "image1": "https://cdn.mawaqit.net/images/backend/mosque_default_picture.png",
    "address": "via castelfidardo 98",
    "city": "Montegranaro",
    "zipcode": "63812",
    "countryFullName": "Italy",
    "lng": 13.633132038626,
    "lat": 43.232450717562
  },
  {
    "slug": "cil-mantova",
    "name": "CENTRO ISLAMICO LUNETTA",
    "image1": "https://cdn.mawaqit.net/images/backend/mosque_default_picture.png",
    "address": "VIALE VENETO 15/B",
    "city": "Mantova",
    "zipcode": "46100",
    "countryFullName": "Italy",
    "lng": 10.8232863,
    "lat": 45.1617716
  },
  {
    "slug": "misericordioso-modena",
    "name": "مسجد الرحمان",
    "image1": "https://cdn.mawaqit.net/images/backend/mosque/32f25827-088b-4966-922a-8183a70236f0/mosque/1eea8db2-8935-6408-af61-066ed47a7584.jpg",
    "address": "via delle suore,213",
    "city": "Modena",
    "zipcode": "41122",
    "countryFullName": "Italy",
    "lng": 10.919518,
    "lat": 44.6620648
  },
  {
    "slug": "essalem-ricco",
    "name": "مسجد السلام",
    "image1": "https://cdn.mawaqit.net/images/backend/mosque/f84f6a50-7057-44d8-a4de-b887c8ff7170/mosque/1eea8db3-37e8-6b08-b7e1-066ed47a7584.png",
    "address": "via Giotto Da Bund, 2",
    "city": "Riccò-Di-Fornovo-Taro",
    "zipcode": "43045",
    "countryFullName": "Italy",
    "lng": 10.1206183,
    "lat": 44.7007761
  },
  {
    "slug": "ikhlas-torino",
    "name": "مسجد الإخلاص",
    "image1": "https://cdn.mawaqit.net/images/backend/mosque/91595bf6-2125-4363-b90c-c8e5311120d3/mosque/1eea8db6-5db7-6d36-a822-066ed47a7584.JPG",
    "address": "Strada delle Cacce 12/14",
    "city": "Torino",
    "zipcode": "10135",
    "countryFullName": "Italy",
    "lng": 7.63915,
    "lat": 45.02001
  },
  {
    "slug": "alfalah-torino",
    "name": "Moschea Alfalah - مسجد الفلاح",
    "image1": "https://cdn.mawaqit.net/images/backend/mosque/d006c2b4-e03a-4556-8f06-580d1c68b247/mosque/1eea8db6-ef21-6c9a-a764-066ed47a7584.jpg",
    "address": "Via Porpora 29",
    "city": "Torino",
    "zipcode": "10100",
    "countryFullName": "Italy",
    "lng": 7.6976249,
    "lat": 45.1011262
  },
  {
    "slug": "annour-rio-saliceto",
    "name": "مدرسة النور",
    "image1": "https://cdn.mawaqit.net/images/backend/mosque_default_picture.png",
    "address": "VIA VETTIGANO 35",
    "city": "Rio-Saliceto",
    "zipcode": "42010",
    "countryFullName": "Italy",
    "lng": 10.7744636,
    "lat": 44.8345342
  },
  {
    "slug": "badr-bologna",
    "name": "مسجد بدر",
    "image1": "https://cdn.mawaqit.net/images/backend/mosque/5fba625e-81f2-4967-be70-e06582febf0e/mosque/1eea8db8-ef32-673c-a977-066ed47a7584.jpg",
    "address": "VIA MASCARINO 12M",
    "city": "Pieve-Di-Cento-Bologna",
    "zipcode": "40066",
    "countryFullName": "Italy",
    "lng": 11.3121413,
    "lat": 44.7095617
  },
  {
    "slug": "del-rubicone-gatteo",
    "name": "MOSCHEA DEL RUBICONE",
    "image1": "https://cdn.mawaqit.net/images/backend/mosque/b526cf15-476c-4a10-861b-4604c8006ef3/mosque/1eea8dba-a343-6900-9951-066ed47a7584.jpg",
    "address": "VIA CAMPAGNOLA 5",
    "city": "Gatteo",
    "zipcode": "47043",
    "countryFullName": "Italy",
    "lng": 12.380024,
    "lat": 44.1243193
  },
  {
    "slug": "assunna-agliana",
    "name": "مسجد السنة",
    "image1": "https://cdn.mawaqit.net/images/backend/mosque/7c0554c4-219b-4955-993c-1ac20941e0d2/mosque/1eea8dbb-e2e5-6b7a-89df-066ed47a7584.jpg",
    "address": "ASSOCIAZIONE ISLAMICA DI AGLIANAVIA GIORGIO LA PIRA",
    "city": "Agliana-Pt",
    "zipcode": "51031",
    "countryFullName": "Italy",
    "lng": 10.993897488885,
    "lat": 43.909749647641
  },
  {
    "slug": "cesenate-torre-del-moro",
    "name": "MOSCHEA CESENATE",
    "image1": "https://cdn.mawaqit.net/images/backend/mosque/a2dc7087-0f00-493a-be48-990793005239/mosque/1eea8dbc-474d-6b3a-828e-066ed47a7584.jpg",
    "address": "VIA LUIGI LONGO 315",
    "city": "Torre-Del-Moro",
    "zipcode": "47522",
    "countryFullName": "Italy",
    "lng": 12.216258,
    "lat": 44.1554301
  },
  {
    "slug": "valsa-bologna",
    "name": "الجمعية الثقافية الاسلامية ببزانو",
    "image1": "https://cdn.mawaqit.net/images/backend/mosque_default_picture.png",
    "address": "val samoggia (Bazzano) Via provinciale est 12/T",
    "city": "Bologna",
    "zipcode": "40053",
    "countryFullName": "Italy",
    "lng": 11.095139980316,
    "lat": 44.506973429631
  },
  {
    "slug": "m-cento-fe",
    "name": "مسجد التعايش",
    "image1": "https://cdn.mawaqit.net/images/backend/mosque/dbe4befa-0e1e-4700-891a-6016a9d3a638/mosque/1eea8dbc-f00e-6a6c-a963-066ed47a7584.jpg",
    "address": "via niccolò tommaseo n 4",
    "city": "Cento-Fe",
    "zipcode": "44042",
    "countryFullName": "Italy",
    "lng": 11.29831,
    "lat": 44.7361
  },
  {
    "slug": "m-solierea",
    "name": "مسجد صولييرا",
    "image1": "https://cdn.mawaqit.net/images/backend/mosque_default_picture.png",
    "address": "Via Giuseppe verdi 95",
    "city": "Soliera",
    "zipcode": "41019",
    "countryFullName": "Italy",
    "lng": 10.9182952,
    "lat": 44.7327005
  },
  {
    "slug": "m-molinella",
    "name": "Moschea di Molinella",
    "image1": "https://cdn.mawaqit.net/images/backend/mosque_default_picture.png",
    "address": "Via Filippo Turati 23",
    "city": "Molinella",
    "zipcode": "40062",
    "countryFullName": "Italy",
    "lng": 11.661807,
    "lat": 44.609387
  },
  {
    "slug": "annakhla-torino",
    "name": "Moschea Annakhla مسجد النخلة",
    "image1": "https://cdn.mawaqit.net/images/backend/mosque_default_picture.png",
    "address": "Via aquila 34",
    "city": "Torino",
    "zipcode": "10144",
    "countryFullName": "Italy",
    "lng": 7.6669161021709,
    "lat": 45.086251818807
  },
  {
    "slug": "assalam-nervesa-della-battaglia",
    "name": "مسجد السلام",
    "image1": "https://cdn.mawaqit.net/images/backend/mosque_default_picture.png",
    "address": "via della riscossa 4",
    "city": "Nervesa-Della-Battglia",
    "zipcode": "31040",
    "countryFullName": "Italy",
    "lng": 12.2005628,
    "lat": 45.8145166
  },
  {
    "slug": "attawba-modena",
    "name": "مسجد التوبة",
    "image1": "https://cdn.mawaqit.net/images/backend/mosque/7b521867-c928-4a45-a4a4-488d162affaa/mosque/1eea8dc1-a136-6b88-8d9e-066ed47a7584.jpg",
    "address": "via delle roveri n1",
    "city": "Finale-Emilia-Modena",
    "zipcode": "41034",
    "countryFullName": "Italy",
    "lng": 11.2815875,
    "lat": 44.8149569
  },
  {
    "slug": "assalam-cassola",
    "name": "مسجد السلام",
    "image1": "https://cdn.mawaqit.net/images/backend/mosque_default_picture.png",
    "address": "VIA FERRARIN 81",
    "city": "Cassola",
    "zipcode": "36022",
    "countryFullName": "Italy",
    "lng": 11.7673516,
    "lat": 45.7676661
  },
  {
    "slug": "umma-reggio-emilia",
    "name": "مسجد الأمة",
    "image1": "https://cdn.mawaqit.net/images/backend/mosque_default_picture.png",
    "address": "piccard 04",
    "city": "Reggio-Emilia",
    "zipcode": "42124",
    "countryFullName": "Italy",
    "lng": 10.6085074,
    "lat": 44.7077633
  },
  {
    "slug": "mustaqbel-portomaggiore",
    "name": "مسجد المستقبل",
    "image1": "https://cdn.mawaqit.net/images/backend/mosque/c9f2220b-e932-49aa-bab4-06d48386ca95/mosque/1eea8dc3-46bd-6a1a-a27a-066ed47a7584.jpg",
    "address": "via olmo n 1",
    "city": "Portomaggiore-(fe)",
    "zipcode": "44015",
    "countryFullName": "Italy",
    "lng": 11.8019488,
    "lat": 44.6944589
  },
  {
    "slug": "associazione-culturale-islamica-di-piacenza",
    "name": "C.I.P.  di Piacenza",
    "image1": "https://cdn.mawaqit.net/images/backend/mosque/bbecc26e-dc52-47ec-a10a-74f32a849402/mosque/1eea8dca-8ff1-66a8-bdea-066ed47a7584.JPG",
    "address": "Via caorsana 43/A",
    "city": "Piacenza",
    "zipcode": "29122",
    "countryFullName": "Italy",
    "lng": 9.7297075,
    "lat": 45.0448726
  },
  {
    "slug": "hidaya-asti",
    "name": "مسجد الهداية بآستي",
    "image1": "https://cdn.mawaqit.net/images/backend/mosque/f961c2c9-1815-4fb0-b6d5-95cc27f9d9cc/mosque/1eea8dcb-8625-6588-a137-066ed47a7584.jpg",
    "address": "Via Amerigo Vespucci n28b",
    "city": "Asti",
    "zipcode": "14100",
    "countryFullName": "Italy",
    "lng": 8.231188,
    "lat": 44.916214
  },
  {
    "slug": "nour-casalgrande",
    "name": "مسجد النور",
    "image1": "https://cdn.mawaqit.net/images/backend/mosque/f99cc83e-3ad9-42b2-a98d-7070d6376d00/mosque/1eea8dcc-ad01-671e-9e56-066ed47a7584.jpg",
    "address": "strada statale 467 -24",
    "city": "Casalgrande",
    "zipcode": "42013",
    "countryFullName": "Italy",
    "lng": 10.6928129,
    "lat": 44.6007691
  },
  {
    "slug": "waha-asti",
    "name": "مسجد الواحة",
    "image1": "https://cdn.mawaqit.net/images/backend/mosque/d945c907-6a2f-4573-8ee8-cf0bdffdf8e1/mosque/1eea8dcd-2a15-60fc-a81b-066ed47a7584.jpg",
    "address": "via balbo 4",
    "city": "Asti",
    "zipcode": "14100",
    "countryFullName": "Italy",
    "lng": 8.202235,
    "lat": 44.8985347
  },
  {
    "slug": "cci-castiglione",
    "name": "Centro Culturale islamico",
    "image1": "https://cdn.mawaqit.net/images/backend/mosque/72e14929-e130-4396-8c0a-4ea1f9854977/mosque/1eea8dcd-7313-6d12-9eb8-066ed47a7584.jpg",
    "address": "Via dell'industria 28H",
    "city": "Castiglione-Delle-Stiviere",
    "zipcode": "46043",
    "countryFullName": "Italy",
    "lng": 10.4672408,
    "lat": 45.395821
  },
  {
    "slug": "hidaya-san-giovanni",
    "name": "مسجدالهداية",
    "image1": "https://cdn.mawaqit.net/images/backend/mosque/705817ef-612e-44f1-9567-a8bbce9e54d5/mosque/1eea8dcd-8059-690e-9fe1-066ed47a7584.jpg",
    "address": "via crevalcore n 3/6",
    "city": "San-Giovanni-In-Persiceto",
    "zipcode": "40017",
    "countryFullName": "Italy",
    "lng": 11.1863539,
    "lat": 44.6457027
  },
  {
    "slug": "l-i-a-v-a-aosta",
    "name": "l.i.a.v.a",
    "image1": "https://cdn.mawaqit.net/images/backend/mosque_default_picture.png",
    "address": "Via G Carrel 41",
    "city": "Aosta",
    "zipcode": "11100",
    "countryFullName": "Italy",
    "lng": 7.3279027,
    "lat": 45.7355161
  },
  {
    "slug": "huda-sassuolo",
    "name": "المركز الثقافي الهدى",
    "image1": "https://cdn.mawaqit.net/images/backend/mosque/fda6ca0e-c858-4335-8106-6487a00f6b1f/mosque/1eea8dce-ce5a-6a08-b4f5-066ed47a7584.jpg",
    "address": "Via Atene 8",
    "city": "Sassuolo",
    "zipcode": "41049",
    "countryFullName": "Italy",
    "lng": 10.7879612,
    "lat": 44.5553656
  },
  {
    "slug": "assalam-bolzano",
    "name": "مسجد السلام",
    "image1": "https://cdn.mawaqit.net/images/backend/mosque/0a4a3aad-2f04-4134-ae7f-1db6cb5a3546/mosque/1eea8dcf-7d58-647e-9d80-066ed47a7584.jpeg",
    "address": "Via Volta. 1",
    "city": "Bolzano",
    "zipcode": "39100",
    "countryFullName": "Italy",
    "lng": 11.3345291,
    "lat": 46.4789478
  },
  {
    "slug": "assalam-crevalcore",
    "name": "مسجد السلام",
    "image1": "https://cdn.mawaqit.net/images/backend/mosque/b1d41bbd-22c0-4687-a170-ec7dfa687ba2/mosque/1eea8dcf-f6a7-6aa0-b44d-066ed47a7584.jpg",
    "address": "VIA ZUCCHERIFICIO 274/A",
    "city": "Crevalcore",
    "zipcode": "40014",
    "countryFullName": "Italy",
    "lng": 11.1794198,
    "lat": 44.7159647
  },
  {
    "slug": "taqwa-bologna",
    "name": "مسجد التقوى",
    "image1": "https://cdn.mawaqit.net/images/backend/mosque/c47f3511-3376-4561-b1c5-400fe64e5b59/mosque/1eea8dd1-8d8d-6c66-8bbc-066ed47a7584.png",
    "address": "VIA AGUCCHI74-7b",
    "city": "Bologna",
    "zipcode": "40131",
    "countryFullName": "Italy",
    "lng": 11.2980849,
    "lat": 44.5118879
  },
  {
    "slug": "speranza-reggio-emilia",
    "name": "Centro Culturale Speranza e Pace",
    "image1": "https://cdn.mawaqit.net/images/backend/mosque/f793453d-a445-41d5-b252-8b71943dd8f7/mosque/1eea8dd1-fe59-68d2-bf95-066ed47a7584.jpg",
    "address": "Via de Gasperi 41, San Polo d'Enza",
    "city": "Reggio-Emilia",
    "zipcode": "42020",
    "countryFullName": "Italy",
    "lng": 10.4163557,
    "lat": 44.6186434
  },
  {
    "slug": "m-casarsa",
    "name": "MOSCHEA",
    "image1": "https://cdn.mawaqit.net/images/backend/mosque/e7d1e0da-4da6-48c1-b880-436adf0c27f3/mosque/1eea8dd2-9763-62e4-ad25-066ed47a7584.jpeg",
    "address": "PIAZZA IV NOVEMBRE 18",
    "city": "Casarsa-Della-Delizia",
    "zipcode": "33072",
    "countryFullName": "Italy",
    "lng": 12.8403306,
    "lat": 45.9538537
  },
  {
    "slug": "m-saraceno",
    "name": "moschea di cella di mercato saraceno",
    "image1": "https://cdn.mawaqit.net/images/backend/mosque/1a1b96d5-b475-423e-9d23-f52188cfb8b9/mosque/1eea8dd2-a47b-6242-9916-066ed47a7584.jpg",
    "address": "via nazionale  96",
    "city": "Mercato-Saraceno-Fc",
    "zipcode": "47025",
    "countryFullName": "Italy",
    "lng": 15.3699681,
    "lat": 38.2196834
  },
  {
    "slug": "villabella-san-bonifacio",
    "name": "c.islamico villabella",
    "image1": "https://cdn.mawaqit.net/images/backend/mosque/859dd0b1-a3e4-474b-ad60-9974e9485516/mosque/1eea8dd2-b38f-604e-96dd-066ed47a7584.jpeg",
    "address": "LOC  VILLABELLA 11",
    "city": "San-Bonifacio-Vr",
    "zipcode": "37047",
    "countryFullName": "Italy",
    "lng": 11.2469569,
    "lat": 45.4041021
  },
  {
    "slug": "aps-lissone",
    "name": "مركز الشباب - Lissone",
    "image1": "https://cdn.mawaqit.net/images/backend/mosque/470f8f84-9dae-4b58-a11c-9997910a2956/mosque/1eea8dd3-1dda-675a-b5c2-066ed47a7584.jpeg",
    "address": "via damiano chiesa 52",
    "city": "Lissone",
    "zipcode": "20851",
    "countryFullName": "Italy",
    "lng": 9.2304189,
    "lat": 45.616039
  },
  {
    "slug": "rahma-spinetta",
    "name": "مسجد الرحمة",
    "image1": "https://cdn.mawaqit.net/images/backend/mosque/03f1239d-db31-4d84-ac11-dc3d04061a13/mosque/1eea8dd3-628f-699a-aaae-066ed47a7584.jpg",
    "address": "Via Carella snc",
    "city": "Spinetta-Marengo",
    "zipcode": "15122",
    "countryFullName": "Italy",
    "lng": 8.6833,
    "lat": 44.8833
  },
  {
    "slug": "al-baraka-santa-lucia",
    "name": "مسجد البركة",
    "image1": "https://cdn.mawaqit.net/images/backend/mosque/2786ff25-4a8f-4b74-ae5f-2d5093fdafd7/mosque/1eea8dd3-db13-67a4-95cd-066ed47a7584.jpeg",
    "address": "Via Bolda 2",
    "city": "Santa-Lucia-Di-Piave",
    "zipcode": "31025",
    "countryFullName": "Italy",
    "lng": 12.3068296,
    "lat": 45.8500644
  },
  {
    "slug": "mutaqbal-thiene",
    "name": "Ass.culturale e sportiva IL FUTURO",
    "image1": "https://cdn.mawaqit.net/images/backend/mosque/8a249b51-5b9e-475c-a2b9-783d7d9e874a/mosque/1eea8dd4-78d0-6082-81c8-066ed47a7584.jpg",
    "address": "Via del rosario 26",
    "city": "Thiene",
    "zipcode": "36016",
    "countryFullName": "Italy",
    "lng": 11.4729547,
    "lat": 45.6812546
  },
  {
    "slug": "cic-sarzana",
    "name": "C. Islamico Culturale a Sarzana",
    "image1": "https://cdn.mawaqit.net/images/backend/mosque/b4941a02-61d5-478b-bf06-057d0339dcc6/mosque/1eea8dd5-24e9-6666-9aee-066ed47a7584.jpg",
    "address": "VIA PAOLO DIANA 28",
    "city": "Sarzana",
    "zipcode": "19038",
    "countryFullName": "Italy",
    "lng": 9.9516434815214,
    "lat": 44.114998291835
  },
  {
    "slug": "arrahma-vittorio",
    "name": "Ass. Culturale Misericordia  مسجد الرحمة",
    "image1": "https://cdn.mawaqit.net/images/backend/mosque/87d1fd0a-a36c-4102-aa81-753e3e76b8a2/mosque/1eea8dd5-a6eb-6a9c-917b-066ed47a7584.jpg",
    "address": "Via Menarè 308",
    "city": "Vittorio-Veneto",
    "zipcode": "31029",
    "countryFullName": "Italy",
    "lng": 12.3235037,
    "lat": 45.9483147
  },
  {
    "slug": "madina-alessandria",
    "name": "مسجد المدينة",
    "image1": "https://cdn.mawaqit.net/images/backend/mosque/abcd6366-8e7f-4601-b300-2a60dd0f22d3/mosque/1eea8dd5-e4e9-6d3a-ba1a-066ed47a7584.jpg",
    "address": "Via Verona 72",
    "city": "Alessandria",
    "zipcode": "15121",
    "countryFullName": "Italy",
    "lng": 8.6149885,
    "lat": 44.9166407
  },
  {
    "slug": "dar-quran-milano",
    "name": "مسجد عثمان بن عفان",
    "image1": "https://cdn.mawaqit.net/images/backend/mosque/986f61a6-89d2-416b-9652-a6a126e3880e/mosque/1eea8dd7-1fbd-67e4-beb0-066ed47a7584.jpg",
    "address": "via stadera 18",
    "city": "Milano",
    "zipcode": "20124",
    "countryFullName": "Italy",
    "lng": 9.1823978,
    "lat": 45.433815
  },
  {
    "slug": "m-maranello-1",
    "name": "مسجد مارانيللو",
    "image1": "https://cdn.mawaqit.net/images/backend/mosque/f560a724-f5cf-4951-9c61-254122195f75/mosque/1eea8dd9-7dcc-698c-a7b1-066ed47a7584.jpg",
    "address": "Via bandini 10",
    "city": "Maranello",
    "zipcode": "41053",
    "countryFullName": "Italy",
    "lng": 10.8710813,
    "lat": 44.5386574
  },
  {
    "slug": "ferdaws-pontelongo",
    "name": "جمعية الفردوس",
    "image1": "https://cdn.mawaqit.net/images/backend/mosque/34ff9af7-d76e-46e8-aa10-6e6030b26c9b/mosque/1eea8dd9-8c39-6c0e-bdc8-066ed47a7584.jpg",
    "address": "Via Nova, 209",
    "city": "Pontelongo-(pd)",
    "zipcode": "35029",
    "countryFullName": "Italy",
    "lng": 12.0244794,
    "lat": 45.2443063
  },
  {
    "slug": "arahma-onlus-carpenedolo",
    "name": "مسجد الرحمة",
    "image1": "https://cdn.mawaqit.net/images/backend/mosque/eb5f700c-bab3-42d0-8a3d-96a48c6ce18c/mosque/1eea8dd9-9bab-6f66-8281-066ed47a7584.jpeg",
    "address": "Via Michelangelo 61",
    "city": "Carpenedolo",
    "zipcode": "25013",
    "countryFullName": "Italy",
    "lng": 10.431318,
    "lat": 45.3712293
  },
  {
    "slug": "ferdaws-stradella",
    "name": "مسجد الفردوس",
    "image1": "https://cdn.mawaqit.net/images/backend/mosque/23cb5cde-850c-4acd-b0d0-643f58a15bc4/mosque/1eea8dda-4b72-6350-a396-066ed47a7584.jpg",
    "address": "Via dei mille N 6",
    "city": "Stradella",
    "zipcode": "27049",
    "countryFullName": "Italy",
    "lng": 9.3064805,
    "lat": 45.0755761
  },
  {
    "slug": "arrahman-la-spezia",
    "name": "مسجد الرحمن",
    "image1": "https://cdn.mawaqit.net/images/backend/mosque/d7faa801-9958-48b3-8868-7e1c09f4b495/mosque/1eea8ddb-d668-685a-81f7-066ed47a7584.jpeg",
    "address": "Via Paolo mantegazza 11",
    "city": "La-Spezia",
    "zipcode": "19100",
    "countryFullName": "Italy",
    "lng": 9.8422587,
    "lat": 44.1115783
  },
  {
    "slug": "churuq-manerbio-bs",
    "name": "مسجد شروق",
    "image1": "https://cdn.mawaqit.net/images/backend/mosque/a340033f-7e79-4281-871e-749fd9ae2579/mosque/1ef909e6-a3d4-65de-a9f7-0affcb0701ab.png",
    "address": "Via Toscana 34,",
    "city": "MANERBIO",
    "zipcode": "25025",
    "countryFullName": "Italy",
    "lng": 10.1622383,
    "lat": 45.3599524
  },
  {
    "slug": "beytoallah-zocca",
    "name": "مسجد بيت الله",
    "image1": "https://cdn.mawaqit.net/images/backend/mosque/4ba2cfcb-2181-4cc0-9be5-ef84e3c70d14/mosque/1eea8ddc-2011-688a-ab2b-066ed47a7584.jpg",
    "address": "Via del Mercato, 78",
    "city": "Zocca",
    "zipcode": "41059",
    "countryFullName": "Italy",
    "lng": 10.9935694,
    "lat": 44.346572
  },
  {
    "slug": "mariam-milano",
    "name": "مسجد السيدة مريم عليها السلام",
    "image1": "https://cdn.mawaqit.net/images/backend/mosque/283ecacb-657a-413d-9cef-857436b36922/mosque/1eea8ddc-bf0a-6c52-b6fd-066ed47a7584.jpeg",
    "address": "via padova 366",
    "city": "Milano",
    "zipcode": "20132",
    "countryFullName": "Italy",
    "lng": 9.2575372,
    "lat": 45.5116796
  },
  {
    "slug": "sud-mediterraneo-pederobba",
    "name": "Associazione culturale sud mediterraneo",
    "image1": "https://cdn.mawaqit.net/images/backend/mosque/b88568bc-c04b-4411-8b06-f693e0d0ad5d/mosque/1eea8ddd-68b8-6d9e-b4d5-066ed47a7584.jpg",
    "address": "via feltrina,19/2",
    "city": "Pederobba",
    "zipcode": "31040",
    "countryFullName": "Italy",
    "lng": 11.975528,
    "lat": 45.866482
  },
  {
    "slug": "anasr-seregno",
    "name": "المركز الثقافي النصر",
    "image1": "https://cdn.mawaqit.net/images/backend/mosque/d4beeeca-a6e6-4151-89b6-f0b2182ef631/mosque/1eea8ddd-7791-6af0-ab54-066ed47a7584.jpg",
    "address": "via milano 3",
    "city": "Seregno",
    "zipcode": "20831",
    "countryFullName": "Italy",
    "lng": 9.2039611,
    "lat": 45.6440181
  },
  {
    "slug": "masjid-annour-montichiari",
    "name": "Masjid Annour",
    "image1": "https://cdn.mawaqit.net/images/backend/mosque/b5899055-0b91-4b1b-af47-f2aece91f151/mosque/1eea8dde-b7aa-6096-89e0-066ed47a7584.jpg",
    "address": "Via trieste 177",
    "city": "Montichiari",
    "zipcode": "25018",
    "countryFullName": "Italy",
    "lng": 10.4033,
    "lat": 45.40951
  },
  {
    "slug": "centro-islamico-di-monza-e-brianza-monza",
    "name": "Centro Islamico di Monza e Brianza",
    "image1": "https://cdn.mawaqit.net/images/backend/mosque/0382953e-201a-427e-88fe-ed9d99dd5726/mosque/1eea8ddf-978d-6eb0-864d-066ed47a7584.jpg",
    "address": "VIA GHILINI 17",
    "city": "Monza",
    "zipcode": "20900",
    "countryFullName": "Italy",
    "lng": 9.2758434,
    "lat": 45.5755346
  },
  {
    "slug": "salam-vignola",
    "name": "مسجد الإحسان",
    "image1": "https://cdn.mawaqit.net/images/backend/mosque/6f8ced75-f0eb-4769-8e7d-fe8aab33d5e1/mosque/1eea8de1-18d5-6b2a-8c26-066ed47a7584.jpg",
    "address": "VIA GOFFREDO MAMELI 261 41058 VIGNOLA Modena",
    "city": "Vignola",
    "zipcode": "41058",
    "countryFullName": "Italy",
    "lng": 11.0149577,
    "lat": 44.4914296
  },
  {
    "slug": "m-calcinato",
    "name": "مسجد السلام",
    "image1": "https://cdn.mawaqit.net/images/backend/mosque/f15cd2a8-9725-4013-b4c3-341e5098cbbb/mosque/1eea8de1-7d94-6822-8cb2-066ed47a7584.jpg",
    "address": "Via Palestro 27",
    "city": "Calcinato",
    "zipcode": "25011",
    "countryFullName": "Italy",
    "lng": 10.4108976,
    "lat": 45.4510628
  },
  {
    "slug": "masjid-ibn-otheimine-alessandria",
    "name": "مسجد ابن عثيمين-ألساندريا",
    "image1": "https://cdn.mawaqit.net/images/backend/mosque/f25fff87-a029-401b-9ac3-e7c807e1fe3c/mosque/1eea8de1-b90e-6448-944f-066ed47a7584.jpeg",
    "address": "Via Bonardi 12",
    "city": "Alessandria",
    "zipcode": "15121",
    "countryFullName": "Italy",
    "lng": 8.6046005,
    "lat": 44.9008506
  },
  {
    "slug": "masjid-tawba-vicenza",
    "name": "Centro Culturale Islamico Ettawba",
    "image1": "https://cdn.mawaqit.net/images/backend/mosque/fdafb512-8088-4ffb-a363-c87a8d96fd4b/mosque/1eea8de2-04a8-6eb2-9e59-066ed47a7584.jpg",
    "address": "Via vecchia f ferriera 167",
    "city": "Vicenza",
    "zipcode": "36100",
    "countryFullName": "Italy",
    "lng": 11.5039408,
    "lat": 45.5369263
  },
  {
    "slug": "masjid-alhouda-pioltello-mi",
    "name": "مسجد الهدى",
    "image1": "https://cdn.mawaqit.net/images/backend/mosque/8171d5f6-e95c-43b9-89e7-31c8df9485b1/mosque/1eea8de2-55b4-645a-b9a2-066ed47a7584.jpeg",
    "address": "Via Domenico Cimarosa, 1",
    "city": "Pioltello-Mi",
    "zipcode": "20096",
    "countryFullName": "Italy",
    "lng": 9.3323723,
    "lat": 45.5051417
  },
  {
    "slug": "associazione-fratellanza-san-zenone-degli-ezzelini",
    "name": "Associazione Fratellanza",
    "image1": "https://cdn.mawaqit.net/images/backend/mosque/742fb172-0cf9-431e-b5ea-86750fb89244/mosque/1ef8f19d-de3a-61bc-b1f0-0e9d077f5bb1.jpg",
    "address": "Via Dell'artigianato 1",
    "city": "SAN-ZENONE-DEGLI-EZZELINI TV",
    "zipcode": "31020",
    "countryFullName": "Italy",
    "lng": 11.8542948,
    "lat": 45.777591
  },
  {
    "slug": "moschea-di-forli-forli-cesena",
    "name": "MOSCHEA DI FORLI",
    "image1": "https://cdn.mawaqit.net/images/backend/mosque/67fd1813-8d5e-4245-8c79-50cfd37e9796/mosque/1eea8de6-8d21-6f24-a327-066ed47a7584.jpg",
    "address": "Via A. Masetti, 14",
    "city": "Forlì-Cesena",
    "zipcode": "47122",
    "countryFullName": "Italy",
    "lng": 12.0893145,
    "lat": 44.217516
  },
  {
    "slug": "msjd-lslm-moschea-assalam-annone-veneto",
    "name": "مسجد السلام MOSCHEA ASSALAM",
    "image1": "https://cdn.mawaqit.net/images/backend/mosque/4b23cd0f-29c2-4609-908f-947651f1835a/mosque/1eea8de6-9c7e-6ddc-bec7-066ed47a7584.jpg",
    "address": "Via Sandro Pertini 10/L",
    "city": "Annone-Veneto",
    "zipcode": "30020",
    "countryFullName": "Italy",
    "lng": 12.6908279,
    "lat": 45.8008671
  },
  {
    "slug": "associazione-essalam-bovolone",
    "name": "مسجد السلام",
    "image1": "https://cdn.mawaqit.net/images/backend/mosque/41f3a861-a644-4cb3-82a3-5d2d08e46871/mosque/1eea8de7-42e7-68d6-8d3f-066ed47a7584.jpg",
    "address": "Via San Pierin 180",
    "city": "Bovolone",
    "zipcode": "37051",
    "countryFullName": "Italy",
    "lng": 11.1306571,
    "lat": 45.250725
  },
  {
    "slug": "c-c-per-la-pace-onlus-valeggio-sul-mincio-vr",
    "name": "C.C LA PACE-ONLUS",
    "image1": "https://cdn.mawaqit.net/images/backend/mosque/7873ebb7-e360-4a50-aa21-0f240df5f8d6/mosque/1eea8de7-7636-614c-91d9-066ed47a7584.jpg",
    "address": "VIA GALILEO FERRARIS 13",
    "city": "Valeggio-Sul-Mincio-Vr",
    "zipcode": "37067",
    "countryFullName": "Italy",
    "lng": 10.73426,
    "lat": 45.3415
  },
  {
    "slug": "amal-schio",
    "name": "AMAL",
    "image1": "https://cdn.mawaqit.net/images/backend/mosque/cd7c8fdb-e8d9-4e62-8c30-2219a5998909/mosque/1eea8de7-a9a4-6ea2-8562-066ed47a7584.jpeg",
    "address": "VIA VENETO 32",
    "city": "Schio",
    "zipcode": "36015",
    "countryFullName": "Italy",
    "lng": 11.3885216,
    "lat": 45.7224948
  },
  {
    "slug": "associazione-culturale-islamico-al-huda-montecchio-emilia",
    "name": "ASSOCIAZIONE CULTURALE ISLAMICO AL HUDA",
    "image1": "https://cdn.mawaqit.net/images/backend/mosque/c74d722f-1ffb-44a4-9f2c-85ae3e3e8df5/mosque/1eee3c65-8b78-6d2c-b135-0a9258a77f81.jpg",
    "address": "Strada Barco 5/2 Montecchio Emilia",
    "city": "Montecchio-Emilia",
    "zipcode": "42027",
    "countryFullName": "Italy",
    "lng": 10.4673451,
    "lat": 44.6983083
  },
  {
    "slug": "c-islamico-al-amal-bussolengo",
    "name": "مسجد الأمل - Ass. AL AMAL",
    "image1": "https://cdn.mawaqit.net/images/backend/mosque/dc9c1e45-12ad-43bc-b9f7-02e49fb31ffc/mosque/1eea8deb-acf1-641c-b2da-066ed47a7584.jpg",
    "address": "LARGO SALVO D'ACQUISTO 24A",
    "city": "Bussolengo",
    "zipcode": "37012",
    "countryFullName": "Italy",
    "lng": 10.8502032,
    "lat": 45.4668261
  },
  {
    "slug": "moschea-di-foligno-foligno",
    "name": "بيت الله",
    "image1": "https://cdn.mawaqit.net/images/backend/mosque/79723505-9c48-4895-8d03-e6b84b97a8e1/mosque/1eea8dec-1252-67a2-a02b-066ed47a7584.jpg",
    "address": "via G Guarrella snc 5",
    "city": "Foligno",
    "zipcode": "06034",
    "countryFullName": "Italy",
    "lng": 12.6977561,
    "lat": 42.9543216
  },
  {
    "slug": "associazione-comunita-islamica-di-pace-castelfranco-veneto-resana-treviso",
    "name": "مسجد السلام",
    "image1": "https://cdn.mawaqit.net/images/backend/mosque/2eae6192-d60c-4894-8d5f-0f21a41bb2ec/mosque/1eea8dec-26f5-6524-97a2-066ed47a7584.jpg",
    "address": "Via per san Floriano, 58/c Resana,treviso",
    "city": "Castelfranco-Veneto",
    "zipcode": "31033",
    "countryFullName": "Italy",
    "lng": 11.9741159,
    "lat": 45.6839942
  },
  {
    "slug": "associazione-centro-culturale-assalama-spilimbergo",
    "name": "Associazione Centro Culturale Assalama",
    "image1": "https://cdn.mawaqit.net/images/backend/mosque/b7ecda44-2e2e-48a0-b010-822bec73ec79/mosque/1eea8dee-8ec5-6530-a54a-066ed47a7584.jpg",
    "address": "Via zona industriale sul cosa n 7",
    "city": "Spilimbergo",
    "zipcode": "33097",
    "countryFullName": "Italy",
    "lng": 12.8757371,
    "lat": 46.1055158
  },
  {
    "slug": "msjd-lkbyr-castel-san-pietro-terme",
    "name": "المسجد الكبير",
    "image1": "https://cdn.mawaqit.net/images/backend/mosque/37fa2b56-8ef4-4467-88a2-06c354462dde/mosque/1eea8def-8f6f-62b4-8edb-066ed47a7584.jpg",
    "address": "Via Evangelista Torricelli 13/ B",
    "city": "Castel-San-Pietro-Terme",
    "zipcode": "40024",
    "countryFullName": "Italy",
    "lng": 11.5818792,
    "lat": 44.4025516
  },
  {
    "slug": "c-islamico-assalam-zimella-vr",
    "name": "C.islamico assalam",
    "image1": "https://cdn.mawaqit.net/images/backend/mosque/82943ff9-e21c-4e83-b64d-aa14c8ba27a7/mosque/1eea8df0-8c76-657a-8e56-066ed47a7584.jpg",
    "address": "Via stazione 1840",
    "city": "Zimella-Vr",
    "zipcode": "37040",
    "countryFullName": "Italy",
    "lng": 11.3796548,
    "lat": 45.3275391
  },
  {
    "slug": "la-fratellanza-castel-san-pietro-terme",
    "name": "التقوى",
    "image1": "https://cdn.mawaqit.net/images/backend/mosque/82fddb96-a89a-412c-ad8d-3f943a4e2d4a/mosque/1eea8df0-fd43-6014-9bf9-066ed47a7584.jpg",
    "address": "Via archimede",
    "city": "Castel-San-Pietro-Terme",
    "zipcode": "40024",
    "countryFullName": "Italy",
    "lng": 11.5833714,
    "lat": 44.4024951
  },
  {
    "slug": "masjid-errahma-spilamberto",
    "name": "Centro culturale Errahma",
    "image1": "https://cdn.mawaqit.net/images/backend/mosque/b11e8d30-5179-4315-a0dc-7d58380cee08/mosque/1eea8df1-1673-6a7a-ba64-066ed47a7584.jpeg",
    "address": "Via Berlinguer 15/c",
    "city": "Spilamberto",
    "zipcode": "41057",
    "countryFullName": "Italy",
    "lng": 11.0195266,
    "lat": 44.5343508
  },
  {
    "slug": "msjd-slm-massa-finalese-1",
    "name": "مسجد السلام",
    "image1": "https://cdn.mawaqit.net/images/backend/mosque/41514652-3556-4f99-b036-05aaa744864d/mosque/1eea8dfa-1b5c-6862-b824-066ed47a7584.jpg",
    "address": "VIA SALDE ENTRA'  2",
    "city": "Massa-Finalese",
    "zipcode": "41035",
    "countryFullName": "Italy",
    "lng": 11.2012206,
    "lat": 44.8402443
  },
  {
    "slug": "associazione-comunita-bangladesh-la-spezia-1",
    "name": "Associazione comunità Bangladesh",
    "image1": "https://cdn.mawaqit.net/images/backend/mosque/aa21866a-b061-4273-b6ea-cab5abe699a6/mosque/1eea8dfb-d841-6ec2-a812-066ed47a7584.png",
    "address": "Via Venezia 1/3",
    "city": "La-Spezia",
    "zipcode": "19122",
    "countryFullName": "Italy",
    "lng": 9.8124888,
    "lat": 44.1083466
  },
  {
    "slug": "salam-asti",
    "name": "Essalam",
    "image1": "https://cdn.mawaqit.net/images/backend/mosque/805977f4-02ef-4b87-9267-dde5183e4782/mosque/1eea8dfc-6ec0-69ca-b811-066ed47a7584.jpeg",
    "address": "Via Francesco Gino n.7",
    "city": "Asti",
    "zipcode": "14100",
    "countryFullName": "Italy",
    "lng": 8.2064257,
    "lat": 44.9007512
  },
  {
    "slug": "centro-islamico-quingentole-quingentole",
    "name": "CENTRO ISLAMICO QUINGENTOLE",
    "image1": "https://cdn.mawaqit.net/images/backend/mosque/e9a2ecda-08ea-4ad1-be34-66ba8a762a9d/mosque/1eea8dfc-cf94-6c9c-978a-066ed47a7584.jpg",
    "address": "VIA MAZZINI 14",
    "city": "Quingentole",
    "zipcode": "46020",
    "countryFullName": "Italy",
    "lng": 11.0454078,
    "lat": 45.0414293
  },
  {
    "slug": "centro-socio-culturale-alfajr-trissino",
    "name": "centro socio culturale Alfajr",
    "image1": "https://cdn.mawaqit.net/images/backend/mosque/1e5953b4-7817-4ef6-bc1d-3c956cc9fc81/mosque/1eea8e00-014d-6862-915f-066ed47a7584.jpg",
    "address": "via del lavoro116/a",
    "city": "Trissino",
    "zipcode": "36070",
    "countryFullName": "Italy",
    "lng": 11.381459,
    "lat": 45.5525256
  },
  {
    "slug": "moschea-di-santa-sofia-fc-santa-sofia-fc",
    "name": "masjid",
    "image1": "https://cdn.mawaqit.net/images/backend/mosque/ed1807d1-2510-4498-8628-195b3fb72d25/mosque/1eea8e00-77db-6e2a-9bfd-066ed47a7584.jpg",
    "address": "via croce 4/E",
    "city": "Santa-Sofia-Fc",
    "zipcode": "47018",
    "countryFullName": "Italy",
    "lng": 11.907127417438,
    "lat": 43.946354634949
  },
  {
    "slug": "masjid-essafa-spezzano",
    "name": "مسجد السلام",
    "image1": "https://cdn.mawaqit.net/images/backend/mosque/d167efdd-1a22-4307-94fd-6cab638080c8/mosque/1eea8e00-8745-6172-a51e-066ed47a7584.jpg",
    "address": "via della chimica 42 spezzano",
    "city": "Spezzano",
    "zipcode": "41042",
    "countryFullName": "Italy",
    "lng": 10.8395232,
    "lat": 44.5405601
  },
  {
    "slug": "masjid-ravenna-48125-italy",
    "name": "مسجد RAVENNA",
    "image1": "https://cdn.mawaqit.net/images/backend/mosque/0eb6257a-12a4-451f-8a42-3972e64e7e7e/mosque/1eea8e01-dadc-638e-9537-066ed47a7584.jpg",
    "address": "Via Rossa guido, 10/12",
    "city": "Ravenna",
    "zipcode": "48123",
    "countryFullName": "Italy",
    "lng": 12.2191783,
    "lat": 44.4513282
  },
  {
    "slug": "masjid-ennour-lonato-25017-italy",
    "name": "Masjid Ennour",
    "image1": "https://cdn.mawaqit.net/images/backend/mosque/879480bb-f1ad-4679-8bb2-b9a91cbc0199/mosque/1eea8e02-9515-6df4-b2fa-066ed47a7584.jpeg",
    "address": "Via Molini 71",
    "city": "Lonato",
    "zipcode": "25017",
    "countryFullName": "Italy",
    "lng": 10.4593534,
    "lat": 45.4660508
  },
  {
    "slug": "masjid-essalam-spilamberto-mo-41057-italy",
    "name": "جمعية السلام الثقافية سبيلامبيرطو",
    "image1": "https://cdn.mawaqit.net/images/backend/mosque/e17c368d-d4f0-4d08-a95b-bbeeb709583e/mosque/1eea8e02-bf8d-60be-96f6-066ed47a7584.jpg",
    "address": "Via San Carlo 16",
    "city": "Spilamberto(mo)",
    "zipcode": "41057",
    "countryFullName": "Italy",
    "lng": 11.024883,
    "lat": 44.5335527
  },
  {
    "slug": "mosquee-ikhwa-cavarzere-30014-italy",
    "name": "جمعية الأخوة بكفارزري",
    "image1": "https://cdn.mawaqit.net/images/backend/mosque/6406deab-d880-4095-8d0d-ed7f2ba4967b/mosque/1eea8e02-cd5c-651e-98c5-066ed47a7584.jpg",
    "address": "Via Cavour 26",
    "city": "Cavarzere",
    "zipcode": "30014",
    "countryFullName": "Italy",
    "lng": 12.0858111,
    "lat": 45.1396067
  },
  {
    "slug": "msjd-hnyn-massa-lombarda-48024-italy",
    "name": "مسجد حنين",
    "image1": "https://cdn.mawaqit.net/images/backend/mosque/4e5440ce-b6ab-45bc-8dbb-d4d48818bba7/mosque/1eea8e03-cb64-69fe-a27b-066ed47a7584.jpg",
    "address": "via aurelio saffi 30",
    "city": "Massa-Lombarda-Ra",
    "zipcode": "48024",
    "countryFullName": "Italy",
    "lng": 11.8269077,
    "lat": 44.4448089
  },
  {
    "slug": "associazione-il-ponte-fiesso-dartico-30032-italy",
    "name": "associazione il ponte  جمعية الجسر",
    "image1": "https://cdn.mawaqit.net/images/backend/mosque/7f762141-13bf-4243-93d5-2036c622fecd/mosque/1eea8e04-d7b2-6b1a-ac3f-066ed47a7584.jpeg",
    "address": "via piove 3",
    "city": "Fiesso-D'artico",
    "zipcode": "30032",
    "countryFullName": "Italy",
    "lng": 12.0528416,
    "lat": 45.4175779
  },
  {
    "slug": "el-falah-vignola-41058-italy",
    "name": "EL FALAH",
    "image1": "https://cdn.mawaqit.net/images/backend/mosque/10894e58-5569-47ad-ae04-49f86e24b7ac/mosque/1eea8e06-713b-6164-8026-066ed47a7584.jpg",
    "address": "via goffredo mameli 261",
    "city": "Vignola",
    "zipcode": "41058",
    "countryFullName": "Italy",
    "lng": 11.0149577,
    "lat": 44.4914296
  },
  {
    "slug": "masjid-eliitissam-imola-40026-italy",
    "name": "مسجد الإعتصام ــ إيمولا",
    "image1": "https://cdn.mawaqit.net/images/backend/mosque/2dff0f68-bace-40db-882e-270911a760fa/mosque/1eea8e06-df47-6144-9537-066ed47a7584.JPG",
    "address": "Via A. Ercolani 24/b",
    "city": "Imola",
    "zipcode": "40026",
    "countryFullName": "Italy",
    "lng": 11.7344552,
    "lat": 44.3698475
  },
  {
    "slug": "associazione-immigranti-caneva-pn-33070-italy",
    "name": "Ass. Immigranti مسجد كانيفا",
    "image1": "https://cdn.mawaqit.net/images/backend/mosque/f4ef04c4-88df-433b-8347-d12f050e5921/mosque/1eea8e07-32d9-67b2-bd9a-066ed47a7584.jpeg",
    "address": "Via Luigi Cadorna 4/A",
    "city": "Caneva-(pn)",
    "zipcode": "33070",
    "countryFullName": "Italy",
    "lng": 12.475898265839,
    "lat": 45.984054750277
  },
  {
    "slug": "firdaus-lonigo-italy",
    "name": "firdaus",
    "image1": "https://cdn.mawaqit.net/images/backend/mosque/4d3e660d-d593-478e-8f52-ef56ea031f3d/mosque/1eea8e07-6339-6c86-a103-066ed47a7584.jpeg",
    "address": "viale vittoria 29",
    "city": "Lonigo",
    "zipcode": "36045",
    "countryFullName": "Italy",
    "lng": 11.3908652,
    "lat": 45.3928353
  },
  {
    "slug": "moschea-di-sannazzaro-de-burgondi-27039-italy",
    "name": "Moschea Sannazzaro De Burgondi",
    "image1": "https://cdn.mawaqit.net/images/backend/mosque/7416a7de-0d33-45f0-a86c-de293dae6e53/mosque/1eea8e08-2d26-69f4-aa9a-066ed47a7584.jpg",
    "address": "Via Voghera 1",
    "city": "Sannazzaro-De'-Burgondi",
    "zipcode": "27039",
    "countryFullName": "Italy",
    "lng": 8.9081269,
    "lat": 45.0967903
  },
  {
    "slug": "msjd-trynznw-trenzano-25030-italy",
    "name": "مسجد ترينزانو",
    "image1": "https://cdn.mawaqit.net/images/backend/mosque/a103d207-000f-45dc-90e3-8d1ab4018267/mosque/1eea8e09-51cf-600c-b125-066ed47a7584.jpg",
    "address": "via vittorio veneto sera 24",
    "city": "Trenzano",
    "zipcode": "25030",
    "countryFullName": "Italy",
    "lng": 10.0070405,
    "lat": 45.4771946
  },
  {
    "slug": "moschea-ferrara-ferrara-44122-italy",
    "name": "Moschea Ferrara(الجامع الكبير)",
    "image1": "https://cdn.mawaqit.net/images/backend/mosque/05b15bfa-0963-418b-9378-53238fd6c563/mosque/1eea8e09-7afd-6636-b6b6-066ed47a7584.jpg",
    "address": "Via traversagno 22/C",
    "city": "Ferrara",
    "zipcode": "44122",
    "countryFullName": "Italy",
    "lng": 11.5836387,
    "lat": 44.85265
  },
  {
    "slug": "https-mawaqit-net-it-w-associazione-culturale-islamica-vergato-vergato-40038-italy",
    "name": "Associazione culturale islamica vergato",
    "image1": "https://cdn.mawaqit.net/images/backend/mosque/8442caa4-8741-405f-bafe-6e8989722070/mosque/1eea8e09-a94b-604c-a538-066ed47a7584.jpg",
    "address": "Piazza 4 novembre n 3",
    "city": "Vergato",
    "zipcode": "40038",
    "countryFullName": "Italy",
    "lng": 11.1125875,
    "lat": 44.2810038
  },
  {
    "slug": "la-speranza-al-amal-rovello-porro-22070-italy",
    "name": "La speranza (al-amal)",
    "image1": "https://cdn.mawaqit.net/images/backend/mosque/43b7c303-eca1-493a-83c3-c16b58836a18/mosque/1eea8e09-fdc0-6726-ab3a-066ed47a7584.jpg",
    "address": "via vittorio veneto 11",
    "city": "Rovello-Porro",
    "zipcode": "22070",
    "countryFullName": "Italy",
    "lng": 9.0353701,
    "lat": 45.651373
  },
  {
    "slug": "acics-castello-di-serravalle-valsamoggia-bo-40050-italy",
    "name": "الجمعية الثقافية الإسلامية لكاستلودسرفال",
    "image1": "https://cdn.mawaqit.net/images/backend/mosque/a3482e7a-ff30-4ee9-b093-cd552ded2765/mosque/1eea8e0a-d3ad-6d7a-8a4e-066ed47a7584.jpg",
    "address": "Via Vandino 172 Loc.Castello di Serravalle Valsamoggia",
    "city": "Valsamoggia-(bo)",
    "zipcode": "40050",
    "countryFullName": "Italy",
    "lng": 11.074804269782,
    "lat": 44.443007955224
  },
  {
    "slug": "masjid-essalam-montecchio-vallefoglia-61022-italy",
    "name": "مسجد السلام",
    "image1": "https://cdn.mawaqit.net/images/backend/mosque/7204c5d4-5414-42c4-8de2-17f860bb65b5/mosque/1eea8e0b-b114-6a56-91df-066ed47a7584.jpg",
    "address": "VIA PIO LA TORRE  17/d",
    "city": "Montecchio-Vallefoglia",
    "zipcode": "61022",
    "countryFullName": "Italy",
    "lng": 12.7591235,
    "lat": 43.8536317
  },
  {
    "slug": "masjid-cles-cles-38023-italy",
    "name": "مسجد كليس   Moschea Cles",
    "image1": "https://cdn.mawaqit.net/images/backend/mosque/394da438-be43-4255-acef-c993054b87f7/mosque/1eea8e0c-d803-6300-a896-066ed47a7584.jpg",
    "address": "via F.Filzi 15/c",
    "city": "Cles",
    "zipcode": "38023",
    "countryFullName": "Italy",
    "lng": 11.0325094,
    "lat": 46.3662669
  },
  {
    "slug": "msjd-nwr-abbiategrasso-20081-italy",
    "name": "مسجد نور",
    "image1": "https://cdn.mawaqit.net/images/backend/mosque/a18ad099-3c05-4ac5-8407-73566e183c03/mosque/1eea8e0d-c883-660e-988f-066ed47a7584.jpg",
    "address": "Via Bollini 7",
    "city": "Abbiategrasso",
    "zipcode": "20081",
    "countryFullName": "Italy",
    "lng": 8.9153708,
    "lat": 45.3842176
  },
  {
    "slug": "masjifs-itihad-trecate-28069-italy",
    "name": "مسجد الإتحاد",
    "image1": "https://cdn.mawaqit.net/images/backend/mosque/b727358f-4217-4f4e-bc9c-118843dab153/mosque/1eea8e0e-785e-6efc-ae4a-066ed47a7584.jpg",
    "address": "Corso Roma, 208",
    "city": "Trecate",
    "zipcode": "28069",
    "countryFullName": "Italy",
    "lng": 8.75825,
    "lat": 45.438
  },
  {
    "slug": "masjid-essalam-nonantola-41015-italy",
    "name": "مسجد السلام",
    "image1": "https://cdn.mawaqit.net/images/backend/mosque/967847f5-debd-4dda-89cc-8e408d4ff222/mosque/1eea8e0e-9498-6ee2-adc2-066ed47a7584.jpg",
    "address": "Via Vittorio Veneto 232/234",
    "city": "Nonantola",
    "zipcode": "41015",
    "countryFullName": "Italy",
    "lng": 11.0471393,
    "lat": 44.6776599
  },
  {
    "slug": "masjid-alamal-bomporto-modena-41030-italy",
    "name": "مسجد الأمل",
    "image1": "https://cdn.mawaqit.net/images/backend/mosque/aed911b5-e221-46b7-9177-c757a6c6f5f8/mosque/1eea8e12-af4c-6f0a-ab0d-066ed47a7584.jpg",
    "address": "Via Aldo Moro 110",
    "city": "Bomporto-Modena",
    "zipcode": "41030",
    "countryFullName": "Italy",
    "lng": 11.040948629379,
    "lat": 44.741498136642
  },
  {
    "slug": "moschea-annour-di-santa-giustina-santa-giustina-bl-32035-italy",
    "name": "Moschea",
    "image1": "https://cdn.mawaqit.net/images/backend/mosque/684a1ef9-3d55-4391-8afc-b343f19f9537/mosque/1eea8e13-c01a-6e3a-bbd8-066ed47a7584.jpg",
    "address": "Piazza Maggiore 9B",
    "city": "Santa-Giustina-(bl)",
    "zipcode": "32035",
    "countryFullName": "Italy",
    "lng": 12.041746,
    "lat": 46.084303
  },
  {
    "slug": "msjd-lmhsnyn-castelvetro-di-modena-41014-italy",
    "name": "مسجد المحسنين",
    "image1": "https://cdn.mawaqit.net/images/backend/mosque/20fc5057-3166-40c7-acf7-342be4035815/mosque/1eea8e13-ce38-6d8c-89a7-066ed47a7584.jpg",
    "address": "VIA S.STATALE 11",
    "city": "Castelvetro-Di-Modena",
    "zipcode": "41014",
    "countryFullName": "Italy",
    "lng": 12.4011058,
    "lat": 44.0937484
  },
  {
    "slug": "msjd-nyts-mwnfrtw-nizza-monferrato-14049-italy",
    "name": "مسجد نيتسا مونفراطو",
    "image1": "https://cdn.mawaqit.net/images/backend/mosque/c6ea08b6-75eb-41f6-819e-d9c1922ab669/mosque/1eea8e14-e32f-6fa0-8821-066ed47a7584.jpg",
    "address": "Via Fratelli rosselli 18 Nizza Monferrato 14049",
    "city": "Nizza-Monferrato",
    "zipcode": "14049",
    "countryFullName": "Italy",
    "lng": 8.3429344872695,
    "lat": 44.77270301684
  },
  {
    "slug": "centro-di-cultura-islamica-del-fermano-campiglione-fm-63900-italy",
    "name": "مسجد كمبليوني",
    "image1": "https://cdn.mawaqit.net/images/backend/mosque/e879bd7a-973d-46f6-9212-27b53443ce5e/mosque/1eea8e15-e616-627c-b6a7-066ed47a7584.jpg",
    "address": "via Adige 12",
    "city": "Campiglione-Fm",
    "zipcode": "63900",
    "countryFullName": "Italy",
    "lng": 13.6679442,
    "lat": 43.1794082
  },
  {
    "slug": "associazione-fratellanza-marostica",
    "name": "Associazione Fratellanza",
    "image1": "https://cdn.mawaqit.net/images/backend/mosque/4bc5acee-e2f9-4f84-965a-0f81da2f197f/mosque/1eea8e16-0c29-6428-8bef-066ed47a7584.jpg",
    "address": "Via Dott. Pietro Ragazzoni 20",
    "city": "Marostica",
    "zipcode": "36063",
    "countryFullName": "Italy",
    "lng": 11.6432412,
    "lat": 45.7392407
  },
  {
    "slug": "mosquee-tawba-casalfiumanese-40020-italy",
    "name": "Mosquée tawba",
    "image1": "https://cdn.mawaqit.net/images/backend/mosque/2afc5c96-bd10-4d6a-929d-d934d7c9908d/mosque/1eea8e18-d087-69b2-843d-066ed47a7584.jpg",
    "address": "via bozzi 16",
    "city": "Casalfiumanese",
    "zipcode": "40020",
    "countryFullName": "Italy",
    "lng": 11.6263544,
    "lat": 44.2953777
  },
  {
    "slug": "masjid-safsaf-san-pietro-in-casale-bologna-40018-italy",
    "name": "مسجد الصفصاف",
    "image1": "https://cdn.mawaqit.net/images/backend/mosque/a82e8c24-f726-4d56-90f0-a53274ab35dd/mosque/1eea8e19-42b9-665c-a996-066ed47a7584.jpg",
    "address": "Via Rodolfo Morandi 30",
    "city": "San-Pietro-In-Casale-Bologna",
    "zipcode": "40018",
    "countryFullName": "Italy",
    "lng": 11.4116072,
    "lat": 44.7021301
  },
  {
    "slug": "el-amal-ostiglia-46035-italy",
    "name": "EL AMAL",
    "image1": "https://cdn.mawaqit.net/images/backend/mosque/b077262c-c4bf-47e8-8aa0-5a4a22fb653d/mosque/1eea8e19-b405-6b30-b6ad-066ed47a7584.jpg",
    "address": "VIA GIULIO ROMANO N. 4/A",
    "city": "Ostiglia",
    "zipcode": "46035",
    "countryFullName": "Italy",
    "lng": 11.1343322,
    "lat": 45.0770983
  },
  {
    "slug": "masjid-al-wahda-saluzzo-12037-italy",
    "name": "Masjid al wahda",
    "image1": "https://cdn.mawaqit.net/images/backend/mosque/2f63007e-5e15-4682-891d-85d5b5e6a425/mosque/1eea8e1a-2332-6576-9724-066ed47a7584.jpg",
    "address": "Via donaudi n49/c Saluzzo 12037 CN",
    "city": "Saluzzo",
    "zipcode": "12037",
    "countryFullName": "Italy",
    "lng": 7.4878523,
    "lat": 44.647089
  },
  {
    "slug": "moschea-di-campomarino-campomarino-86042-italy",
    "name": "Moschea di Campomarino",
    "image1": "https://cdn.mawaqit.net/images/backend/mosque/ab497b09-173e-4db0-b1c5-22f515195dbd/mosque/1eea8e1b-ae43-695c-9e7b-066ed47a7584.jpg",
    "address": "via abruzzi 15",
    "city": "Campomarino",
    "zipcode": "86042",
    "countryFullName": "Italy",
    "lng": 15.0328886,
    "lat": 41.9542913
  },
  {
    "slug": "moschea-di-voghera-voghera-27058-italy",
    "name": "Moschea di Voghera",
    "image1": "https://cdn.mawaqit.net/images/backend/mosque/65998fe2-826d-4594-be85-7b9f1af34578/mosque/1eea8e1c-fdec-63a4-a3a4-066ed47a7584.jpg",
    "address": "Via Ridondello 57",
    "city": "Voghera",
    "zipcode": "27058",
    "countryFullName": "Italy",
    "lng": 8.9826649,
    "lat": 44.9913874
  },
  {
    "slug": "moschea-abu-bakar-alba-adriatica-64011-italy",
    "name": "Moschea Abu Bakar",
    "image1": "https://cdn.mawaqit.net/images/backend/mosque/6091fc94-ddab-4874-a97a-b069cf3bf301/mosque/1eea8e1e-cf61-687a-b4f5-066ed47a7584.jpg",
    "address": "via Bafile, 57",
    "city": "Alba-Adriatica",
    "zipcode": "64011",
    "countryFullName": "Italy",
    "lng": 13.9220348,
    "lat": 42.836429
  },
  {
    "slug": "centro-islamico-di-saronno-saronno-21047-italy",
    "name": "Centro islamico di Saronno",
    "image1": "https://cdn.mawaqit.net/images/backend/mosque/da47fc30-b400-40a6-9b04-10dc056aeb3c/mosque/1eea8e1f-99c2-6772-8bcc-066ed47a7584.jpg",
    "address": "Via  Grieg  44  21047",
    "city": "Saronno",
    "zipcode": "21047",
    "countryFullName": "Italy",
    "lng": 9.0423258,
    "lat": 45.6131575
  },
  {
    "slug": "centro-islamico-della-val-tidone-borgonovo-val-tidone-29011-italy",
    "name": "Centro Islamico della Val Tidone",
    "image1": "https://cdn.mawaqit.net/images/backend/mosque/0802cf92-144e-4400-87cf-8fcd120fa08e/mosque/1eea8e1f-c0ef-685e-af7f-066ed47a7584.jpg",
    "address": "Località Cà Verde",
    "city": "Borgonovo-Val-Tidone",
    "zipcode": "29011",
    "countryFullName": "Italy",
    "lng": 9.4484146,
    "lat": 45.0355722
  },
  {
    "slug": "masjid-assalam-cinisello-balsamo-20092-italy",
    "name": "مسجد السلام",
    "image1": "https://cdn.mawaqit.net/images/backend/mosque/46cf70c4-ec11-4d73-9de5-d00293b99296/mosque/1eea8e1f-de36-64f8-b188-066ed47a7584.jpg",
    "address": "Via Matteotti 66",
    "city": "Cinisello-Balsamo",
    "zipcode": "20092",
    "countryFullName": "Italy",
    "lng": 9.2348213,
    "lat": 45.5514403
  },
  {
    "slug": "darelhadithmi",
    "name": "مسجد دار الحديث",
    "image1": "https://cdn.mawaqit.net/images/backend/mosque/77771ae3-08f1-4ccb-9f15-957f60baae7f/mosque/1eea8e1f-eb9b-65bc-b8bf-066ed47a7584.jpg",
    "address": "56 VIA GONIN",
    "city": "Milano",
    "zipcode": "20147",
    "countryFullName": "Italy",
    "lng": 9.1202671,
    "lat": 45.4420092
  },
  {
    "slug": "centro-culturale-islamico-m-s-giusto-monte-san-giusto-62015-italy",
    "name": "مسجد مونتي سان جوستو",
    "image1": "https://cdn.mawaqit.net/images/backend/mosque/e95e85f9-7707-4362-8382-21b84b3270fa/mosque/1eea8e20-4d2b-6d68-8909-066ed47a7584.jpg",
    "address": "strada macerata 86",
    "city": "Monte-San-Giusto",
    "zipcode": "62015",
    "countryFullName": "Italy",
    "lng": 13.593814325055,
    "lat": 43.235067751581
  },
  {
    "slug": "masjid-ennour-fermignano-61033-italy",
    "name": "مسجد النور FERMIGNANO",
    "image1": "https://cdn.mawaqit.net/images/backend/mosque/d7b943ce-c253-4175-ad2d-1e15f5f403cb/mosque/1eea8e21-756a-642c-8001-066ed47a7584.jpg",
    "address": "Via donizetti 99999",
    "city": "Fermignano",
    "zipcode": "61033",
    "countryFullName": "Italy",
    "lng": 12.647755,
    "lat": 43.6856019
  },
  {
    "slug": "msjd-sm-bn-by-lnjwd-milano-20161-italy",
    "name": "مسجد عاصم ابن أبي النجود",
    "image1": "https://cdn.mawaqit.net/images/backend/mosque/d49a4502-7bd2-45e3-bcc1-87b726303e1c/mosque/1eea8e24-c33b-6126-8f80-066ed47a7584.jpg",
    "address": "Via Caltagirone 3",
    "city": "Milano",
    "zipcode": "20161",
    "countryFullName": "Italy",
    "lng": 9.1736273,
    "lat": 45.5236891
  },
  {
    "slug": "el-nour-portogruaro-portogruaro-30026-italy",
    "name": "EL NOUR PORTOGRUARO",
    "image1": "https://cdn.mawaqit.net/images/backend/mosque/dd69755c-fea6-408b-a013-d2dd294dbc19/mosque/1eea8e28-4f90-6e98-a903-066ed47a7584.jpg",
    "address": "Via Bassa di Portovecchio, 5",
    "city": "Portogruaro",
    "zipcode": "30026",
    "countryFullName": "Italy",
    "lng": 12.8382036,
    "lat": 45.7875817
  },
  {
    "slug": "msjd-lrhm-zolapredosa-bo-40069-italy",
    "name": "مسجد الرحمة",
    "image1": "https://cdn.mawaqit.net/images/backend/mosque/87d87f6f-a49c-46f1-abdd-2e3e9a563260/mosque/1eea8e29-879d-6b8c-a69a-066ed47a7584.jpg",
    "address": "VIA DANTE 5/A",
    "city": "Zola-Predosa",
    "zipcode": "40069",
    "countryFullName": "Italy",
    "lng": 11.2195208,
    "lat": 44.4901152
  },
  {
    "slug": "ltdmn-conselice-48017-italy",
    "name": "جمعية التضامن",
    "image1": "https://cdn.mawaqit.net/images/backend/mosque/696c5844-864b-489c-8655-df44136335ff/mosque/1eea8e2e-029d-6770-bb8c-066ed47a7584.jpg",
    "address": "Via amendola 35/c",
    "city": "Conselice",
    "zipcode": "48017",
    "countryFullName": "Italy",
    "lng": 11.8346253,
    "lat": 44.50887
  },
  {
    "slug": "imoschea-tauba-pinerolo-msjd-ltwb-pinerolo-10064-italy",
    "name": "Moschea Tauba Pinerolo مسجد التوبة",
    "image1": "https://cdn.mawaqit.net/images/backend/mosque/2b9c670f-4e9e-4d68-90ac-b1f1358c15b8/mosque/1efd0247-cc63-6060-a63f-06bada7b305f.jpg",
    "address": "Via Filippo Juvara 32",
    "city": "Pinerolo",
    "zipcode": "10064",
    "countryFullName": "Italy",
    "lng": 7.3441688,
    "lat": 44.8838855
  },
  {
    "slug": "c-i-mediterranea-onlus-casaleone-vr-37052-italy",
    "name": "C I MEDITERRANEA ONLUS",
    "image1": "https://cdn.mawaqit.net/images/backend/mosque/78bfcdb4-0e35-4d9e-962e-74f69d454046/mosque/1eea8e31-3fb8-61ac-8407-066ed47a7584.jpg",
    "address": "VIA MENAGO 28",
    "city": "Casaleone-Vr",
    "zipcode": "37052",
    "countryFullName": "Italy",
    "lng": 11.2299268,
    "lat": 45.1492922
  },
  {
    "slug": "masjid-almal-cornuda-31041-italy",
    "name": "مسجد الأمل",
    "image1": "https://cdn.mawaqit.net/images/backend/mosque/5d1de45a-82d8-45f6-a193-dd167c5808fd/mosque/1eea8e31-c7d0-6170-b879-066ed47a7584.jpg",
    "address": "Via xxx aprile 22",
    "city": "Cornuda",
    "zipcode": "31041",
    "countryFullName": "Italy",
    "lng": 12.0040607,
    "lat": 45.8295258
  },
  {
    "slug": "anzola",
    "name": "مسجد أنزولا إيميليا",
    "image1": "https://cdn.mawaqit.net/images/backend/mosque/95371ef6-59c5-4886-9510-580dad42bc3c/mosque/1eea8e35-2e19-6a6e-817e-066ed47a7584.jpg",
    "address": "Via Achille Grandi 12",
    "city": "Anzola-Emilia",
    "zipcode": "40011",
    "countryFullName": "Italy",
    "lng": 11.1924148,
    "lat": 44.5456771
  },
  {
    "slug": "lmrkz-ltqfy-lslmy-fl-sryn-vertova-bg-24029-italy",
    "name": "المركز الثقافي الاسلامي فال سريانا",
    "image1": "https://cdn.mawaqit.net/images/backend/mosque/6a61bdf3-dc62-4948-8770-407aff4da4ff/mosque/1eea8e35-60c6-6e26-aede-066ed47a7584.jpg",
    "address": "Via canale 4",
    "city": "Vertova-(bg)",
    "zipcode": "24029",
    "countryFullName": "Italy",
    "lng": 9.8541435,
    "lat": 45.8075629
  },
  {
    "slug": "messages-id-12735",
    "name": "MOSCHEA AL-WAFAA",
    "image1": "https://cdn.mawaqit.net/images/backend/mosque/29297f5d-b328-4c5d-8684-2b88d7d778b5/mosque/1eea8e36-251d-646e-b8e2-066ed47a7584.jpg",
    "address": "Via Roma 27",
    "city": "Colorno",
    "zipcode": "43052",
    "countryFullName": "Italy",
    "lng": 10.3797969,
    "lat": 44.9302372
  },
  {
    "slug": "associazione-cheikh-ahmadou-bamba-pontevico-25026-italy",
    "name": "Associazione Cheikh Ahmadou Bamba APS",
    "image1": "https://cdn.mawaqit.net/images/backend/mosque/78df0797-3062-4bd9-9231-f344b7711ffd/mosque/1eea8e36-bb18-6004-b397-066ed47a7584.jpg",
    "address": "Via Brescia 36",
    "city": "Pontevico",
    "zipcode": "25026",
    "countryFullName": "Italy",
    "lng": 10.0955764,
    "lat": 45.2756429
  },
  {
    "slug": "associazione-culturale-essalam-cerea-37053-italy",
    "name": "Associazione culturale essalam",
    "image1": "https://cdn.mawaqit.net/images/backend/mosque/8667756a-5732-4ad9-96b9-c9964d203316/mosque/1eea8e3b-0375-6f46-adf9-066ed47a7584.jpg",
    "address": "Viale dell'artigianato, 3/A",
    "city": "Cerea",
    "zipcode": "37053",
    "countryFullName": "Italy",
    "lng": 11.2344822,
    "lat": 45.1900602
  },
  {
    "slug": "jm-y-drlslm-porto-viro-45014-italy",
    "name": "جمعية دارالسلام",
    "image1": "https://cdn.mawaqit.net/images/backend/mosque/ea62bf0b-f4e8-4793-84bd-e06c543f6e42/mosque/1eea8e3b-cdbf-66c6-bfba-066ed47a7584.jpg",
    "address": "Via risorgimento 23",
    "city": "Porto-Viro",
    "zipcode": "45014",
    "countryFullName": "Italy",
    "lng": 12.2175031,
    "lat": 45.0198871
  },
  {
    "slug": "centro-culturale-islamico-di-brescia-brescia-25125-italy",
    "name": "Centro Culturale Islamico di Brescia",
    "image1": "https://cdn.mawaqit.net/images/backend/mosque/e916ee30-80cc-4c19-9046-90744bdca759/mosque/1eea8e3e-d88c-68e4-8769-066ed47a7584.jpg",
    "address": "via corsica 361",
    "city": "Brescia",
    "zipcode": "25125",
    "countryFullName": "Italy",
    "lng": 10.193469,
    "lat": 45.520687
  },
  {
    "slug": "moschea-uguaglianza-pravisdomini-pravisdomini-33076-italy",
    "name": "UGUAGLIANZA PRAVISDOMINI",
    "image1": "https://cdn.mawaqit.net/images/backend/mosque/541bbe57-20bc-4ddc-86f2-d896e12b2b79/mosque/1eea8e41-c49f-6f22-b29a-066ed47a7584.jpg",
    "address": "Via Barco 2",
    "city": "Pravisdomini",
    "zipcode": "33076",
    "countryFullName": "Italy",
    "lng": 12.682996988297,
    "lat": 45.8121329697
  },
  {
    "slug": "associazione-culturale-della-fratellanza-milan-20142-italy",
    "name": "Centro Culturale Gratosoglio",
    "image1": "https://cdn.mawaqit.net/images/backend/mosque/b9bfd37f-4cab-4a0a-8c72-9928f688b8bb/mosque/1eea8e41-d2d9-6764-aa4a-066ed47a7584.jpg",
    "address": "Via Costantino Baroni n.190",
    "city": "Milan",
    "zipcode": "20142",
    "countryFullName": "Italy",
    "lng": 9.171781539917,
    "lat": 45.403451993343
  },
  {
    "slug": "msjd-lslm-w-lkhw-serramazzoni-41028-italy",
    "name": "مسجد السلام و الأخوة",
    "image1": "https://cdn.mawaqit.net/images/backend/mosque/53f2cb95-32cc-41e6-994a-79934a11ae3a/mosque/1eea8e42-482e-619a-b49c-066ed47a7584.jpg",
    "address": "Via Giardini Sud 1772",
    "city": "Serramazzoni",
    "zipcode": "41028",
    "countryFullName": "Italy",
    "lng": 10.7957631,
    "lat": 44.4133648
  },
  {
    "slug": "c-c-islamico-al-ummah-in-lunigiana-licciana-nardi-54016-italy",
    "name": "مسجد الأمة centro culturale Al Ummah",
    "image1": "https://cdn.mawaqit.net/images/backend/mosque/e2223446-e644-4cc5-a9dd-1b2a90901b62/mosque/1eea8e46-ead1-60ec-ad2d-066ed47a7584.jpg",
    "address": "Via nazionale cisa 8",
    "city": "Licciana-Nardi",
    "zipcode": "54016",
    "countryFullName": "Italy",
    "lng": 9.9663963,
    "lat": 44.2279536
  },
  {
    "slug": "associazione-comunita-islamica-aps-estero-41028-italy",
    "name": "مسجد بافولو - Moschea di PAVULLO N/F",
    "image1": "https://cdn.mawaqit.net/images/backend/mosque/a08cf963-d0cb-4aa0-b222-94b52605ff0a/mosque/1ef9e931-2295-62ae-a44a-0a0389a4e0f5.jpeg",
    "address": "Via Giuseppe Garibaldi n°24A",
    "city": "Estero",
    "zipcode": "41026",
    "countryFullName": "Italy",
    "lng": 10.8420949,
    "lat": 44.3263932
  },
  {
    "slug": "moschea-al-farouq-msjd-lfrwq-padova-35135-italy",
    "name": "Moschea Al Farouq مسجد الفاروق",
    "image1": "https://cdn.mawaqit.net/images/backend/mosque/147d9264-9b82-4674-8858-de284ea36ff8/mosque/1eea8e47-a4a3-65e2-a6e6-066ed47a7584.jpg",
    "address": "Corso Tre Venezie 20/40",
    "city": "Padova",
    "zipcode": "35135",
    "countryFullName": "Italy",
    "lng": 11.87112,
    "lat": 45.422604
  },
  {
    "slug": "moschea-an-nur-bergamo-24060-italy",
    "name": "Moschea Annur Rogno",
    "image1": "https://cdn.mawaqit.net/images/backend/mosque/45cdcedb-1e03-4f72-8e72-141f1496be10/mosque/1eea8e47-e845-6048-961b-066ed47a7584.jpg",
    "address": "Via santa Caterina 12 Rogno",
    "city": "Bergamo",
    "zipcode": "24060",
    "countryFullName": "Italy",
    "lng": 10.1427231,
    "lat": 45.8654518
  },
  {
    "slug": "masjid-assahaba-santa-croce-sullarno-56029-italy",
    "name": "Masjid Assahaba",
    "image1": "https://cdn.mawaqit.net/images/backend/mosque/a8d2d9c8-95c3-423a-a2c5-16b5aa681067/mosque/1eea8e48-0952-6970-864b-066ed47a7584.jpg",
    "address": "via Gastone Sozzi 10",
    "city": "Santa-Croce-Sull'arno",
    "zipcode": "56029",
    "countryFullName": "Italy",
    "lng": 10.7747546,
    "lat": 43.7161116
  },
  {
    "slug": "lmrkz-lslmy-bmylnw-w-lwmbrdy-segrate-milano-20054-italy",
    "name": "Centro Islamico di Milano e Lombardia",
    "image1": "https://cdn.mawaqit.net/images/backend/mosque/c6f2981f-a0a3-4174-831c-1cfb94663037/mosque/1eea8e49-5e60-6fec-a90c-066ed47a7584.jpg",
    "address": "Via Cassanese 3",
    "city": "Segrate--Milano",
    "zipcode": "20054",
    "countryFullName": "Italy",
    "lng": 9.2612393,
    "lat": 45.4905866
  },
  {
    "slug": "jm-y-lslm-associazione-assalam-mezzago-20883-italy",
    "name": "Associazione Assalam جمعية السلام",
    "image1": "https://cdn.mawaqit.net/images/backend/mosque/4c876739-b1ac-4d1a-aafe-cf1fbf03aff7/mosque/1eea8e4e-91e1-6c18-80ac-066ed47a7584.jpg",
    "address": "Viale delle industrie,1",
    "city": "Mezzago",
    "zipcode": "20883",
    "countryFullName": "Italy",
    "lng": 9.4415583,
    "lat": 45.6213234
  },
  {
    "slug": "msjd-qb-viareggio-55049-italy",
    "name": "مسجد قباء",
    "image1": "https://cdn.mawaqit.net/images/backend/mosque/6bbdb950-bd89-4fca-ae91-04bc0421e7cd/mosque/1eea8e4f-b0a9-61e0-b9e7-066ed47a7584.jpg",
    "address": "-  Via Libeccio, 48/B -  Bicchio",
    "city": "Viareggio",
    "zipcode": "55049",
    "countryFullName": "Italy",
    "lng": 10.273656,
    "lat": 43.861293
  },
  {
    "slug": "associazione-culturale-islamica-argenta-44011-italy",
    "name": "Moschea di Argenta",
    "image1": "https://cdn.mawaqit.net/images/backend/mosque/be637f42-c3e3-48d9-ab57-a5a6b0a224bd/mosque/1eea8e53-e705-67b2-9219-066ed47a7584.jpg",
    "address": "via natale gaiba 35 a",
    "city": "Argenta",
    "zipcode": "44011",
    "countryFullName": "Italy",
    "lng": 11.661807,
    "lat": 44.609387
  },
  {
    "slug": "al-noor-treviso-31047-italy",
    "name": "Al Noor Ponte di Piave",
    "image1": "https://cdn.mawaqit.net/images/backend/mosque/9c7bd998-8328-412a-9910-49c388b538cf/mosque/1eea8e54-7656-64fc-ae2f-066ed47a7584.jpg",
    "address": "via roma 132 ponte di piave",
    "city": "Treviso",
    "zipcode": "31047",
    "countryFullName": "Italy",
    "lng": 12.4579313,
    "lat": 45.7230441
  },
  {
    "slug": "masjid-al-wassat-bologna-40133-italy",
    "name": "MASJID  AL WASSAT",
    "image1": "https://cdn.mawaqit.net/images/backend/mosque/25f32f10-4046-4652-bd76-8dd952f3e9c5/mosque/1eea8e56-ef62-6c7c-936f-066ed47a7584.jpg",
    "address": "VIA RINALDO RIGOLA 17",
    "city": "Bologna",
    "zipcode": "40133",
    "countryFullName": "Italy",
    "lng": 11.2870956,
    "lat": 44.4952198
  },
  {
    "slug": "centre-islamique-cantu-22063-italy",
    "name": "المركز الإسلامي السلام كانتو",
    "image1": "https://cdn.mawaqit.net/images/backend/mosque/86c346dc-661d-40dc-a2a2-1855a0cff389/mosque/1eea8e58-1381-6b5c-a12b-066ed47a7584.jpg",
    "address": "Via Milano 127/D",
    "city": "Cantù",
    "zipcode": "22063",
    "countryFullName": "Italy",
    "lng": 9.1471497,
    "lat": 45.7252942
  },
  {
    "slug": "associazione-culturale-al-bayt-la-casa-felina-42035-italy",
    "name": "Associazione culturale al bayt (la casa)",
    "image1": "https://cdn.mawaqit.net/images/backend/mosque/86ad1d4d-fb6c-4822-a70e-d45b613f8b08/mosque/1eea8e58-5945-6c56-a2ed-066ed47a7584.jpg",
    "address": "via fontanesi 19 A-B",
    "city": "Felina",
    "zipcode": "42035",
    "countryFullName": "Italy",
    "lng": 10.4561318,
    "lat": 44.4523551
  },
  {
    "slug": "futuro-dei-giovani-nogara-37054-italy",
    "name": "futuro dei giovani-nogara (vr)",
    "image1": "https://cdn.mawaqit.net/images/backend/mosque/52303f24-2752-4c5a-b88d-6ff3294fea3c/mosque/1eea8e58-79cf-6a58-8794-066ed47a7584.jpg",
    "address": "via robert kennedy 23",
    "city": "Nogara",
    "zipcode": "37054",
    "countryFullName": "Italy",
    "lng": 11.0634953,
    "lat": 45.1825338
  },
  {
    "slug": "moschea-assalam-vercelli-13100-italy-1",
    "name": "مسجد السلام - Moschea Assalam",
    "image1": "https://cdn.mawaqit.net/images/backend/mosque/4b2837ae-ee41-41ee-b5e7-71888009ae91/mosque/1eea8e59-a607-6958-83f4-066ed47a7584.jpg",
    "address": "Corso Papa Giovanni Paolo II 34",
    "city": "VERCELLI",
    "zipcode": "13100",
    "countryFullName": "Italy",
    "lng": 8.4374629,
    "lat": 45.3131543
  },
  {
    "slug": "il-dialogo-bolzano-39100-italy",
    "name": "IL DIALOGO",
    "image1": "https://cdn.mawaqit.net/images/backend/mosque_default_picture.png",
    "address": "VIA NEGRELLI N5",
    "city": "Bolzano",
    "zipcode": "39100",
    "countryFullName": "Italy",
    "lng": 11.3327286,
    "lat": 46.4711019
  },
  {
    "slug": "bangladesh-per-la-pace-thiene-vicenza-36016-italy",
    "name": "Bangladesh Per La pace",
    "image1": "https://cdn.mawaqit.net/images/backend/mosque/c9f88af8-e2bd-46d2-b6bf-9fd8bd5fd728/mosque/1ef9ebbe-ede8-6c46-aa68-0671c73660c5.jpg",
    "address": "Via Massimiliano Kolbe 17/A",
    "city": "Thiene,-Vicenza",
    "zipcode": "36016",
    "countryFullName": "Italy",
    "lng": 11.4902475,
    "lat": 45.6939151
  },
  {
    "slug": "xhamia-teuhid-guastalla-guastalla-42016-italy",
    "name": "Xhamia \"Teuhid\" Guastalla",
    "image1": "https://cdn.mawaqit.net/images/backend/mosque_default_picture.png",
    "address": "via Santa Ignazio 2/b",
    "city": "Guastalla",
    "zipcode": "42016",
    "countryFullName": "Italy",
    "lng": 10.6868393,
    "lat": 44.9150053
  },
  {
    "slug": "associazione-vivere-inseime-mariano-comense-22066-italy",
    "name": "مركز التوحيد - Centro Attawhid",
    "image1": "https://cdn.mawaqit.net/images/backend/mosque/4eda7549-0abf-47e7-a967-2efcf7e85773/mosque/1eea8e5a-df51-61fe-ad37-066ed47a7584.jpg",
    "address": "Via Como 5",
    "city": "Mariano-Comense",
    "zipcode": "22066",
    "countryFullName": "Italy",
    "lng": 9.1742766,
    "lat": 45.7034732
  },
  {
    "slug": "baytun-noor-monza-20900-italy",
    "name": "BAYTUN NOOR",
    "image1": "https://cdn.mawaqit.net/images/backend/mosque/1c78f7f5-43eb-4e5c-bf8c-f130cb036b30/mosque/1eea8e5c-e84d-6e5e-8093-066ed47a7584.jpg",
    "address": "Via Torquato Tasso, 10",
    "city": "Monza",
    "zipcode": "20900",
    "countryFullName": "Italy",
    "lng": 9.2880254,
    "lat": 45.5821157
  },
  {
    "slug": "jm-y-lrhm-san-dona-di-piave-30027-italy-1",
    "name": "جمعية الرحمة",
    "image1": "https://cdn.mawaqit.net/images/backend/mosque/bca084dd-bd48-419f-8915-3da090dbe9a6/mosque/1eea8e5d-9ddd-665c-aad7-066ed47a7584.jpg",
    "address": "VIA G.LA PIRA 13",
    "city": "San-Dona-Di-Piave",
    "zipcode": "30027",
    "countryFullName": "Italy",
    "lng": 12.5414891,
    "lat": 45.6524881
  },
  {
    "slug": "assalam-bologna-40051-italy",
    "name": "السلام ALTEDO",
    "image1": "https://cdn.mawaqit.net/images/backend/mosque/c7c627cc-f24b-46d9-8008-ce0b04d213ca/mosque/1eea8e5e-c0cc-686a-a7c9-066ed47a7584.jpg",
    "address": "VIA NAZIONALE 186 MALALGERGO",
    "city": "Bologna",
    "zipcode": "40051",
    "countryFullName": "Italy",
    "lng": 11.4914964,
    "lat": 44.676454
  },
  {
    "slug": "centro-culturale-el-salam-di-bologna-bologna-40129-italy",
    "name": "Centro Culturale El Salam di Bologna.",
    "image1": "https://cdn.mawaqit.net/images/backend/mosque/66735505-622b-4e00-ab37-0e60dc176220/mosque/1eea8e60-6e0d-6348-a792-066ed47a7584.jpg",
    "address": "Via della Casa Buia, 3,",
    "city": "Bologna",
    "zipcode": "40129",
    "countryFullName": "Italy",
    "lng": 11.3508346,
    "lat": 44.5424079
  },
  {
    "slug": "moschea-nuova-generazione-jm-y-ljyl-l-modena-41124-italy",
    "name": "Nuova Generazione - مسجد الجيل الجديد",
    "image1": "https://cdn.mawaqit.net/images/backend/mosque/4f79476b-fd21-4001-a4a8-fe446413a7d5/mosque/1eea8e60-991b-6102-b7cb-066ed47a7584.jpg",
    "address": "Strada San Faustino 155/3",
    "city": "Modena",
    "zipcode": "41124",
    "countryFullName": "Italy",
    "lng": 10.9054305,
    "lat": 44.6434155
  },
  {
    "slug": "masjid-al-rayan-ferrara-msjd-lryn-ferrara-44122-italy",
    "name": "Masjid Al-Rayan Ferrara مسجد الريان",
    "image1": "https://cdn.mawaqit.net/images/backend/mosque/5eecdb4c-617d-4cf1-8790-df8c83f11a38/mosque/1eea8e61-69ed-665e-95a2-066ed47a7584.jpg",
    "address": "Via Bongiovanni 36/B",
    "city": "Ferrara",
    "zipcode": "44122",
    "countryFullName": "Italy",
    "lng": 11.5972241,
    "lat": 44.8487999
  },
  {
    "slug": "msjd-montagnana-montagnana-35044-italy",
    "name": "Associazione culturale montagnanese",
    "image1": "https://cdn.mawaqit.net/images/backend/mosque/6e1ccdac-9d99-4a1b-8030-72038cbedabf/mosque/1eea8e61-781f-66f0-abd5-066ed47a7584.jpg",
    "address": "Via sant'Antonio 60",
    "city": "Montagnana",
    "zipcode": "35044",
    "countryFullName": "Italy",
    "lng": 11.457771,
    "lat": 45.228113
  },
  {
    "slug": "associazione-islamica-di-viterbo-viterbo-01100-italy",
    "name": "Associazione Islamica di Viterbo",
    "image1": "https://cdn.mawaqit.net/images/backend/mosque/28b811a0-b946-4dbc-b998-0ddaa0d560cb/mosque/1eea8e62-2549-63f8-981f-066ed47a7584.jpg",
    "address": "Via Enrico Viventi, 106",
    "city": "Viterbo",
    "zipcode": "01100",
    "countryFullName": "Italy",
    "lng": 12.0988554,
    "lat": 42.4304621
  },
  {
    "slug": "centro-i-fiori-di-oggiona-msjd-lzhwr-oggiona-con-santo-stefano-21040-italy",
    "name": "Centro I Fiori di Oggiona - مسجد الزهور",
    "image1": "https://cdn.mawaqit.net/images/backend/mosque/1f4db577-9e5d-4e60-b8d9-b09f75c70636/mosque/1eea8e63-6ee7-6ed2-9c32-066ed47a7584.jpg",
    "address": "Via Del Laghetto,13",
    "city": "Oggiona-Con-Santo-Stefano",
    "zipcode": "21040",
    "countryFullName": "Italy",
    "lng": 8.8189885,
    "lat": 45.7081358
  },
  {
    "slug": "consiglio-islamico-di-verona-verona-37133-italy",
    "name": "Consiglio Islamico di Verona",
    "image1": "https://cdn.mawaqit.net/images/backend/mosque/4b99c0e2-5262-443c-907c-05d4f62656db/mosque/1eea8e66-8a12-6f06-963e-066ed47a7584.jpg",
    "address": "Via Bencivenga Biondani 18",
    "city": "Verona",
    "zipcode": "37133",
    "countryFullName": "Italy",
    "lng": 10.9976442,
    "lat": 45.4270383
  },
  {
    "slug": "associazione-culturale-bader-follina-31051-italy",
    "name": "ASSOCIAZIONE CULTURALE BADER",
    "image1": "https://cdn.mawaqit.net/images/backend/mosque/8dd9a502-2b12-4977-8d47-791ecf9c4ba3/mosque/1eea8e77-0e1f-6276-a965-066ed47a7584.jpg",
    "address": "VIA DEI CAVALLI N10",
    "city": "Follina",
    "zipcode": "31051",
    "countryFullName": "Italy",
    "lng": 12.1370698,
    "lat": 45.9642215
  },
  {
    "slug": "masjid-addoha-san-giorgio-di-piano-40016-italy",
    "name": "Masjid addoha",
    "image1": "https://cdn.mawaqit.net/images/backend/mosque/aa53e3db-c754-45ac-8cfc-ee10cd2f3640/mosque/1eea8e77-dbb7-68d2-bf40-066ed47a7584.jpg",
    "address": "Via Ossola 3",
    "city": "San-Giorgio-Di-Piano",
    "zipcode": "40016",
    "countryFullName": "Italy",
    "lng": 11.3649829,
    "lat": 44.6476113
  },
  {
    "slug": "al-ghofrane-bologna-40127-italy",
    "name": "Masjid Al Ghofrane - مسجد الغفران",
    "image1": "https://cdn.mawaqit.net/images/backend/mosque/ad21ec9b-561c-451a-979d-dee23ae5cd0d/mosque/1eea8e78-9bc9-63f0-b235-066ed47a7584.jpg",
    "address": "Via Giovanni Natali, 5/A-B",
    "city": "Bologna",
    "zipcode": "40127",
    "countryFullName": "Italy",
    "lng": 11.3980639,
    "lat": 44.5096817
  },
  {
    "slug": "ltwb-ferrara-44121-italy",
    "name": "التوبة",
    "image1": "https://cdn.mawaqit.net/images/backend/mosque/76b311f1-98c7-45e5-b4ec-0540a50df6a9/mosque/1eea8e7c-2bfb-639e-ab45-066ed47a7584.jpg",
    "address": "VIA DEL COMMERCIO 79",
    "city": "Ferrara",
    "zipcode": "44121",
    "countryFullName": "Italy",
    "lng": 11.6027802,
    "lat": 44.872005
  },
  {
    "slug": "moschea-alferdauss-trino-vercellese-13039-italy",
    "name": "Moschea AlFerdauss",
    "image1": "https://cdn.mawaqit.net/images/backend/mosque/a369874b-c70f-4316-ab49-eeb2e0dd8b10/mosque/1eea8e7d-ba9b-6918-9b8d-066ed47a7584.jpg",
    "address": "Via Monte Santo 9C",
    "city": "Trino-Vercellese",
    "zipcode": "13039",
    "countryFullName": "Italy",
    "lng": 8.2946707,
    "lat": 45.1891236
  },
  {
    "slug": "moschea-annour-spoleto-06049-italy",
    "name": "SPOLETO   مسجد النور",
    "image1": "https://cdn.mawaqit.net/images/backend/mosque/4f81c8f7-5f77-4636-aff3-6f8d4dfd4518/mosque/1eea8e7f-7e60-650a-9844-066ed47a7584.jpg",
    "address": "Via dei vetrai Santo chiodo n 7",
    "city": "Spoleto",
    "zipcode": "06049",
    "countryFullName": "Italy",
    "lng": 12.704916000366,
    "lat": 42.748808514825
  },
  {
    "slug": "msjd-lmdyn-lqdym-jnw-genova-16123-italy",
    "name": "MOSCHEA CENTRO STORICO GENOVA",
    "image1": "https://cdn.mawaqit.net/images/backend/mosque/07a86e84-4fed-4da5-afbe-3bccfe8c0624/mosque/1eea8e80-6b03-6c36-a91a-066ed47a7584.jpg",
    "address": "VICO DEL FORNARO 3/R",
    "city": "جنوة-Genova",
    "zipcode": "16123",
    "countryFullName": "Italy",
    "lng": 8.9309819,
    "lat": 44.4100551
  },
  {
    "slug": "masjid-empoli-empoli-50053-italy",
    "name": "Masjid Empoli",
    "image1": "https://cdn.mawaqit.net/images/backend/mosque/75c7e94d-b465-4909-8394-b8188b870483/mosque/1eea8e80-7d73-6e34-8724-066ed47a7584.jpg",
    "address": "via luigi Pirandello 36",
    "city": "Empoli",
    "zipcode": "50053",
    "countryFullName": "Italy",
    "lng": 10.9410116,
    "lat": 43.7103233
  },
  {
    "slug": "msjd-lsdq-erba-22036-italy",
    "name": "مسجد الصداقة",
    "image1": "https://cdn.mawaqit.net/images/backend/mosque/65e9b828-0ec5-4c9a-a1c8-f93f8f555efb/mosque/1eea8e81-3cb8-690c-b72f-066ed47a7584.jpg",
    "address": "Via Lecco 22",
    "city": "Erba",
    "zipcode": "22036",
    "countryFullName": "Italy",
    "lng": 9.2395926,
    "lat": 45.8097053
  },
  {
    "slug": "masjid-valenza-valenza-15048-italy",
    "name": "Masjid Valenza مسجد فالينسا",
    "image1": "https://cdn.mawaqit.net/images/backend/mosque/950ce625-d0fa-4bdf-b890-d31a7a3972fe/mosque/1eea8e82-465e-6ee2-bbb8-066ed47a7584.jpg",
    "address": "Largo anna frank 3",
    "city": "Valenza",
    "zipcode": "15048",
    "countryFullName": "Italy",
    "lng": 8.6488057,
    "lat": 45.0137613
  },
  {
    "slug": "centro-culturale-bangladesi-di-piovene-r-piovene-rocchette-36013-italy",
    "name": "Centro Culturale Bangladesi di Piovene R",
    "image1": "https://cdn.mawaqit.net/images/backend/mosque/d962e86c-cee3-49a7-a4e1-27b5c500565f/mosque/1eea8e83-2d72-69a0-a0f4-066ed47a7584.jpg",
    "address": "Via roma-12",
    "city": "Piovene-Rocchette",
    "zipcode": "36013",
    "countryFullName": "Italy",
    "lng": 11.4332665,
    "lat": 45.7639084
  },
  {
    "slug": "msjd-twrtwn-tortona-15057-italy",
    "name": "مسجد طورطونا",
    "image1": "https://cdn.mawaqit.net/images/backend/mosque/203f75ca-c784-4a03-b264-a8b3046e776e/mosque/1eea8e84-0975-6b6e-98e4-066ed47a7584.jpg",
    "address": "Via Giolitti SN",
    "city": "Tortona",
    "zipcode": "15057",
    "countryFullName": "Italy",
    "lng": 8.8723757,
    "lat": 44.9042658
  },
  {
    "slug": "msjd-lslm-castelnuovo-rangone-41051-italy",
    "name": "الجمعية الثقافية السلام",
    "image1": "https://cdn.mawaqit.net/images/backend/mosque/99fc5f14-8539-419d-9398-6049e71ba7d0/mosque/1eea8e84-1762-6222-afdd-066ed47a7584.jpg",
    "address": "Via case bruciate, 8c",
    "city": "Castelnuovo-Rangone",
    "zipcode": "41051",
    "countryFullName": "Italy",
    "lng": 10.9416734,
    "lat": 44.5519512
  },
  {
    "slug": "associazione-culturale-essalam-bondeno-44122-italy",
    "name": "Associazione culturale Essalam",
    "image1": "https://cdn.mawaqit.net/images/backend/mosque/136c99c2-9aeb-4f9f-b942-73106a6d0dd6/mosque/1eea8e86-649f-613c-8711-066ed47a7584.jpg",
    "address": "Via Carlo Goldoni 48",
    "city": "Bondeno",
    "zipcode": "44122",
    "countryFullName": "Italy",
    "lng": 11.4064073,
    "lat": 44.8885984
  },
  {
    "slug": "associazione-islamica-di-jolanda-di-savo-copparo-44034-italy",
    "name": "Ass. islamica di Jolanda di Savoia",
    "image1": "https://cdn.mawaqit.net/images/backend/mosque/67f67800-ad7e-400e-8010-6ace75a6c8b9/mosque/1eea8e86-7bec-6420-a5b3-066ed47a7584.jpg",
    "address": "Via San Carlo 150",
    "city": "Copparo",
    "zipcode": "44034",
    "countryFullName": "Italy",
    "lng": 11.9214108,
    "lat": 44.9076159
  },
  {
    "slug": "moschea-ar-rahma-di-albenga-albenga-sv-17031-italy",
    "name": "Moschea Ar-rahma",
    "image1": "https://cdn.mawaqit.net/images/backend/mosque/333070b6-16fd-43ef-b6fb-9389311aba69/mosque/1eea8e87-c91b-6bdc-a6ce-066ed47a7584.jpg",
    "address": "Reg. Bottino 1/B",
    "city": "ALBENGA",
    "zipcode": "17031",
    "countryFullName": "Italy",
    "lng": 8.1923021,
    "lat": 44.0545834
  },
  {
    "slug": "msjd-lslm-san-giovanni-valdarno-52027-italy",
    "name": "مسجد السلام سان جوفاني فالدارنو",
    "image1": "https://cdn.mawaqit.net/images/backend/mosque/51cd50ce-2088-4a8a-90c2-378812b4a47f/mosque/1eea8e8b-82eb-605a-9ecb-066ed47a7584.jpg",
    "address": "Via firenze num 50 san giovanni valdarno",
    "city": "SAN GIOVANNI VALDARNO",
    "zipcode": "52027",
    "countryFullName": "Italy",
    "lng": 11.528436765075,
    "lat": 43.57077945937
  },
  {
    "slug": "moschea-di-porretta-terme-porretta-terme-bologna-40046-italy",
    "name": "Moschea di Porretta Terme",
    "image1": "https://cdn.mawaqit.net/images/backend/mosque/9112a280-2241-45ed-b079-f257451f46fc/mosque/1eea8e8c-1e4d-6dd6-8c70-066ed47a7584.jpg",
    "address": "Via Mazzini, loc. Porretta Terme 196C",
    "city": "ALTO RENO TERME - BOLOGNA",
    "zipcode": "40046",
    "countryFullName": "Italy",
    "lng": 10.9738174,
    "lat": 44.1599403
  },
  {
    "slug": "msjd-lb-alba-12051-italy",
    "name": "مسجد ألبا",
    "image1": "https://cdn.mawaqit.net/images/backend/mosque/7eecb346-3dcf-4dba-bc14-136cbb57084b/mosque/1eea8e8e-1d6e-62e2-98c7-066ed47a7584.jpg",
    "address": "8 Via Carlo Biglino",
    "city": "ALBA",
    "zipcode": "12051",
    "countryFullName": "Italy",
    "lng": 8.0313406,
    "lat": 44.703392
  },
  {
    "slug": "moschea-an-nur-monteprandone-ap-63076-italy",
    "name": "Moschea An nur",
    "image1": "https://cdn.mawaqit.net/images/backend/mosque/b48460dd-de7f-4171-bdd5-1773cdcd9a22/mosque/1eea8e91-d551-6028-9426-066ed47a7584.jpg",
    "address": "Via G. Garibaldi, 4 Centobuchi",
    "city": "MONTEPRANDONE (AP)",
    "zipcode": "63076",
    "countryFullName": "Italy",
    "lng": 13.8567502,
    "lat": 42.8933229
  },
  {
    "slug": "msjd-kbnwry-moschea-di-capannori-lucca-55100-italy",
    "name": "مسجد كبانوري - moschea di Capannori",
    "image1": "https://cdn.mawaqit.net/images/backend/mosque/58079e4d-10c9-4074-a87a-2b67a3a8f34a/mosque/1eea8e94-16ca-628c-8de7-066ed47a7584.jpg",
    "address": "via Romana 437 Capannori",
    "city": "LUCCA",
    "zipcode": "55100",
    "countryFullName": "Italy",
    "lng": 10.5239943,
    "lat": 43.844787
  },
  {
    "slug": "moschea-dar-as-salaam-pavia-pavia-27100-italy",
    "name": "Moschea Dar As-Salaam  Pavia",
    "image1": "https://cdn.mawaqit.net/images/backend/mosque/fb2edf48-d7c8-4fa0-adab-bfbfae422793/mosque/1eea8e94-dc8d-6c44-863a-066ed47a7584.jpg",
    "address": "Via San Giovannino 4",
    "city": "PAVIA",
    "zipcode": "27100",
    "countryFullName": "Italy",
    "lng": 9.1708646,
    "lat": 45.1823975
  },
  {
    "slug": "centro-culturale-islamico-carnate-carnate-20866-italy",
    "name": "CENTRO ISLAMICO مسجد الايمان",
    "image1": "https://cdn.mawaqit.net/images/backend/mosque/aed24426-5ab2-4919-b71d-2d6030671363/mosque/1eea8e95-42c9-6d46-bcce-066ed47a7584.jpg",
    "address": "Via Dante 15",
    "city": "CARNATE",
    "zipcode": "20866",
    "countryFullName": "Italy",
    "lng": 9.3727786,
    "lat": 45.6522688
  },
  {
    "slug": "associazione-dialogo-aps-vidor-31020-italy",
    "name": "ASSOCIAZIONE DIALOGO APS",
    "image1": "https://cdn.mawaqit.net/images/backend/mosque/6f762eab-0234-44ee-864b-194eb4cf8156/mosque/1eea8e96-5309-694e-a472-066ed47a7584.jpg",
    "address": "PIAZZALE CAPITELLO 5/9",
    "city": "VIDOR",
    "zipcode": "31020",
    "countryFullName": "Italy",
    "lng": 12.0450316,
    "lat": 45.8582224
  },
  {
    "slug": "msjd-mwrtr-mortara-27036-italy",
    "name": "مسجد مورطارا",
    "image1": "https://cdn.mawaqit.net/images/backend/mosque/f8bc5d76-faca-48e6-b8dd-46762ec5169d/mosque/1eea8e97-24ca-6b0e-b1c5-066ed47a7584.jpg",
    "address": "via marianini 3",
    "city": "MORTARA",
    "zipcode": "27036",
    "countryFullName": "Italy",
    "lng": 8.731469,
    "lat": 45.2490432
  },
  {
    "slug": "msjd-lfjr-mirandola-41037-italy",
    "name": "مسجد الفجر",
    "image1": "https://cdn.mawaqit.net/images/backend/mosque/464485be-6b36-4e3d-8d2c-3cce4c99f750/mosque/1eea8e98-0c97-6072-83da-066ed47a7584.jpg",
    "address": "Via delle valli 389",
    "city": "TRE GOBBI",
    "zipcode": "41037",
    "countryFullName": "Italy",
    "lng": 11.202629,
    "lat": 44.9304956
  },
  {
    "slug": "msjdflkwnk-valconca-san-clemente-san-clemente-rimini-47832-italy",
    "name": "مسجد فلكونكا",
    "image1": "https://cdn.mawaqit.net/images/backend/mosque/574f7ce0-115b-4237-b827-c3fc0c8d25e3/mosque/1eea8e98-2a2a-6e36-a010-066ed47a7584.jpg",
    "address": "VIA FAGNANO 124",
    "city": "SAN CLEMENTE RIMINI",
    "zipcode": "47832",
    "countryFullName": "Italy",
    "lng": 12.663239,
    "lat": 43.938308
  },
  {
    "slug": "ass-centro-islamico-santangelo-in-vado-santangelo-in-vado-61048-italy",
    "name": "ASS.CENTRO ISLAMICO SANT'ANGELO IN VADO",
    "image1": "https://cdn.mawaqit.net/images/backend/mosque/94212004-b353-4c1c-88f8-12c1e5f22d45/mosque/1eea8e99-a4db-6544-af8b-066ed47a7584.jpg",
    "address": "VIA MAREMMA 8",
    "city": "SANT'ANGELO IN VADO",
    "zipcode": "61048",
    "countryFullName": "Italy",
    "lng": 12.4119222,
    "lat": 43.664853
  },
  {
    "slug": "masjid-al-ittihad-venezia-30171-italy",
    "name": "MASJID AL ITTIHAD",
    "image1": "https://cdn.mawaqit.net/images/backend/mosque/67134a53-434d-481f-9199-b093fba44aff/mosque/1eea8e9b-45b2-6fde-8b13-066ed47a7584.jpg",
    "address": "Via Piave 17",
    "city": "VENEZIA",
    "zipcode": "30171",
    "countryFullName": "Italy",
    "lng": 12.2352815,
    "lat": 45.4905147
  },
  {
    "slug": "moschea-al-falah-montegiorgio-fm-63833-italy",
    "name": "moschea Al Falah",
    "image1": "https://cdn.mawaqit.net/images/backend/mosque/43b72cc1-7224-48ea-a568-a24076fbb4d8/mosque/1eea8e9d-b5da-6990-85f5-066ed47a7584.jpg",
    "address": "via ospedale Diotallevi 13",
    "city": "MONTEGIORGIO (FM)",
    "zipcode": "63833",
    "countryFullName": "Italy",
    "lng": 13.5390557,
    "lat": 43.133802
  },
  {
    "slug": "u-c-i-v-unione-comunita-islamica-valte-sondrio-23100-italy",
    "name": "U.C.I.V. Unione Comunita' Islamica Valte",
    "image1": "https://cdn.mawaqit.net/images/backend/mosque/948d729c-55c3-4dfa-8ba5-d4cef0133c83/mosque/1eea8e9f-0668-6a46-9096-066ed47a7584.jpg",
    "address": "Tremogge 21",
    "city": "SONDRIO",
    "zipcode": "23100",
    "countryFullName": "Italy",
    "lng": 9.85082,
    "lat": 46.2654872
  },
  {
    "slug": "associazione-culturale-rahma-padova-35129-italy",
    "name": "Associazione culturale rahma",
    "image1": "https://cdn.mawaqit.net/images/backend/mosque/0ea427c3-efd4-4dd9-a7d8-a894d01386fb/mosque/1eea8ea1-b169-6e20-a705-066ed47a7584.jpg",
    "address": "Via dell'ippodromo 12",
    "city": "PADOVA",
    "zipcode": "35129",
    "countryFullName": "Italy",
    "lng": 11.9267919,
    "lat": 45.4242637
  },
  {
    "slug": "associazione-culturale-la-pace-ormelle-31024-italy",
    "name": "مسجد السلام",
    "image1": "https://cdn.mawaqit.net/images/backend/mosque/1cf9c468-1d60-492a-ba85-092fa5c7e7e6/mosque/1eea8ea3-6cf2-61e6-ab00-066ed47a7584.jpg",
    "address": "via Dante Alighieri 20",
    "city": "ORMELLE",
    "zipcode": "31024",
    "countryFullName": "Italy",
    "lng": 12.4096678,
    "lat": 45.7574592
  },
  {
    "slug": "associazione-badia-polesine-badia-polesine-45021-italy",
    "name": "NAJAH",
    "image1": "https://cdn.mawaqit.net/images/backend/mosque/ea4860f1-da30-496b-854e-fc9b5515711e/mosque/1ef8eb4c-69e9-6576-9792-0671c73660c5.jpeg",
    "address": "Via Fratelli Rosselli n. 169",
    "city": "BADIA POLESINE",
    "zipcode": "45021",
    "countryFullName": "Italy",
    "lng": 11.4930528,
    "lat": 45.092988
  },
  {
    "slug": "associazione-culturale-al-madina-abano-terme-35031-italy",
    "name": "Associazione culturale al madina",
    "image1": "https://cdn.mawaqit.net/images/backend/mosque/966f2284-2df1-408c-8261-30baa7997b85/mosque/1eea8ea7-2a0b-6e5a-bcc9-066ed47a7584.jpg",
    "address": "Piazza mercato 16",
    "city": "ABANO TERME",
    "zipcode": "35031",
    "countryFullName": "Italy",
    "lng": 11.7870637,
    "lat": 45.3603615
  },
  {
    "slug": "centro-culturale-al-ghufran-villafranca-di-bagnone-54028-italy",
    "name": "Centro culturale Al Ghufran مسجد الغفران",
    "image1": "https://cdn.mawaqit.net/images/backend/mosque/33036e6b-f722-41c2-a8e9-3965b414aa1b/mosque/1eea8ea7-8d95-6ac0-9645-066ed47a7584.jpg",
    "address": "Via Roma 28",
    "city": "VILLAFRANCA DI BAGNONE",
    "zipcode": "54028",
    "countryFullName": "Italy",
    "lng": 10.8474267,
    "lat": 45.3552546
  },
  {
    "slug": "msjd-lkhyr-camposanto-41031-italy",
    "name": "مسجد الخير",
    "image1": "https://cdn.mawaqit.net/images/backend/mosque/555f9507-c7bc-4a61-88fd-f5f55c78b0b5/mosque/1eea8ea8-94d9-64b6-bd3a-066ed47a7584.jpg",
    "address": "Via giannone n21",
    "city": "CAMPOSANTO",
    "zipcode": "41031",
    "countryFullName": "Italy",
    "lng": 11.1369504,
    "lat": 44.7902218
  },
  {
    "slug": "msjd-lsn-masjid-alsonnah-monsummano-terme-51015-italy",
    "name": "Masjid alsonnah Monsummano",
    "image1": "https://cdn.mawaqit.net/images/backend/mosque/2eab6bcf-b773-4c19-a902-6e753aad0061/mosque/1eea8ead-9437-6bac-a806-066ed47a7584.jpg",
    "address": "Via del catano 272l",
    "city": "MONSUMMANO TERME",
    "zipcode": "51015",
    "countryFullName": "Italy",
    "lng": 10.809013,
    "lat": 43.866116
  },
  {
    "slug": "moschea-dellisolotto-firenze-50124-italy",
    "name": "moschea dell'isolotto",
    "image1": "https://cdn.mawaqit.net/images/backend/mosque/9fb2995d-1650-4585-be57-a7a49515fca3/mosque/1eea8ead-f4a1-6c0e-bbcd-066ed47a7584.jpg",
    "address": "via della casella 1",
    "city": "FIRENZE",
    "zipcode": "50124",
    "countryFullName": "Italy",
    "lng": 11.1921976,
    "lat": 43.7686816
  },
  {
    "slug": "lmrkz-ltqfy-lslmy-krmskw-crema-26013-italy",
    "name": "المركز الثقافي الإسلامي كريماسكو",
    "image1": "https://cdn.mawaqit.net/images/backend/mosque/8a7b2ca4-656b-4f82-8431-bc6fb97b7c75/mosque/1eea8eae-4423-6264-91d5-066ed47a7584.jpg",
    "address": "Via Carlo Rossignoli 37",
    "city": "CREMA",
    "zipcode": "26013",
    "countryFullName": "Italy",
    "lng": 9.6537808,
    "lat": 45.3587064
  },
  {
    "slug": "centro-culturale-islamico-dogaro-san-felice-sul-panaro-41038-italy",
    "name": "Centro Culturale Islamico Dogaro",
    "image1": "https://cdn.mawaqit.net/images/backend/mosque/234f92c9-14cc-4d90-a461-8010feee3d47/mosque/1eea8eb0-0a30-6fd2-84a6-066ed47a7584.jpg",
    "address": "Via dogaro 4097",
    "city": "SAN FELICE SUL PANARO",
    "zipcode": "41038",
    "countryFullName": "Italy",
    "lng": 11.1859844,
    "lat": 44.8081764
  },
  {
    "slug": "msjd-lkhw-poggio-renatico-44028-italy",
    "name": "مسجد الأخوة",
    "image1": "https://cdn.mawaqit.net/images/backend/mosque/706e5782-c887-4995-8400-600a5f7374aa/mosque/1eea8eb0-f117-6d10-ae72-066ed47a7584.jpg",
    "address": "Via uccellino 118",
    "city": "POGGIO RENATICO",
    "zipcode": "44028",
    "countryFullName": "Italy",
    "lng": 11.497186,
    "lat": 44.7672707
  },
  {
    "slug": "moschea-la-citta-msjd-lmdyn-lecco-23900-italy",
    "name": "MOSCHEA LA CITTÀ  - مسجد المدينة",
    "image1": "https://cdn.mawaqit.net/images/backend/mosque/79134bec-e841-4e59-9ba6-04ef8107c569/mosque/1eea8eb4-b470-6fb6-893a-066ed47a7584.jpg",
    "address": "Corso Promessi Sposi, 23u",
    "city": "LECCO",
    "zipcode": "23900",
    "countryFullName": "Italy",
    "lng": 9.4042794406414,
    "lat": 45.856707537228
  },
  {
    "slug": "associazione-culturale-la-conversione-arzignano-36071-italy",
    "name": "Associazione culturale is.La conversione",
    "image1": "https://cdn.mawaqit.net/images/backend/mosque/243d279a-a6a9-442e-be0c-547afa89b425/mosque/1eea8ebb-46ee-6946-90cf-066ed47a7584.jpg",
    "address": "Via Antonio pellizzari 47",
    "city": "ARZIGNANO",
    "zipcode": "36071",
    "countryFullName": "Italy",
    "lng": 11.3409383,
    "lat": 45.518562
  },
  {
    "slug": "mosc-di-vigevano-msjd-lmdyn-fydjyfnw-vigevano-27029-italy",
    "name": "مسجد مدينة فيدجيفانو",
    "image1": "https://cdn.mawaqit.net/images/backend/mosque/ad868536-59b8-4079-ba20-e23afb4598b9/mosque/1eea8ebf-16a4-6070-9b0c-066ed47a7584.jpg",
    "address": "Via Rovereto n5",
    "city": "VIGEVANO",
    "zipcode": "27029",
    "countryFullName": "Italy",
    "lng": 8.8866,
    "lat": 45.289
  },
  {
    "slug": "moschea-mohammed-vi-di-torino-torino-10127-italy",
    "name": "Moschea Mohammed VI di Torino",
    "image1": "https://cdn.mawaqit.net/images/backend/mosque/fd46a87c-a1ab-4fc5-b0c6-c6f9eba30d3a/mosque/1eea8ebf-dea0-61a0-af97-066ed47a7584.jpg",
    "address": "Via Genova 268",
    "city": "TORINO",
    "zipcode": "10127",
    "countryFullName": "Italy",
    "lng": 7.6629272,
    "lat": 45.0166992
  },
  {
    "slug": "ass-culturale-islamica-la-misericordia-verona-37015-italy",
    "name": "مسجد الرحمة  دوميليارا",
    "image1": "https://cdn.mawaqit.net/images/backend/mosque/55f4f552-214c-4963-867a-1491207237f2/mosque/1eea8ebf-eb99-6fa0-b0a8-066ed47a7584.jpg",
    "address": "via armando Diaz 4 Sant'Ambrogio di Valpolicella",
    "city": "VERONA",
    "zipcode": "37015",
    "countryFullName": "Italy",
    "lng": 10.8171028,
    "lat": 45.5243567
  },
  {
    "slug": "moschea-annur-bologna-40138-italy",
    "name": "MOSCHEA ANNUR",
    "image1": "https://cdn.mawaqit.net/images/backend/mosque/c9eb737e-3ebe-45c4-b5d2-056b4f9870cf/mosque/1eea8ec0-71a8-66c8-987e-066ed47a7584.jpg",
    "address": "VIA PALLAVICINI 13",
    "city": "BOLOGNA",
    "zipcode": "40138",
    "countryFullName": "Italy",
    "lng": 11.4024705,
    "lat": 44.4905805
  },
  {
    "slug": "msjd-bwdjwrwskw-poggio-rusco-46025-italy",
    "name": "مسجد بودجوروسكو",
    "image1": "https://cdn.mawaqit.net/images/backend/mosque/cc0e9cae-279a-48a4-8c8d-853758031693/mosque/1eea8ec2-3246-6d7a-bc49-066ed47a7584.jpg",
    "address": "via Marconi 110",
    "city": "POGGIO RUSCO",
    "zipcode": "46025",
    "countryFullName": "Italy",
    "lng": 11.13819,
    "lat": 44.97608
  },
  {
    "slug": "churga-aziz-renate-20383-italy",
    "name": "جمعية السلام ريناطي",
    "image1": "https://cdn.mawaqit.net/images/backend/mosque/5f1d6e1a-1545-405f-8c9d-cf0a5a8b2eb3/mosque/1eea8ec4-77f2-628c-bcf6-066ed47a7584.jpg",
    "address": "Via Roma 16",
    "city": "RENATE",
    "zipcode": "20383",
    "countryFullName": "Italy",
    "lng": 8.9197313,
    "lat": 39.4246487
  },
  {
    "slug": "associazione-nouva-alba-brescia-25080-italy",
    "name": "Nuova alba",
    "image1": "https://cdn.mawaqit.net/images/backend/mosque/7ee72987-9bd1-4b9f-804f-b7bfe359a7cf/mosque/1eea8ec4-f057-6da8-86ad-066ed47a7584.jpg",
    "address": "Via abate 4, nouvolento",
    "city": "BRESCIA",
    "zipcode": "25080",
    "countryFullName": "Italy",
    "lng": 10.392657,
    "lat": 45.5463409
  },