[
  {
    "slug": "12474",
    "name": "مسجد الجامعة الأردنية",
    "image1": "https://cdn.mawaqit.net/images/backend/mosque/05f7fead-685a-46db-93ee-a728ed15e14a/mosque/1efee68b-1e1e-6106-acdf-0a7d06691847.png",
    "address": "الجبيهة، إشارات الجامعة",
    "city": "عمان",
    "zipcode": "11941",
    "countryFullName": "Jordan",
    "lng": 35.865815,
    "lat": 32.0184867
  },
  {
    "slug": "masjid-nour-hnaya-tlmecen-13009-algeria",
    "name": "مسجد الملك حسين - رحمه الله -",
    "image1": "https://cdn.mawaqit.net/images/backend/mosque/d601eb04-a636-4020-895f-cbddf1383489/mosque/1efee6a3-4a05-6752-be63-0a7d06691847.png",
    "address": "دابوق",
    "city": "عمان",
    "zipcode": "11822",
    "countryFullName": "Jordan",
    "lng": 35.806491,
    "lat": 31.9891204
  },
  {
    "slug": "masjid-abu-bakr-al-siddiq-al-rawdah-18110-south-shouneh-jordan",
    "name": "مواقيت",
    "image1": "https://cdn.mawaqit.net/images/backend/mosque/90535682-5203-4ad3-8314-2f045e8e0218/mosque/1efd598f-5068-69ac-929a-06bada7b305f.jpeg",
    "address": "منطقة الروضة",
    "city": "الشونة الجنوبية",
    "zipcode": "18110",
    "countryFullName": "Jordan",
    "lng": 35.659271478653,
    "lat": 31.831630564051
  },
  {
    "slug": "masjid-al-ataa-al-mubarak-hay-al-sahabah-amman-jordan",
    "name": "مسجد العطاء المبارك",
    "image1": "https://cdn.mawaqit.net/images/backend/mosque/48cf5bba-7dd2-43cb-bab3-51a5bcb57062/mosque/1efa7271-02bc-66ca-8e55-0e9d077f5bb1.png",
    "address": "ش. جويبر العتيبي، حي الصحابة",
    "city": "عمان",
    "zipcode": "NA",
    "countryFullName": "Jordan",
    "lng": 35.874781608582,
    "lat": 31.9055414559
  },
  {
    "slug": "msjd-yd-llwzy-mwn-11311-jordan-1",
    "name": "مسجد عايد اللوزي",
    "image1": "https://cdn.mawaqit.net/images/backend/mosque/bf053d8b-6f1a-4eab-89c4-cd4b3a9d22b8/mosque/1eea8e55-e95c-6db0-a964-066ed47a7584.jpg",
    "address": "الجبيهة - شارع أمين الخولي",
    "city": "عمّان",
    "zipcode": "11311",
    "countryFullName": "Jordan",
    "lng": 35.864310264587,
    "lat": 32.033664406262
  },
  {
    "slug": "masjid-khadija-amman-11623-jordan",
    "name": "مسجد السيّدة خديجة رضي الله عنها",
    "image1": "https://cdn.mawaqit.net/images/backend/mosque/68581e92-48a4-4ea3-84d1-5919cc5f8c04/mosque/1eea8e85-6c9b-6cce-a299-066ed47a7584.jpg",
    "address": "46, Loqman St, Almuqabalayn",
    "city": "عمان",
    "zipcode": "11623",
    "countryFullName": "Jordan",
    "lng": 35.914751887321,
    "lat": 31.903016247755
  },
  {
    "slug": "masjid-bilal-shafa-badran-11934-amman-jordan",
    "name": "مسجد بلال",
    "image1": "https://cdn.mawaqit.net/images/backend/mosque/962f3c13-86b3-40d1-af31-3430a96b5d6c/mosque/1ef85816-8ba8-6938-a32b-0affcb0701ab.png",
    "address": "شفا بدران مقابل الكلية البحرية",
    "city": "عمّان",
    "zipcode": "11934",
    "countryFullName": "Jordan",
    "lng": 35.891383141279,
    "lat": 32.060353869266
  },
  {
    "slug": "abacassamovali-satar-odivelas-2675-615-portugal",
    "name": "مسجد عائشة الكبير - المنصورة",
    "image1": "https://cdn.mawaqit.net/images/backend/mosque/4c55a975-9d6c-4929-9c39-c31d005b37ed/mosque/1efbe862-1060-625a-985c-0ef2881d9837.jpeg",
    "address": "قرية المنصورة",
    "city": "ناعور",
    "zipcode": "11710",
    "countryFullName": "Jordan",
    "lng": 35.8201997,
    "lat": 31.8706344
  },
  {
    "slug": "masjid-al-hajj-shahada-ali-abu-zma-amman-00560-jordan-4o",
    "name": "مسجد الحاج شحادة أبو زمع",
    "image1": "https://cdn.mawaqit.net/images/backend/mosque/0b8cf34e-1dd9-473c-995b-f8188a7ee36b/mosque/1f00a43e-15c6-6fae-9147-0e61b0058d45.jpeg",
    "address": "شارع رابعة العدوية، حي نزال",
    "city": "عمان",
    "zipcode": "11143",
    "countryFullName": "Jordan",
    "lng": 35.906522870064,
    "lat": 31.920179011518
  },
  {
    "slug": "ali-bn-abi-talib-lbir-oum-lfahm-300310-palestinian-territories",
    "name": "مسجد الأبرار - المقابلين",
    "image1": "https://cdn.mawaqit.net/images/backend/mosque/95acd26d-35c9-4a6b-b258-d90d270664b3/mosque/1efb3c12-8e54-6a6e-8460-065b15099ccb.png",
    "address": "المقابلين، شارع عائشة التيمورية",
    "city": "عمان",
    "zipcode": "300310",
    "countryFullName": "Jordan",
    "lng": 35.9123192,
    "lat": 31.9050481
  },
  {
    "slug": "masjid-altalhouni-amman-11121-jordan",
    "name": "مسجد التلهوني",
    "image1": "https://cdn.mawaqit.net/images/backend/mosque/f8528a9c-f39a-44d1-ba3d-0abe931d6f0c/mosque/1efc2b6f-24a7-60e2-b274-0a21b15e7a1f.png",
    "address": "جبل الحسين، شارع صلاح الدين",
    "city": "عمان",
    "zipcode": "11121",
    "countryFullName": "Jordan",
    "lng": 35.932078957558,
    "lat": 31.954813539595
  },
  {
    "slug": "masjid-jubran-amman-11941-jordan",
    "name": "مسجد جبران",
    "image1": "https://cdn.mawaqit.net/images/backend/mosque/e319ad51-48c0-418a-b64b-6b10b16c37a1/mosque/1efc9915-3153-6016-94f6-0e61b0058d45.png",
    "address": "الجبيهة أم زويتنه شارع بسام نويران",
    "city": "عمان",
    "zipcode": "11941",
    "countryFullName": "Jordan",
    "lng": 35.884893536568,
    "lat": 32.03459211471
  },
  {
    "slug": "masjid-almuqarrabin-amman-11593-jordan",
    "name": "مسجد المقربين",
    "image1": "https://cdn.mawaqit.net/images/backend/mosque/2c8c5b34-e0bd-40c7-8138-0e592c7bd36d/mosque/1efc7f68-f285-6520-8b23-0a21b15e7a1f.jpeg",
    "address": "شارع صفوان ابن عسال، حي النهارية، القويسمة",
    "city": "عمان",
    "zipcode": "11593",
    "countryFullName": "Jordan",
    "lng": 35.950226783752,
    "lat": 31.933375631816
  },
  {
    "slug": "masjid-asma-bint-abi-bakr-al-zarqa-13600-jordan",
    "name": "مسجد أسماء بنت أبي بكر الصديق",
    "image1": "https://cdn.mawaqit.net/images/backend/mosque/fc28f975-e2a8-491e-b870-c15362691e2a/mosque/1efb585f-8ff5-6274-a996-069dbb1b261f.jpeg",
    "address": "قريب دوار معصوم، بجانب ملعب البتراء",
    "city": "الزرقاء",
    "zipcode": "13600",
    "countryFullName": "Jordan",
    "lng": 36.072991490364,
    "lat": 32.077201995506
  },
  {
    "slug": "masjid-kulliyat-aldawah-osoul-aldin-amman-11947-jordan",
    "name": "مسجد كلية الدعوة وأصول الدين",
    "image1": "https://cdn.mawaqit.net/images/backend/mosque/14df64ef-5204-4dd1-92fc-37c478f11476/mosque/1efce8cb-d04c-655e-a154-0a21b15e7a1f.png",
    "address": "طبربور، شارع أزهار، بجانب جامعة العلوم الإسلامية",
    "city": "عمان",
    "zipcode": "11947",
    "countryFullName": "Jordan",
    "lng": 35.935882329941,
    "lat": 32.011269220071
  },
  {
    "slug": "masjid-almuhtadin-amman-11937-jordan",
    "name": "مسجد المهتدين",
    "image1": "https://cdn.mawaqit.net/images/backend/mosque/37577e84-62c3-4f24-b854-28985809c3f4/mosque/1efdf407-078a-6b78-98c1-0ac178b258e1.jpeg",
    "address": "شارع قرية أبو نصير، بالقرب من مصنع الداش للكيماويات",
    "city": "عمان",
    "zipcode": "11937",
    "countryFullName": "Jordan",
    "lng": 35.854375362396,
    "lat": 32.080192852692
  },
  {
    "slug": "masjid-muawiyah-bin-abi-sufyan-amman-11171-jordan",
    "name": "مسجد معاوية بن أبي سفيان",
    "image1": "https://cdn.mawaqit.net/images/backend/mosque/3a2c5de0-4559-468e-bd54-ccf077cd35a1/mosque/1eff68c5-c3b4-6914-a6d2-0e61b0058d45.jpeg",
    "address": "حي نزال مثلث لفنا المدارس",
    "city": "عمان",
    "zipcode": "11171",
    "countryFullName": "Jordan",
    "lng": 35.918700098991,
    "lat": 31.935995608278
  },
  {
    "slug": "masjid-usayd-bin-hudayr-sakib-26710-jerash-jordan",
    "name": "مسجد أسيد بن حضير",
    "image1": "https://cdn.mawaqit.net/images/backend/mosque/ca5312ee-df14-4643-bab8-dd8208898fc7/mosque/1efde4f4-48ad-6f1e-b857-0ac178b258e1.png",
    "address": "ساكب",
    "city": "جرش",
    "zipcode": "26710",
    "countryFullName": "Jordan",
    "lng": 35.817242860794,
    "lat": 32.284103214404
  },
  {
    "slug": "masjid-abu-bakr-siddiq-sakib-26710-jerash-jordan",
    "name": "مسجد أبو بكر الصديق",
    "image1": "https://cdn.mawaqit.net/images/backend/mosque/3a82e2ee-3fc4-486d-a3ad-ad6c7006a762/mosque/1efd8d47-6f1d-6014-8268-0e61b0058d45.png",
    "address": "منطقة ساكب، جرش",
    "city": "ساكب",
    "zipcode": "26710",
    "countryFullName": "Jordan",
    "lng": 35.809040665627,
    "lat": 32.281193879949
  },
  {
    "slug": "masjid-almumin-billah-deir-alla-18210-jordan",
    "name": "مسجد المؤمن بالله",
    "image1": "https://cdn.mawaqit.net/images/backend/mosque/99519e14-4c55-4395-8ce3-767581f7b7fa/mosque/1efdb24b-5749-66da-bde6-0ac178b258e1.png",
    "address": "طريق الغور الأردني",
    "city": "دير علا",
    "zipcode": "18210",
    "countryFullName": "Jordan",
    "lng": 35.604472607374,
    "lat": 32.127797023465
  },
  {
    "slug": "masjid-ash-sheikh-ayesh-al-huwayyan-sharq-al-qader-billah-11954-amman-jordan",
    "name": "مسجد الشيخ عايش الحويان",
    "image1": "https://cdn.mawaqit.net/images/backend/mosque/1c2b52de-4d5d-45ce-8cce-85a9245947e3/mosque/1efd1a02-6c59-61ec-af8a-06bada7b305f.png",
    "address": "شارع القادر بالله، المقابلين",
    "city": "عمان",
    "zipcode": "11954",
    "countryFullName": "Jordan",
    "lng": 35.929691791534,
    "lat": 31.898145519854
  },
  {
    "slug": "masjid-um-abahra-al-kabeer-marj-al-hamam-11732-amman-jordan",
    "name": "مسجد أم عبهرة الكبير",
    "image1": "https://cdn.mawaqit.net/images/backend/mosque/2d34905f-e5a6-4e2a-91dd-8aa3f85969e4/mosque/1f034f09-9a6a-6fc6-9fa5-066842e15bfb.png",
    "address": "مرج الحمام",
    "city": "عمان",
    "zipcode": "11732",
    "countryFullName": "Jordan",
    "lng": 35.829119682312,
    "lat": 31.914066083206
  },
  {
    "slug": "masjid-al-aal-al-kabeer-naour-11710-jordan",
    "name": "مسجد العال الكبير",
    "image1": "https://cdn.mawaqit.net/images/backend/mosque/4dfe95e9-d59e-4ce4-b22a-e435799211a2/mosque/1efda100-3944-6894-9030-0ac178b258e1.jpeg",
    "address": "منطقة العال",
    "city": "ناعور",
    "zipcode": "11710",
    "countryFullName": "Jordan",
    "lng": 35.833947658539,
    "lat": 31.81839201208
  },
  {
    "slug": "masjid-mishal-al-shallan-jameel-taher-al-mansour-11941-amman-jordan",
    "name": "مسجد مشعل الشعلان",
    "image1": "https://cdn.mawaqit.net/images/backend/mosque/1f5aec5b-1597-4ada-8cf7-c0649e1603bd/mosque/1efda807-c01b-6148-8d62-06bada7b305f.jpg",
    "address": "شاع جميل طاهر، حي المنصور",
    "city": "عمان",
    "zipcode": "11941",
    "countryFullName": "Jordan",
    "lng": 35.910787582397,
    "lat": 32.017209662767
  },
  {
    "slug": "masjid-al-markaz-al-islami-al-roda-3901-al-shouna-al-janobiya-jordan",
    "name": "مسجد المركز الإسلامي - الروضة",
    "image1": "https://cdn.mawaqit.net/images/backend/mosque/1e250b75-185d-445d-a106-2b541e278473/mosque/1efdf1a4-070b-609a-b232-0ac178b258e1.png",
    "address": "الروضة",
    "city": "الشونة الجنوبية",
    "zipcode": "3901",
    "countryFullName": "Jordan",
    "lng": 35.662924647331,
    "lat": 31.83170120711
  },
  {
    "slug": "masjid-abu-bakr-al-siddiq-dahiyat-al-istiklal-11937-amman-jordan",
    "name": "مسجد أبو بكر الصديق",
    "image1": "https://cdn.mawaqit.net/images/backend/mosque/07ad6e6f-348f-478a-af04-7606a1224ebb/mosque/1efddb61-5948-6e1a-946e-063aa5df5c67.png",
    "address": "ضاحية الاستقلال",
    "city": "عمان",
    "zipcode": "11937",
    "countryFullName": "Jordan",
    "lng": 35.938457250595,
    "lat": 31.973859696415
  },
  {
    "slug": "masjid-abdulkarim-al-ayed-naur-11710-amman-jordan",
    "name": "مسجد عبدالكريم العايد",
    "image1": "https://cdn.mawaqit.net/images/backend/mosque/25dd50b4-063d-4fb9-89a2-75e22f3de0ad/mosque/1efe09bf-81dc-6bce-b3bd-0ac178b258e1.png",
    "address": "ناعور",
    "city": "عمان",
    "zipcode": "11710",
    "countryFullName": "Jordan",
    "lng": 35.842380523682,
    "lat": 31.848016026228
  },
  {
    "slug": "masjid-al-firdaws-marka-al-janubiya-11134-amman-jordan",
    "name": "مسجد الفردوس",
    "image1": "https://cdn.mawaqit.net/images/backend/mosque/913dcad5-6d51-4a37-9e4b-3d107052d585/mosque/1efea8a0-26b6-6bf2-9e50-06ef9144e88f.jpeg",
    "address": "ماركا الجنوبية",
    "city": "عمان",
    "zipcode": "11134",
    "countryFullName": "Jordan",
    "lng": 35.981469154358,
    "lat": 31.956823015897
  },
  {
    "slug": "masjid-diyar-al-islam-royat-al-ameer-rashed-71846-maan-jordan",
    "name": "مسجد ديار الإسلام",
    "image1": "https://cdn.mawaqit.net/images/backend/mosque/5ef74dc7-1365-41ac-904d-9b3691f2ef17/mosque/1efe3bb7-58ac-6aa4-8057-0a7d06691847.png",
    "address": "روضة الأمير راشد",
    "city": "معان",
    "zipcode": "71846",
    "countryFullName": "Jordan",
    "lng": 35.5447962,
    "lat": 30.2815905
  },
  {
    "slug": "masjid-abu-ubayda-amer-bin-al-jarrah-sakib-26710-jordan",
    "name": "مسجد أبو عبيدة عامر بن الجراح",
    "image1": "https://cdn.mawaqit.net/images/backend/mosque/e97b3e2f-8157-4c55-9a01-c600ec217a45/mosque/1efe95ff-5dd6-6906-bcfb-063aa5df5c67.png",
    "address": "ساكب",
    "city": "ساكب",
    "zipcode": "26710",
    "countryFullName": "Jordan",
    "lng": 35.812296867371,
    "lat": 32.283586207773
  },
  {
    "slug": "masjid-al-zubayr-bin-al-awwam-aujjan-kabir-13162-zarqa-jordan",
    "name": "مسجد الزبير بن العوام - عوجان الكبير",
    "image1": "https://cdn.mawaqit.net/images/backend/mosque/38317a7d-48d9-4bbe-aeca-3512830c5f7c/mosque/1efe51d8-a58f-61be-ab1d-063aa5df5c67.jpeg",
    "address": "عوجان",
    "city": "الزرقاء",
    "zipcode": "13162",
    "countryFullName": "Jordan",
    "lng": 36.063184663653,
    "lat": 32.022957561441
  },
  {
    "slug": "masjid-ahl-al-ribat-11947-tariq-amman-jordan",
    "name": "مسجد أهل الرباط",
    "image1": "https://cdn.mawaqit.net/images/backend/mosque/c06c6042-e062-46b8-b66f-d3e164cae73e/mosque/1efd68e7-1123-629e-8ec7-0e61b0058d45.jpeg",
    "address": "شارع الشربيني، طبربور",
    "city": "عمان",
    "zipcode": "11947",
    "countryFullName": "Jordan",
    "lng": 35.97215116024,
    "lat": 31.998004177393
  },
  {
    "slug": "masjid-jaafar-al-tayyar-19378-safoot-amman-jordan",
    "name": "مسجد جعفر الطيار",
    "image1": "https://cdn.mawaqit.net/images/backend/mosque/18af90f7-697b-438b-9f1c-fe23d5cecd4d/mosque/1efe4a23-303b-6de8-828d-063aa5df5c67.jpeg",
    "address": "صافوط الغربيه",
    "city": "عمان",
    "zipcode": "19378",
    "countryFullName": "Jordan",
    "lng": 35.827928781509,
    "lat": 32.03843018115
  },
  {
    "slug": "masjid-rawdat-al-amir-rashid-71846-maan-jordan",
    "name": "مسجد روضة الأمير راشد الكبير",
    "image1": "https://cdn.mawaqit.net/images/backend/mosque/d3a6d9ec-eab5-4689-ab5c-e9773531eecf/mosque/1efd5b6f-e781-6bd6-9fbc-06bada7b305f.png",
    "address": "روضة الأمير راشد",
    "city": "معان",
    "zipcode": "71846",
    "countryFullName": "Jordan",
    "lng": 35.544312000275,
    "lat": 30.281453950029
  },
  {
    "slug": "masjid-al-shaheed-king-abdullah-bin-al-hussein-11190-amman-jordan",
    "name": "مسجد الشهيد الملك عبدالله بن الحسين",
    "image1": "https://cdn.mawaqit.net/images/backend/mosque/6148dbdc-766b-42f0-a0ed-b21653128f38/mosque/1efe53f5-6c9c-6702-8525-0e61b0058d45.png",
    "address": "العبدلي",
    "city": "عمان",
    "zipcode": "11190",
    "countryFullName": "Jordan",
    "lng": 35.912847518921,
    "lat": 31.961183177944
  },
  {
    "slug": "masjid-mufleh-mukhaymar-al-atrak-previously-tabarbour-11131-amman-jordan",
    "name": "مسجد عبدالله مفلح مخيمر",
    "image1": "https://cdn.mawaqit.net/images/backend/mosque/4070d0e0-029c-4a79-be80-e80e1cd34bfc/mosque/1f00d6e1-e627-6b5a-8960-0e4fa23cf9cb.png",
    "address": "طبربور",
    "city": "عمان",
    "zipcode": "11131",
    "countryFullName": "Jordan",
    "lng": 35.947480201721,
    "lat": 31.985255918823
  },
  {
    "slug": "masjid-al-farouq-36362-rusaifa-jordan",
    "name": "مسجد الفاروق",
    "image1": "https://cdn.mawaqit.net/images/backend/mosque/81f9ba41-4d00-4cf8-9c50-4a8b5b5796c0/mosque/1f00a281-4f6b-6944-8a7c-0e4fa23cf9cb.jpeg",
    "address": "الرصيفة",
    "city": "الرصيفة",
    "zipcode": "36362",
    "countryFullName": "Jordan",
    "lng": 36.032817363739,
    "lat": 32.033546168236
  },
  {
    "slug": "msjd-lhj-mhmd-lmrj-l-dwn-amman-11934-jordan",
    "name": "مسجد الحاج محمد المارج العدوان",
    "image1": "https://cdn.mawaqit.net/images/backend/mosque/9941ecc8-eb19-4e23-afae-84aeaed8a176/mosque/1f00027a-b178-6bca-bd4f-0a2e1c0b5725.jpeg",
    "address": "Abdul Latif Al-Edwan Street,",
    "city": "AMMAN",
    "zipcode": "11934",
    "countryFullName": "Jordan",
    "lng": 35.907142460346,
    "lat": 32.042784190875
  },
  {
    "slug": "msjd-bw-nsyr-lkbyr-amman-11934-jordan",
    "name": "مسجد أبو نصير الكبير",
    "image1": "https://cdn.mawaqit.net/images/backend/mosque/9b490460-3541-4cca-a1b4-b9effbc65598/mosque/1ef97ac0-7493-6aa4-872a-0a0389a4e0f5.png",
    "address": "Balat Ash Shuhada,",
    "city": "AMMAN",
    "zipcode": "11934",
    "countryFullName": "Jordan",
    "lng": 35.881175994873,
    "lat": 32.052353189945
  },
  {
    "slug": "masjid-matar-alshammari-11934-amman-jordan",
    "name": "مسجد مطر الشمري",
    "image1": "https://cdn.mawaqit.net/images/backend/mosque/bed1fd5a-3fe4-4844-9ea0-10c40ecc11c4/mosque/1ef7d040-3a9d-67f4-8a78-0affcb0701ab.jpg",
    "address": "3WC4+2F9, Shafa Badran St,",
    "city": "AMMAN",
    "zipcode": "11934",
    "countryFullName": "Jordan",
    "lng": 35.90794855054,
    "lat": 32.070985090905
  },
  {
    "slug": "msjd-lhj-bdllh-bw-khdyj-amman-11934-jordan",
    "name": "مسجد الحاج عبدالله أبو خديجة",
    "image1": "https://cdn.mawaqit.net/images/backend/mosque/fa0aa140-69c4-4c24-a673-12c6061eed16/mosque/1eef9185-038a-6020-bf2d-0621eb7171ad.jpeg",
    "address": "3V8Q+M32, Amman, Jordan",
    "city": "AMMAN",
    "zipcode": "11934",
    "countryFullName": "Jordan",
    "lng": 35.887624025345,
    "lat": 32.066630940402
  },
  {
    "slug": "masjid-lsidiq-amman-11934-jordan",
    "name": "مسجد الصدّيق",
    "image1": "https://cdn.mawaqit.net/images/backend/mosque/c62801fd-d1cb-4740-81fb-d46fdb58c41f/mosque/1efdf349-5ff2-65a4-a089-063aa5df5c67.png",
    "address": "ضاحية الرشيد",
    "city": "عمان",
    "zipcode": "11934",
    "countryFullName": "Jordan",
    "lng": 35.887511372566,
    "lat": 32.002931027375
  },
  {
    "slug": "masjid-altawbah-11934-amman-jordan",
    "name": "مسجد التوبة",
    "image1": "https://cdn.mawaqit.net/images/backend/mosque/f7a73c9c-8def-407b-8de5-98dddd52e8ac/mosque/1efb338d-aa9f-6760-8df6-0a3077684d61.jpeg",
    "address": "تلاع العلي، دخلة المستشفى السعودي",
    "city": "عمان",
    "zipcode": "11934",
    "countryFullName": "Jordan",
    "lng": 35.853806734085,
    "lat": 32.000260643854
  },
  {
    "slug": "msjd-mr-bn-ysr-jbl-lnzh-mn-lrdn-11934-jordan",
    "name": "مسجد عمار بن ياسر",
    "image1": "https://cdn.mawaqit.net/images/backend/mosque/360199b8-9ca1-4989-9765-59fba2504a61/mosque/1eefd02c-1c9e-645e-a2c0-0e8f4a8ce035.jpeg",
    "address": "جبل النزهة",
    "city": "الأردن",
    "zipcode": "11934",
    "countryFullName": "Jordan",
    "lng": 35.931413769722,
    "lat": 31.974030343043
  },
  {
    "slug": "masjid-alrisalah-11934-amman-jordan",
    "name": "مسجد الرسالة",
    "image1": "https://cdn.mawaqit.net/images/backend/mosque/d5dcddfa-1da3-46fa-93ff-da717d1fa4d4/mosque/1efb38ab-76c3-622a-ade0-0eb2b01d4617.jpeg",
    "address": "ناعور، طريق البحر الميت",
    "city": "عمان",
    "zipcode": "11934",
    "countryFullName": "Jordan",
    "lng": 35.838646888733,
    "lat": 31.87726610054
  },
  {
    "slug": "masjid-abdullah-bin-omar-11134-amman-jordan",
    "name": "مسجد عبدالله بن عمر",
    "image1": "https://cdn.mawaqit.net/images/backend/mosque/fe98cb2a-96f6-4e5f-b326-730da8b74240/mosque/1eff6a74-298f-6f40-91cc-06ef9144e88f.png",
    "address": "ماركا الجنوبية",
    "city": "عمان",
    "zipcode": "11134",
    "countryFullName": "Jordan",
    "lng": 35.988121032715,
    "lat": 31.962757882872
  },
  {
    "slug": "masjid-al-khalifa-al-farouq-11181-amman-jordan",
    "name": "مسجد الخليفة الفاروق",
    "image1": "https://cdn.mawaqit.net/images/backend/mosque/6bced8e8-3473-4944-8dea-bb4f07fb3958/mosque/1ef1ce2c-14b7-6ff6-a482-069c71fb446f.png",
    "address": "2WJH+RMF, Amman, Jordan",
    "city": "AMMAN",
    "zipcode": "11181",
    "countryFullName": "Jordan",
    "lng": 35.929176807404,
    "lat": 32.032051126175
  },
  {
    "slug": "ahbab-lmostafa-lbatra-00962-jordan",
    "name": "مسجد احباب المصطفى",
    "image1": "https://cdn.mawaqit.net/images/backend/mosque/fe1c46c9-ba6d-41b3-8f63-843e18971957/mosque/1ef25b48-ff97-6f9a-b9ed-0ecb5e3f0f5f.jpg",
    "address": "معان",
    "city": "البتراء",
    "zipcode": "71110",
    "countryFullName": "Jordan",
    "lng": 35.4801251,
    "lat": 30.3216354
  },
  {
    "slug": "masjid-mohamed-rassoul-lah-lassima-11592-jordan",
    "name": "مسجد محمد رسول الله ﷺ",
    "image1": "https://cdn.mawaqit.net/images/backend/mosque/08666c43-ecb5-4e03-9ef5-79c2c24d5211/mosque/1ef35c83-0071-6f88-b4e9-0600dbafaeef.jpg",
    "address": "جبل المناره",
    "city": "العاصمة",
    "zipcode": "11592",
    "countryFullName": "Jordan",
    "lng": 35.9639208,
    "lat": 31.9605156
  },
  {
    "slug": "masjid-nour-al-iman-11934-amman-jordan",
    "name": "مسجد نور الإيمان",
    "image1": "https://cdn.mawaqit.net/images/backend/mosque/7464682e-0eb0-405f-844e-8efdfd03d196/mosque/1ef57ea2-ad8b-6d98-b3bb-0eccd22c0f01.jpg",
    "address": "3V8Q+M32, Amman, Jordan",
    "city": "AMMAN",
    "zipcode": "11934",
    "countryFullName": "Jordan",
    "lng": 35.8776730299,
    "lat": 32.059245704967
  },
  {
    "slug": "masjid-al-bayan-dhahiat-al-rasheed-170121-amman-jordan",
    "name": "مسجد البيان",
    "image1": "https://cdn.mawaqit.net/images/backend/mosque/bace0aa2-92fc-4caa-8e5b-8e19c1f01357/mosque/1f0194ef-c441-65dc-80dd-0e61b0058d45.jpeg",
    "address": "ضاحية الرشيد",
    "city": "عمان",
    "zipcode": "170121",
    "countryFullName": "Jordan",
    "lng": 35.89967250824,
    "lat": 32.010068348727
  },
  {
    "slug": "masjid-al-mustafa-00962-amman-jordan",
    "name": "مسجد المصطفى",
    "image1": "https://cdn.mawaqit.net/images/backend/mosque/019c96fa-7cd4-4d88-aa62-be5783d44b17/mosque/1ef5e78a-5e4c-609c-892f-0600dbafaeef.jpg",
    "address": "ام نوارة",
    "city": "عمان",
    "zipcode": "00962",
    "countryFullName": "Jordan",
    "lng": 35.957715511322,
    "lat": 31.927379679268
  },
  {
    "slug": "masjid-al-rashideen-11134-amman-jordan",
    "name": "مسجد الراشدين",
    "image1": "https://cdn.mawaqit.net/images/backend/mosque/a3c18070-2348-43fb-92f8-d6bf94a8a136/mosque/1efec701-4d4d-6d7c-b8a5-06ef9144e88f.png",
    "address": "ماركا الجنوبية",
    "city": "عمان",
    "zipcode": "11134",
    "countryFullName": "Jordan",
    "lng": 35.982542037964,
    "lat": 31.96516084875
  },
  {
    "slug": "al-husseini-grand-mosque-11118-amman-jordan",
    "name": "المسجد الحسيني الكبير",
    "image1": "https://cdn.mawaqit.net/images/backend/mosque/24121946-accb-4aa9-b3a1-a8631cfd8468/mosque/1efe5fc6-699d-66dc-8eac-0e61b0058d45.png",
    "address": "وسط البلد",
    "city": "عمان",
    "zipcode": "11118",
    "countryFullName": "Jordan",
    "lng": 35.934519767761,
    "lat": 31.949613275099
  },
  {
    "slug": "marka-old-mosque-00962-amman-jordan",
    "name": "مسجد ماركا القديم",
    "image1": "https://cdn.mawaqit.net/images/backend/mosque/8d13f7e7-c24b-4669-ad0c-4d22e153a1c1/mosque/1ef743ff-859e-6212-830e-0600dbafaeef.jpg",
    "address": "ماركا الشماليه شارع سفيان الثوري",
    "city": "عمان",
    "zipcode": "00962",
    "countryFullName": "Jordan",
    "lng": 35.982542037964,
    "lat": 31.979636477144
  },
  {
    "slug": "mecca-mall-mosque-11821-amman-jordan",
    "name": "مسجد مكة مول",
    "image1": "https://cdn.mawaqit.net/images/backend/mosque/0e0004de-9991-427d-8861-1be1bca86c0f/mosque/1eff8698-61d3-62a4-9523-0ebbeff22a35.jpeg",
    "address": "أم السماق، شارع عبدالله الداوود",
    "city": "عمان",
    "zipcode": "11821",
    "countryFullName": "Jordan",
    "lng": 35.843271017075,
    "lat": 31.977511464991
  },
  {
    "slug": "ouwais-bin-aamer-al-qarni-mosque-11121-amman-jordan",
    "name": "مسجد أويس بن عامر القرني",
    "image1": "https://cdn.mawaqit.net/images/backend/mosque/375cf209-6386-49a3-b8b0-9cc2b5330b2c/mosque/1f02b47f-1bc2-6f5e-8e3f-0e31fcfe1275.png",
    "address": "جبل القصور",
    "city": "عمان",
    "zipcode": "11121",
    "countryFullName": "Jordan",
    "lng": 35.940828323364,
    "lat": 31.957715090946
  },
  {
    "slug": "masjid-al-hajjah-faridah-al-qadi-marj-al-hamam-11732-amman-jordan",
    "name": "مسجد الحاجة فريدة القاضي",
    "image1": "https://cdn.mawaqit.net/images/backend/mosque/f77a4e13-537a-4786-b151-2027e765985b/mosque/1f01a05f-7a5d-6346-b041-0e61b0058d45.png",
    "address": "مرج الحمام",
    "city": "عمان",
    "zipcode": "11732",
    "countryFullName": "Jordan",
    "lng": 35.817468166351,
    "lat": 31.934072174983
  },
  {
    "slug": "masjid-mohammad-oqleh-al-ays-66141-tafila-jordan",
    "name": "مسجد محمد عقلة",
    "image1": "https://cdn.mawaqit.net/images/backend/mosque/477d87dd-1c60-45da-a640-185357801b57/mosque/1f01abdc-69d0-64dc-a318-0e61b0058d45.jpeg",
    "address": "العيص",
    "city": "الطفيلة",
    "zipcode": "66141",
    "countryFullName": "Jordan",
    "lng": 35.665526390076,
    "lat": 30.832271738138
  },
  {
    "slug": "masjid-al-hajjah-fadwa-ahmed-al-hamaydah-amman-11623-jordan",
    "name": ".",
    "image1": "https://cdn.mawaqit.net/images/backend/mosque/4e4399f3-2f72-4684-9e6e-87829741c7dd/mosque/1f00b3be-7be0-658a-b0a4-0a4f41f2867f.jpeg",
    "address": "منطقة جاوا، الجويدة",
    "city": "عمان",
    "zipcode": "11623",
    "countryFullName": "Jordan",
    "lng": 35.944669246674,
    "lat": 31.861448521168
  },
  {
    "slug": "awda-al-mansour-mosque-um-nuwara-962-amman-jordan",
    "name": "مسجد عودة المنصور",
    "image1": "https://cdn.mawaqit.net/images/backend/mosque/cb598d22-5cad-47e2-927f-e0281deeee10/mosque/1efbb623-8df2-64fa-9131-069dbb1b261f.jpg",
    "address": "الاردن - عمان - ام نوارة- قريب من شارع الحكمة",
    "city": "عمان",
    "zipcode": "+962",
    "countryFullName": "Jordan",
    "lng": 35.967886447906,
    "lat": 31.925899980104
  },
  {
    "slug": "al-masra-mosque-bnayyat-11623-amman-jordan",
    "name": "مسجد المسرى",
    "image1": "https://cdn.mawaqit.net/images/backend/mosque/b0888c23-0170-4cc9-a795-974855313b1d/mosque/1efe62b6-b2aa-69a4-af37-063aa5df5c67.png",
    "address": "شارع الأميرة مقبولة، البنيات",
    "city": "عمان",
    "zipcode": "11623",
    "countryFullName": "Jordan",
    "lng": 35.901845097542,
    "lat": 31.892179153208
  },
  {
    "slug": "masjid-lfars-aaman-11623-jordan",
    "name": "مسجد الفارس",
    "image1": "https://cdn.mawaqit.net/images/backend/mosque/01aa301d-6877-437f-a6bf-d0fdb64fa327/mosque/1efbee80-786f-6f8e-92c7-0ef2881d9837.png",
    "address": "شارع طوباس",
    "city": "عمان",
    "zipcode": "11623",
    "countryFullName": "Jordan",
    "lng": 35.918316998824,
    "lat": 31.904257432322
  },
  {
    "slug": "ubay-ibn-kaab-mosque-ouroba-34555-amman-jordan",
    "name": "مسجد أبي بن كعب",
    "image1": "https://cdn.mawaqit.net/images/backend/mosque/ad2d835c-aa30-4b6f-b2bb-8633d2f92758/mosque/1efc6aa0-86b6-6628-b37a-0e61b0058d45.jpg",
    "address": "حي العروبة",
    "city": "عمان",
    "zipcode": "34555",
    "countryFullName": "Jordan",
    "lng": 35.971995592117,
    "lat": 31.926587474061
  },
  {
    "slug": "al-balbisi-mosque-prince-hassan-11191-amman-jordan",
    "name": "مسجد البلبيسي",
    "image1": "https://cdn.mawaqit.net/images/backend/mosque/bd5943d7-18d4-40a2-85b5-9be07b93a585/mosque/1f001daf-b8b0-67ee-b0cf-0a2e1c0b5725.png",
    "address": "ضاحية الأمير حسن",
    "city": "عمان",
    "zipcode": "11191",
    "countryFullName": "Jordan",
    "lng": 35.921071171761,
    "lat": 31.98694395918
  },
  {
    "slug": "yasmin-khawaja-mosque-sahab-11511-amman-jordan",
    "name": "مسجد ياسمين خواجه",
    "image1": "https://cdn.mawaqit.net/images/backend/mosque/d8183f80-c169-4e8c-a660-5905b879dfc8/mosque/1efd0076-61ec-69c0-959c-06bada7b305f.png",
    "address": "منطقة سالم، سحاب",
    "city": "عمان",
    "zipcode": "11511",
    "countryFullName": "Jordan",
    "lng": 35.982702970505,
    "lat": 31.842957829432
  },
  {
    "slug": "prince-hamzah-hospital-mosque-dahiat-al-aqsa-31740-amman-jordan",
    "name": "مسجد مستشفى الأمير حمزة",
    "image1": "https://cdn.mawaqit.net/images/backend/mosque/4a30a672-13ed-4942-89ff-cc3fe3840669/mosque/1effb0d3-6f1d-67ba-9f10-0a2e1c0b5725.jpeg",
    "address": "ضاحية الأقصى",
    "city": "عمان",
    "zipcode": "31740",
    "countryFullName": "Jordan",
    "lng": 35.935952067375,
    "lat": 31.983913654323
  },
  {
    "slug": "masjid-al-marhoom-hajj-hassan-makhlouf-al-nabali-amman-11691-jordan",
    "name": "مسجد الحاج حسن مخلوف النبالي",
    "image1": "https://cdn.mawaqit.net/images/backend/mosque/36f8bac7-73ac-4660-bd9b-bc6e60744cde/mosque/1f001096-0f5e-65a4-a304-0e61b0058d45.png",
    "address": "شارع شهير سايل الحديدي, منطقة القويسمة",
    "city": "عمان",
    "zipcode": "11691",
    "countryFullName": "Jordan",
    "lng": 35.946466326714,
    "lat": 31.908865790187
  },
  {
    "slug": "masjid-al-marhoom-jameel-abu-radhi-hay-nazzal-11191-amman-jordan",
    "name": "مسجد المرحوم جميل أبو راضي",
    "image1": "https://cdn.mawaqit.net/images/backend/mosque/e31933e8-26a8-4cc8-8367-b8f5a7df431f/mosque/1f016d14-1aa0-64a4-b4b5-0ac73cfd41db.jpeg",
    "address": "حي نزال",
    "city": "عمان",
    "zipcode": "11191",
    "countryFullName": "Jordan",
    "lng": 35.921870470047,
    "lat": 31.93833326533
  },
  {
    "slug": "masjid-umm-al-ala-11831-amman-jordan",
    "name": "مسجد أم العلا",
    "image1": "https://cdn.mawaqit.net/images/backend/mosque/5d049a5f-8fa9-48f8-be0d-bc2e7b02b134/mosque/1eff3964-059e-6c1c-8a8f-0e61b0058d45.png",
    "address": "ضاحية الرشيد",
    "city": "عمان",
    "zipcode": "11831",
    "countryFullName": "Jordan",
    "lng": 35.881629288197,
    "lat": 32.007646088767
  },
  {
    "slug": "masjid-al-salam-nazzal-district-11171",
    "name": "مسجد السلام",
    "image1": "https://cdn.mawaqit.net/images/backend/mosque/a3ed569e-6d91-4bfd-887e-280c7081206b/mosque/1effaa8c-f265-6b38-a08a-0e4fa23cf9cb.png",
    "address": "حي نزال",
    "city": "عمان",
    "zipcode": "11171",
    "countryFullName": "Jordan",
    "lng": 35.906721353531,
    "lat": 31.929858691117
  },
  {
    "slug": "masjid-najeeb-alqasrawi-11140-amman-jordan",
    "name": "مسجد نجيب القصراوي",
    "image1": "https://cdn.mawaqit.net/images/backend/mosque/5653c123-7550-4c45-a7ac-5c746d72859f/mosque/1f012472-6e55-6ae4-8bef-0ac73cfd41db.jpeg",
    "address": "الاردن ، عمان ، جبل النصر",
    "city": "عمان",
    "zipcode": "11140",
    "countryFullName": "Jordan",
    "lng": 35.968766212463,
    "lat": 31.960955617195
  },
  {
    "slug": "masjid-khurma-al-shurkas-al-kabir-hussein-khawaja-street-bayader-11814-amman-jordan",
    "name": "مسجد خورما الشركس الكبير",
    "image1": "https://cdn.mawaqit.net/images/backend/mosque/1a172d3e-1d77-44a6-97c1-a99da552a7da/mosque/1f016068-7563-6d5e-b36f-0ac73cfd41db.png",
    "address": "شارع حسين خواجا، البيادر",
    "city": "عمان",
    "zipcode": "11814",
    "countryFullName": "Jordan",
    "lng": 35.838902369142,
    "lat": 31.954462502559
  },
  {
    "slug": "lmsjd-lkbyr-qsr-lhmm-lthtny-figuig-61000-morocco",
    "name": "مسجد المرحوم الحاج سالم الهبارنة",
    "image1": "https://cdn.mawaqit.net/images/backend/mosque/e12723af-dbf2-49c9-a446-d6645fc20a3e/mosque/1f03242b-284e-6acc-a9e0-0e325d5c4035.jpg",
    "address": "طبربور",
    "city": "عمان",
    "zipcode": "61000",
    "countryFullName": "Jordan",
    "lng": 35.952687710524,
    "lat": 32.012441646515
  },
  {
    "slug": "masjid-chahid-jarch-26193-jordan",
    "name": "مسجد الشهيد",
    "image1": "https://cdn.mawaqit.net/images/backend/mosque/8cf009d7-81bf-4ec2-87e1-d35e6bb71c9d/mosque/1efe566a-3ff7-6996-b44c-063aa5df5c67.jpg",
    "address": "جرش/مخيم سوف",
    "city": "جرش",
    "zipcode": "26193",
    "countryFullName": "Jordan",
    "lng": 35.8960765,
    "lat": 32.2746515
  },
  {
    "slug": "masjid-al-kalouti-wal-dissi-77110-aqaba-jordan",
    "name": "مسجد الكالوتي والديسي",
    "image1": "https://cdn.mawaqit.net/images/backend/mosque/a1f82ab7-0579-43c8-acf9-f52cd0c080fa/mosque/1eff06e3-f123-67d6-87b1-0a7d06691847.png",
    "address": "شارع الملك فيصل",
    "city": "العقبة",
    "zipcode": "77110",
    "countryFullName": "Jordan",
    "lng": 35.013213157654,
    "lat": 29.554587780553
  },
  {
    "slug": "msjd-hnzl-lrhmn-lzrq-1234-jordan",
    "name": "مسجد حنظلة الرحمن",
    "image1": "https://cdn.mawaqit.net/images/backend/mosque/544b7b5b-ce52-431c-8eda-140d34c59c41/mosque/1efe861b-c45d-68da-8849-063aa5df5c67.jpg",
    "address": "حي الرشيد الفنتوش",
    "city": "الزرقاء",
    "zipcode": "1234",
    "countryFullName": "Jordan",
    "lng": 36.0206901,
    "lat": 32.0275988
  },
  {
    "slug": "masjid-al-hajj-omar-hmaydeh-1250-amman-jordan",
    "name": "مسجد الحاج عمر حميدة",
    "image1": "https://cdn.mawaqit.net/images/backend/mosque/4ba05263-a458-4036-b9e2-5c48cf8f3ba7/mosque/1f02502f-8ce7-69be-b4ef-0ac73cfd41db.jpeg",
    "address": "البنيات",
    "city": "عمان",
    "zipcode": "1250",
    "countryFullName": "Jordan",
    "lng": 35.872957706451,
    "lat": 31.896870298404
  },
  {
    "slug": "masjid-zaenab-al-humaida-11937-amman-jordan",
    "name": "مسجد الحاجَّة زينب الحمايدة",
    "image1": "https://cdn.mawaqit.net/images/backend/mosque/32a616b1-c3aa-42fc-92bf-49ccbac0a6c7/mosque/1effa3ef-e03f-64fc-9d72-0afdb4a7872f.png",
    "address": "أبو نصير",
    "city": "عمان",
    "zipcode": "11937",
    "countryFullName": "Jordan",
    "lng": 35.899511575699,
    "lat": 32.045833011221
  },
  {
    "slug": "masjid-dhu-al-nurayn-04045-amman-jordan",
    "name": "مسجد ذو النورين",
    "image1": "https://cdn.mawaqit.net/images/backend/mosque/898e8bc8-fd5a-483c-a47c-6406bf5a9e87/mosque/1eff14de-193d-6002-ae15-0a7d06691847.jpg",
    "address": "حي المنصور",
    "city": "عمان",
    "zipcode": "04045",
    "countryFullName": "Jordan",
    "lng": 35.919987559319,
    "lat": 32.018469569337
  },
  {
    "slug": "masjid-al-hajjah-afifah-hay-al-hussein-13112-zarqa-jordan",
    "name": "مسجد الحاجة عفيفة",
    "image1": "https://cdn.mawaqit.net/images/backend/mosque/df3b190c-40f0-4c7c-98f9-3e4696404d79/mosque/1f019000-4756-6692-aced-0e61b0058d45.png",
    "address": "حي الحسين",
    "city": "الزرقاء",
    "zipcode": "13112",
    "countryFullName": "Jordan",
    "lng": 36.077170372009,
    "lat": 32.06899254421
  },
  {
    "slug": "masjid-al-abed-raymon-0021821-jerash-jordan",
    "name": "مسجد العابد ريمون",
    "image1": "https://cdn.mawaqit.net/images/backend/mosque/1fd29ae1-73d1-4c87-8af6-be87dc142836/mosque/1eff1e92-c88a-6182-8127-0a7d06691847.png",
    "address": "جرش",
    "city": "جرش",
    "zipcode": "0021821",
    "countryFullName": "Jordan",
    "lng": 35.830761194229,
    "lat": 32.287404731095
  },
  {
    "slug": "masjid-fatima-al-zahra-11623-amman-jordan",
    "name": "مسجد فاطمة الزهراء",
    "image1": "https://cdn.mawaqit.net/images/backend/mosque/a0ca6fab-4dfb-4848-9ad0-582f27f36415/mosque/1effa613-35b5-6e7a-ae97-0afdb4a7872f.png",
    "address": "ضاحية الياسمين",
    "city": "عمان",
    "zipcode": "11623",
    "countryFullName": "Jordan",
    "lng": 35.887573063374,
    "lat": 31.91302331596
  },
  {
    "slug": "masjid-abu-aysha-00962-amman-jordan",
    "name": "مسجد ابو عيشة",
    "image1": "https://cdn.mawaqit.net/images/backend/mosque/8f2156dd-f2f1-4104-8087-0a466b876651/mosque/1eff1d77-c83e-6cbc-8bcc-0e61b0058d45.jpg",
    "address": "الدوار السابع / طريق المطار",
    "city": "عمان",
    "zipcode": "00962",
    "countryFullName": "Jordan",
    "lng": 35.858996808529,
    "lat": 31.947926824147
  },
  {
    "slug": "masjid-sheikh-khalil-al-salwadi-yasmeen-housing-95420-amman-jordan",
    "name": "مسجد الشيخ خليل السلوادي",
    "image1": "https://cdn.mawaqit.net/images/backend/mosque/0ab6c7f9-abc3-43da-843c-2dd589bf85b2/mosque/1f00cccc-daf4-6ec8-85e8-0ac73cfd41db.png",
    "address": "ضاحية الياسمين، إسكان المهندسي",
    "city": "عمان",
    "zipcode": "95420",
    "countryFullName": "Jordan",
    "lng": 35.881980657578,
    "lat": 31.913137155753
  },
  {
    "slug": "msjd-bll-bn-rbh-lrmh-mn-16010-jordan",
    "name": "مسجد بلال بن رباح _الرامه الشمالي",
    "image1": "https://cdn.mawaqit.net/images/backend/mosque/721dc83d-fa6c-4c6a-afd9-566839e6155d/mosque/1eff6963-72f2-64e2-8588-0e61b0058d45.jpeg",
    "address": "عمان-الجيزه -ام الرصاص -الرامه",
    "city": "عمان",
    "zipcode": "16010",
    "countryFullName": "Jordan",
    "lng": 35.9155217,
    "lat": 31.5002268
  },
  {
    "slug": "masjid-abdallah-bin-al-zubair-al-rasifa-13710-zarqa-jordan",
    "name": "مسجد عبدالله بن الزبير",
    "image1": "https://cdn.mawaqit.net/images/backend/mosque/60be9fee-314c-4496-8910-f8aa172b9475/mosque/1eff7783-2afa-61f2-a3bc-0afdb4a7872f.jpg",
    "address": "الرصيفة",
    "city": "الزرقاء",
    "zipcode": "13710",
    "countryFullName": "Jordan",
    "lng": 36.050578951836,
    "lat": 32.027288430236
  },
  {
    "slug": "masjid-abi-huraira-hay-nazzal-11171-amman-jordan",
    "name": "مسجد الصحابي الجليل أبي هريرة",
    "image1": "https://cdn.mawaqit.net/images/backend/mosque/248c3100-d626-4ebe-9996-8ec24082cae6/mosque/1effe4f6-e336-6d20-ae96-06ef9144e88f.png",
    "address": "حي نزال",
    "city": "عمان",
    "zipcode": "11171",
    "countryFullName": "Jordan",
    "lng": 35.916699171066,
    "lat": 31.938774841388
  },
  {
    "slug": "masjid-al-kalouti-shari-dar-al-islam-11194-amman-jordan",
    "name": "مسجد الكالوتي",
    "image1": "https://cdn.mawaqit.net/images/backend/mosque/d3494863-207a-4512-8e85-d6f7f90d1324/mosque/1effbfe8-a2ff-62e4-b8fb-0a2e1c0b5725.png",
    "address": "شارع دار الإسلام، الرابية",
    "city": "عمان",
    "zipcode": "11194",
    "countryFullName": "Jordan",
    "lng": 35.870575904846,
    "lat": 31.97744775937
  },
  {
    "slug": "masjid-dr-ahmad-al-hourani-jabal-al-nuzha-11937-amman-jordan",
    "name": "مَسْجِدْ د.أَحْمَدْ الحوراني",
    "image1": "https://cdn.mawaqit.net/images/backend/mosque/e3d4f5c0-50f7-4c58-ba73-a2200f0dedae/mosque/1effa9e7-4d6f-6106-b88e-0e61b0058d45.png",
    "address": "جبل النزهة، شارع السنهوري",
    "city": "عمان",
    "zipcode": "11937",
    "countryFullName": "Jordan",
    "lng": 35.927218794823,
    "lat": 31.971404625152
  },
  {
    "slug": "masjid-al-hidaya-saeed-nasrallah-street-1234-amman-jordan",
    "name": "مسجد الهداية",
    "image1": "https://cdn.mawaqit.net/images/backend/mosque/4d1b01b6-8cbd-4b7a-abcb-44ed24b5935d/mosque/1f03494c-055f-6840-90bc-0e4c23723657.png",
    "address": "شارع سعيد نصر الله",
    "city": "عمان",
    "zipcode": "11831",
    "countryFullName": "Jordan",
    "lng": 35.887076854706,
    "lat": 32.007202569447
  },
  {
    "slug": "masjid-al-marhoom-mushrif-al-aifan-amman-11123-jordan",
    "name": "مسجد المرحوم مشرف العيفان",
    "image1": "https://cdn.mawaqit.net/images/backend/mosque/6f6e3ce2-62d2-4887-b8b4-8d78fd0bae2e/mosque/1effbfa4-0745-61f8-a5d6-0e61b0058d45.jpeg",
    "address": "الهاشمي الشمالي",
    "city": "عمان",
    "zipcode": "11123",
    "countryFullName": "Jordan",
    "lng": 35.953316688538,
    "lat": 31.984637114578
  },
  {
    "slug": "masjid-khabbab-bin-al-aratt-al-rusayfah-hayy-al-rashid-13710-zarqa-jordan",
    "name": "خباب بن الأرت",
    "image1": "https://cdn.mawaqit.net/images/backend/mosque/bb4ccf4e-803e-4f73-9330-e6da219af47c/mosque/1effc11f-cb4b-615c-bff4-06ef9144e88f.jpg",
    "address": "الرصيفة، حي الرشيد",
    "city": "الزرقاء",
    "zipcode": "13710",
    "countryFullName": "Jordan",
    "lng": 36.023003160954,
    "lat": 32.030799364962
  },
  {
    "slug": "masjid-jannat-al-abrar-marka-al-shamaliyah-iskan-al-diyar-00962-amman-jordan",
    "name": "مسجد جنة الأبرار",
    "image1": "https://cdn.mawaqit.net/images/backend/mosque/0b77804e-39d9-49f4-ad2f-8976414ce199/mosque/1effd71f-e369-658e-b361-06ef9144e88f.jpeg",
    "address": "ماركا الشمالية إسكان الديار",
    "city": "عمان",
    "zipcode": "00962",
    "countryFullName": "Jordan",
    "lng": 36.022641733289,
    "lat": 31.97960974416
  },
  {
    "slug": "masjid-uthman-bin-affan-hayy-naifah-al-hashimi-al-shamali-11191-amman-jordan",
    "name": "مسجد عثمان بن عفان",
    "image1": "https://cdn.mawaqit.net/images/backend/mosque/8f1ebf11-26c0-4901-af8d-0a8e43b4ddc1/mosque/1f002a49-677b-6422-9225-0e61b0058d45.png",
    "address": "حي نايفة، الهاشمي الشمالي",
    "city": "عمان",
    "zipcode": "11191",
    "countryFullName": "Jordan",
    "lng": 35.940468907356,
    "lat": 31.979049487271
  },
  {
    "slug": "masjid-abd-al-rahman-bin-awf-irbid-mall-ibn-al-jazzar-street-21163-irbid-jordan",
    "name": "مسجد عبد الرحمن بن عوف",
    "image1": "https://cdn.mawaqit.net/images/backend/mosque/00f081c5-2872-4b1e-8440-f80a79a699ad/mosque/1effffcc-0b65-6540-97b6-0e61b0058d45.jpeg",
    "address": "إربد مول، شارع ابن الجزّار",
    "city": "اربد",
    "zipcode": "211/63",
    "countryFullName": "Jordan",
    "lng": 35.839451551437,
    "lat": 32.541603738513
  },
  {
    "slug": "masjid-khubayb-bin-adi-rusaifa-13710-jordan",
    "name": "مسجد خبيب بن عدي",
    "image1": "https://cdn.mawaqit.net/images/backend/mosque/aac0d63f-e7f9-44e2-8c10-940067b0c193/mosque/1f000402-0311-6986-8a43-065add032351.jpg",
    "address": "التطوير الحضري",
    "city": "الرصيفة",
    "zipcode": "13710",
    "countryFullName": "Jordan",
    "lng": 36.056517362595,
    "lat": 32.038784875851
  },
  {
    "slug": "masjid-al-falah-shari-al-aq7awan-12015-amman-jordan",
    "name": "مسجد الفلاح ماركا الجنوبية",
    "image1": "https://cdn.mawaqit.net/images/backend/mosque/2224bf9d-7f02-426a-b68f-eaedaaac2536/mosque/1f02fa45-6f62-62b6-81df-0e129cf045c7.jpeg",
    "address": "شارع الأقحوان، ماركا الجنوبية",
    "city": "عمان",
    "zipcode": "12015",
    "countryFullName": "Jordan",
    "lng": 35.975680947304,
    "lat": 31.954001088791
  },
  {
    "slug": "masjid-al-dawah-wal-ihsan-amman-11110-jordan",
    "name": "مسجد الدعوة والإحسان",
    "image1": "https://cdn.mawaqit.net/images/backend/mosque/6712e23d-8233-4be8-ab90-c46d211e5439/mosque/1f004964-7c12-6b8a-b43c-0e4fa23cf9cb.jpeg",
    "address": "الجبل الأخضر",
    "city": "عمان",
    "zipcode": "11110",
    "countryFullName": "Jordan",
    "lng": 35.919869542122,
    "lat": 31.941333209375
  },
  {
    "slug": "masjid-al-obaidi-badr-11131-amman-jordan",
    "name": "مسجد العبيدي",
    "image1": "https://cdn.mawaqit.net/images/backend/mosque/e5a943ea-5507-4af6-9047-50ec0200bdb3/mosque/1f00abfd-f022-6542-b30c-06bdda781935.png",
    "address": "منطقة بدر",
    "city": "عمان",
    "zipcode": "11131",
    "countryFullName": "Jordan",
    "lng": 35.903567075729,
    "lat": 31.921551803245
  },
  {
    "slug": "masjid-asia-al-shami-amman-11941-jordan",
    "name": "مسجد آسيا الشامي",
    "image1": "https://cdn.mawaqit.net/images/backend/mosque/dcd16431-e105-4547-adac-75f3f101f864/mosque/1f009684-4dfc-6292-9183-0a2e1c0b5725.jpeg",
    "address": "الكوم الغربي، مرج الفرس",
    "city": "عمان",
    "zipcode": "11941",
    "countryFullName": "Jordan",
    "lng": 35.940613746643,
    "lat": 32.054753808194
  },
  {
    "slug": "msjd-lkwthr-slwn-nador-62700-morocco",
    "name": "مسجد عمر بن الخطاب",
    "image1": "https://cdn.mawaqit.net/images/backend/mosque/8a3dfef6-99c3-417c-8e56-a4b5ede7260a/mosque/1f02f258-f8f5-6694-aea2-06d617d5cc55.jpeg",
    "address": "شارع الإستقلال",
    "city": "عمان",
    "zipcode": "62700",
    "countryFullName": "Jordan",
    "lng": 35.9360989,
    "lat": 31.9727246
  },
  {
    "slug": "masjid-khadijah-umm-al-mumineen-al-mansour-11513-amman-jordan",
    "name": "مسجد خديجة أم المؤمنين",
    "image1": "https://cdn.mawaqit.net/images/backend/mosque/9b829d75-9bf9-4f39-9784-44d481b27a7e/mosque/1f00d4fd-66a2-6e38-9915-0ac73cfd41db.jpg",
    "address": "حي المنصور",
    "city": "عمان",
    "zipcode": "11513",
    "countryFullName": "Jordan",
    "lng": 35.904178619385,
    "lat": 32.021121229452
  },
  {
    "slug": "masjid-zaid-al-sulaytin-dahiat-al-quds-11181-zarqa-jordan",
    "name": "مسجد زيد السليطين ** ضاحية القدس **",
    "image1": "https://cdn.mawaqit.net/images/backend/mosque/89c94be7-9a18-4f3c-bd90-42ba00852c28/mosque/1f00782d-4101-6dbe-8a65-0e61b0058d45.jpg",
    "address": "الرصيفة - حي القادسية",
    "city": "الزرقاء",
    "zipcode": "11181",
    "countryFullName": "Jordan",
    "lng": 36.103162318468,
    "lat": 32.041086947482
  },
  {
    "slug": "masjid-madinat-al-sheikh-khalifa-bin-zayed-al-nahyan-zarqa-13110-jordan",
    "name": "مسجد مدينة الشيخ خليفة بن زايد آل نهيان",
    "image1": "https://cdn.mawaqit.net/images/backend/mosque/016c252c-544b-4aff-88bc-a5292c435ce3/mosque/1f009dc4-9845-6096-acae-0a2e1c0b5725.jpg",
    "address": "مدينة الشيخ خليفه بن زايد آل نهيان",
    "city": "الزرقاء",
    "zipcode": "13110",
    "countryFullName": "Jordan",
    "lng": 36.170004,
    "lat": 32.103712
  },
  {
    "slug": "masjid-khozma-kabir-deirala-13600-albalqa-jordan",
    "name": "مسجد خزمة الكبير",
    "image1": "https://cdn.mawaqit.net/images/backend/mosque/c2cc1352-aea7-47c5-b6c2-f5e1e24ce550/mosque/1f0282a9-1f06-60ba-8d16-06df4152832f.png",
    "address": "ديرعلا، خزما",
    "city": "البلقاء",
    "zipcode": "13600",
    "countryFullName": "Jordan",
    "lng": 35.623673200607,
    "lat": 32.222159375716
  },
  {
    "slug": "masjid-al-takruri-11123-amman-jordan",
    "name": "مسجد التكروري",
    "image1": "https://cdn.mawaqit.net/images/backend/mosque/4651d8fb-f770-4939-832d-979ad68496bc/mosque/1f034f02-2c05-6650-9d0d-066842e15bfb.png",
    "address": "الهاشمي الشمالي",
    "city": "عمان",
    "zipcode": "11123",
    "countryFullName": "Jordan",
    "lng": 35.95958635211,
    "lat": 31.968115545869
  },
  {
    "slug": "masjid-al-madinah-al-munawwarah-dhahiat-al-rasheed-11831-amman-jordan",
    "name": "مسجد المدينة المنورة",
    "image1": "https://cdn.mawaqit.net/images/backend/mosque/56c5f4d3-9ec7-4956-8c65-f6e537ceb274/mosque/1f026bce-75e4-669e-a62b-0aae5cc50e23.jpeg",
    "address": "ضاحية الرشيد",
    "city": "عمان",
    "zipcode": "11831",
    "countryFullName": "Jordan",
    "lng": 35.892999172211,
    "lat": 32.010787053922
  },
  {
    "slug": "masjid-saeed-bin-al-musayyib-amman-11190-jordan",
    "name": "مسجد سعيد بن المسيب",
    "image1": "https://cdn.mawaqit.net/images/backend/mosque/6f24c686-e14b-4a6f-ae56-9cee38ee36de/mosque/1f02770c-56a7-64d6-8f6c-06df4152832f.png",
    "address": "جبل النزهة",
    "city": "عمان",
    "zipcode": "11190",
    "countryFullName": "Jordan",
    "lng": 35.926693081856,
    "lat": 31.973757308287
  },
  {
    "slug": "masjid-al-marhoom-awad-farhan-al-nuaimat-khalda-11821-amman-jordan",
    "name": "مسجد عواد فرحان النعيمات",
    "image1": "https://cdn.mawaqit.net/images/backend/mosque/9d78a79a-334f-4386-af58-757da8d69034/mosque/1f012bd2-3012-6e32-8a1b-06bdda781935.png",
    "address": "الصالحين، أم السماق",
    "city": "عمان",
    "zipcode": "11821",
    "countryFullName": "Jordan",
    "lng": 35.851585865021,
    "lat": 31.982607771371
  },
  {
    "slug": "masjid-maryam-bint-imran-um-habibah-street-south-marka-11134-amman-jordan",
    "name": "مسجد مريم ابنة عمران",
    "image1": "https://cdn.mawaqit.net/images/backend/mosque/849478ed-1d1a-421c-a5e8-709a6fd442a6/mosque/1f017c5f-4b70-6fb6-8fbb-0e61b0058d45.png",
    "address": "شارع أم حبيبة، ماركا الجنوبية",
    "city": "عمان",
    "zipcode": "11134",
    "countryFullName": "Jordan",
    "lng": 35.9828799963,
    "lat": 31.960254726546
  },
  {
    "slug": "masjid-al-ameen-suleiman-mousa-al-sukkar-amman-11953-jordan",
    "name": "مسجد الأمين - سليمان موسى السكر -",
    "image1": "https://cdn.mawaqit.net/images/backend/mosque/9997b73c-c827-42bb-ab69-d884c1fc0401/mosque/1f028138-8e7a-6a4e-bc5d-06df4152832f.png",
    "address": "خلدا",
    "city": "عمان",
    "zipcode": "11953",
    "countryFullName": "Jordan",
    "lng": 35.851392745972,
    "lat": 31.987881240415
  },
  {
    "slug": "masjid-al-rahman-iraq-al-ameer-al-bassa-11814-amman-jordan",
    "name": "مسجد الرحمن",
    "image1": "https://cdn.mawaqit.net/images/backend/mosque/96fb6e5b-8691-40b2-9785-d44fe6b4c3ae/mosque/1f012038-f7a8-635c-ae84-0e61b0058d45.jpeg",
    "address": "الأردن، عمان، عراق الأمير، البصة",
    "city": "عمان",
    "zipcode": "11814",
    "countryFullName": "Jordan",
    "lng": 35.778801441193,
    "lat": 31.939148130835
  },
  {
    "slug": "masjid-al-rushd-sports-city-11196-amman-jordan",
    "name": "مسجد الرشد",
    "image1": "https://cdn.mawaqit.net/images/backend/mosque/f966065d-cff4-4760-b303-6b36b03155be/mosque/1f01247a-94b5-6b50-bd52-0e61b0058d45.jpeg",
    "address": "المدينة الرياضية",
    "city": "عمان",
    "zipcode": "11196",
    "countryFullName": "Jordan",
    "lng": 35.91342151165,
    "lat": 31.996898670535
  },
  {
    "slug": "msjd-shhd-ltmymy-mn-11632-jordan",
    "name": "مسجد شحدة التميمي",
    "image1": "https://cdn.mawaqit.net/images/backend/mosque/e7462e0d-58cf-49e5-8bec-134d6723a6a4/mosque/1f01316e-3658-6458-a0d2-0e61b0058d45.jpg",
    "address": "عمان خريبة السوق",
    "city": "عمان",
    "zipcode": "11632",
    "countryFullName": "Jordan",
    "lng": 35.943467952311,
    "lat": 31.872042374136
  },
  {
    "slug": "masjid-ashab-al-rasool-south-marka-11134-amman-jordan",
    "name": "مسجد أصحاب رسول الله ﷺ",
    "image1": "https://cdn.mawaqit.net/images/backend/mosque/0a528561-5dea-4886-a296-0dbbfd6670d4/mosque/1f016040-457a-603e-a55d-06bdda781935.jpeg",
    "address": "ماركا الجنوبية",
    "city": "عمان",
    "zipcode": "11134",
    "countryFullName": "Jordan",
    "lng": 35.979237556458,
    "lat": 31.962530326025
  },
  {
    "slug": "masjid-hassan-al-tal-irbid-00962-jordan",
    "name": "مسجد حسن التل",
    "image1": "https://cdn.mawaqit.net/images/backend/mosque/280edd68-5431-4e66-b775-802ae9c83e8d/mosque/1f01543c-c22a-6576-a3b8-0ac73cfd41db.png",
    "address": "Irbid , ِAmman Street",
    "city": "إربد",
    "zipcode": "00962",
    "countryFullName": "Jordan",
    "lng": 35.882806777954,
    "lat": 32.569790770592
  },
  {
    "slug": "masjid-al-maqari-irbid-00971-jordan-4o-mini",
    "name": "مسجد آل المقري",
    "image1": "https://cdn.mawaqit.net/images/backend/mosque/f83bd966-53b6-415b-bab4-a01e1860334e/mosque/1f015505-a5e6-6ada-b4f8-0ac73cfd41db.png",
    "address": "Eastern District",
    "city": "إربد",
    "zipcode": "00971",
    "countryFullName": "Jordan",
    "lng": 35.877428948879,
    "lat": 32.571755032362
  },
  {
    "slug": "masjid-al-rushd-moslalla-alnisa-11196-amman-jordan",
    "name": "مسجد الرشد - مصلى النساء",
    "image1": "https://cdn.mawaqit.net/images/backend/mosque/248fbdfa-d11a-4000-bec4-8bf8b48e8559/mosque/1f0163b5-997d-601e-bed0-06bdda781935.jpg",
    "address": "المدينة الرياضية",
    "city": "عمان",
    "zipcode": "11196",
    "countryFullName": "Jordan",
    "lng": 35.91342151165,
    "lat": 31.996898670535
  },
  {
    "slug": "masjid-jaafr-bn-abi-talib-lmazar-ljanoubi-61110-jordan",
    "name": "مسجد جعفر بن أبي طالب",
    "image1": "https://cdn.mawaqit.net/images/backend/mosque/3ed3e8c2-af13-421d-b4bd-320bb97cfc02/mosque/1f016d5f-21b4-68a8-889e-06bdda781935.jpg",
    "address": "الكرك",
    "city": "المزار الجنوبي",
    "zipcode": "61110",
    "countryFullName": "Jordan",
    "lng": 35.695738792419,
    "lat": 31.065589561883
  },
  {
    "slug": "masjid-dhat-al-nitaqayn-shafa-badran-11934-amman-jordan",
    "name": "مسجد ذات النطاقين",
    "image1": "https://cdn.mawaqit.net/images/backend/mosque/c729ac6a-dd0a-4f95-a447-98d9b6f86b0d/mosque/1f01ae3c-bc70-6432-b477-0ac73cfd41db.jpeg",
    "address": "شفا بدران",
    "city": "عمان",
    "zipcode": "11934",
    "countryFullName": "Jordan",
    "lng": 35.939036607742,
    "lat": 32.037848115072
  },
  {
    "slug": "masjid-assaad-bn-zarara-irbid-22110-jordan",
    "name": "مسجد أسعد بن زرارة",
    "image1": "https://cdn.mawaqit.net/images/backend/mosque/1159dc99-459a-4ee4-be1f-2bd620252fe6/mosque/1f01899d-e204-6b30-b68e-0ac73cfd41db.jpg",
    "address": "شارع ثابت بن سنان، Irbid, Jordan",
    "city": "إربد",
    "zipcode": "22110",
    "countryFullName": "Jordan",
    "lng": 35.842849910259,
    "lat": 32.538562500664
  },
  {
    "slug": "masjid-al-rahman-hay-nazzal-11171-amman-jordan",
    "name": "مسجد الرحمن",
    "image1": "https://cdn.mawaqit.net/images/backend/mosque/c89d1b9a-2ad4-4fd4-a5f7-a23eb3fb0d1e/mosque/1f01accc-e3f6-62fc-b81b-0e61b0058d45.jpeg",
    "address": "حي نزال",
    "city": "عمان",
    "zipcode": "11171",
    "countryFullName": "Jordan",
    "lng": 35.915738940239,
    "lat": 31.928745534285
  },
  {
    "slug": "msjd-ltdmn-mkns-50050-morocco",
    "name": "مسجد البشرى",
    "image1": "https://cdn.mawaqit.net/images/backend/mosque/31b402b5-282c-47ed-9ec3-0acd80094385/mosque/1f01a2a5-5453-6c66-91cf-06bdda781935.jpg",
    "address": "المدينة الرياضية",
    "city": "عمان",
    "zipcode": "50050",
    "countryFullName": "Jordan",
    "lng": 35.8981823,
    "lat": 31.9858895
  },
  {
    "slug": "masjid-al-hajjah-hafiza-al-qatarneh-abdulbaset-street-muqabalin-11623-amman-jordan",
    "name": "مسجد الحاجة حفيظة القطارنة",
    "image1": "https://cdn.mawaqit.net/images/backend/mosque/e0637064-5569-4a30-93d8-e8646e66a076/mosque/1f01b7df-827c-6bc0-b1c6-0ac73cfd41db.png",
    "address": "شارع عبدالباسط، المقابلين",
    "city": "عمان",
    "zipcode": "11623",
    "countryFullName": "Jordan",
    "lng": 35.9041044,
    "lat": 31.896224
  },
  {
    "slug": "masjid-kufr-awan-al-kabir-kufr-awan-21764-irbid-jordan",
    "name": "مسجد كفرعوان الكبير",
    "image1": "https://cdn.mawaqit.net/images/backend/mosque/3f4b1b90-199b-47a1-b925-db4b4ca4d3d7/mosque/1f033485-12d7-68b4-b3d4-0a3d2d454b8f.jpeg",
    "address": "كفرعوان",
    "city": "اربد",
    "zipcode": "21764",
    "countryFullName": "Jordan",
    "lng": 35.682867,
    "lat": 32.4244823
  },
  {
    "slug": "msjd-lhrth-bn-ws-lshhly-mdyn-sbh-lhmd-66381-kuwait",
    "name": "مسجد أدر الشمالي",
    "image1": "https://cdn.mawaqit.net/images/backend/mosque/6c008140-38cf-4b94-b3c5-41df13418693/mosque/1f025041-b890-6374-abe2-0e61b0058d45.jpeg",
    "address": "قرية أدر",
    "city": "الكرك",
    "zipcode": "66381",
    "countryFullName": "Jordan",
    "lng": 35.7593545,
    "lat": 31.2057792
  },
  {
    "slug": "msjd-myn-lm-bw-byd-mr-bn-ljrh-al-hanou-962-jordan",
    "name": "مسجد أمين الامة أبو عبيدة عامر بن الجراح",
    "image1": "https://cdn.mawaqit.net/images/backend/mosque/8ca19a72-d038-4dbe-b265-8071472b6851/mosque/1f021297-f98d-6a62-be27-0e61b0058d45.png",
    "address": "بقالة عبود الفالوجي، Al Hanou, Jordan",
    "city": "AL HANOU",
    "zipcode": "962",
    "countryFullName": "Jordan",
    "lng": 35.8498015,
    "lat": 32.077992
  },
  {
    "slug": "msjd-m-dh-bn-jbl-ain-arnat-19044-algeria-1",
    "name": "مسجد الذاكرين",
    "image1": "https://cdn.mawaqit.net/images/backend/mosque/91c7dbce-f279-43ba-a4a9-05bccf2e5351/mosque/1f020f9f-917d-6f26-ab8f-0e61b0058d45.png",
    "address": "حي نزال",
    "city": "عمان",
    "zipcode": "11131",
    "countryFullName": "Jordan",
    "lng": 35.9135554,
    "lat": 31.9332826
  },
  {
    "slug": "msjd-khdyj-m-lmwmnyn-nb-23000-algeria",
    "name": "مسجد إبراهيم الخليل",
    "image1": "https://cdn.mawaqit.net/images/backend/mosque/96bdf6c4-836a-4a64-9484-c3a3e5be2ed4/mosque/1f025d61-6b07-6a76-b2b8-0ac73cfd41db.jpeg",
    "address": "الشونة الجنوبية منطقة الرامة",
    "city": "الغور الصافي",
    "zipcode": "23000",
    "countryFullName": "Jordan",
    "lng": 35.4873455,
    "lat": 31.0379771
  },
  {
    "slug": "msjd-lhq-lblyd-09000-algeria",
    "name": "مسجد الرملة البيضاء",
    "image1": "https://cdn.mawaqit.net/images/backend/mosque/0bf5ade2-cd4e-471e-ac9d-78de45847370/mosque/1f02351f-a5cd-6580-a8e5-06bdda781935.png",
    "address": "وادي عبدون",
    "city": "عمان",
    "zipcode": "09000",
    "countryFullName": "Jordan",
    "lng": 35.8948896,
    "lat": 31.9424809
  },
  {
    "slug": "masjid-al-mintaqa-al-hurra-al-kabir-13110-zarqa-jordan",
    "name": "مسجد المنطقة الحرة الكبير",
    "image1": "https://cdn.mawaqit.net/images/backend/mosque/0fb47fa8-dd32-47b0-a536-4aa1c1def6bd/mosque/1f034ac0-4f09-6868-b6d8-0a624df8e21b.png",
    "address": "بجانب المنطقة الحرة",
    "city": "الزرقاء",
    "zipcode": "13110",
    "countryFullName": "Jordan",
    "lng": 36.214075684547,
    "lat": 32.090228326992
  },
  {
    "slug": "msjd-lmrhwm-lhj-mhmd-rmdn-frs-hmdn-al-hanou-962-jordan",
    "name": "مسجد المرحوم الحاج محمد رمضان فارس حمدان",
    "image1": "https://cdn.mawaqit.net/images/backend/mosque/07de4d63-6771-43ba-afbf-19e5874c4f00/mosque/1f022956-300f-6fd4-ab34-0ac73cfd41db.jpeg",
    "address": "https://maps.app.goo.gl/9ybrkx1XJyUD5GD67",
    "city": "AL HANOU",
    "zipcode": "962",
    "countryFullName": "Jordan",
    "lng": 35.8347231,
    "lat": 32.0937098
  },
  {
    "slug": "masjid-jabal-tariq-zarqa-13110-jordan",
    "name": "مسجد جبل طارق",
    "image1": "https://cdn.mawaqit.net/images/backend/mosque/2c9e131e-7839-4bf1-880c-f67b81a26234/mosque/1f028dae-2809-65ee-bc22-06df4152832f.png",
    "address": "جبل طارق",
    "city": "الزرقاء",
    "zipcode": "13110",
    "countryFullName": "Jordan",
    "lng": 36.100430488586,
    "lat": 32.037675313493
  },
  {
    "slug": "masjid-sahabi-khubayb-ibn-adiy-al-ays-at-tafilah-00962-jordan",
    "name": "مسجد الصحابي خبيب بن عدي رضي الله عنه",
    "image1": "https://cdn.mawaqit.net/images/backend/mosque/31cb5a91-6948-496d-9234-fbd40d92f397/mosque/1f023880-ee34-68f0-9d19-0ac73cfd41db.jpeg",
    "address": "العيص، At-Tafilah, Jordan",
    "city": "AT-TAFILAH",
    "zipcode": "00962",
    "countryFullName": "Jordan",
    "lng": 35.6160558,
    "lat": 30.8337059
  },
  {
    "slug": "masjid-al-huda-al-bayader-11180-amman-jordan",
    "name": "مسجد الهدى البيادر",
    "image1": "https://cdn.mawaqit.net/images/backend/mosque/4f2c39da-91df-4c5a-9f13-702e50430b63/mosque/1f02bed7-7b4f-65c8-a5e9-06e43a43c885.png",
    "address": "الموقع خلف كلية الصناعة، حارة بربرة",
    "city": "عمان",
    "zipcode": "11180",
    "countryFullName": "Jordan",
    "lng": 35.825943946838,
    "lat": 31.949212717352
  },
  {
    "slug": "masjdlfrqn-lwdy-39000-algeria",
    "name": "مسجد اسكان الجامعة الأردنية",
    "image1": "https://cdn.mawaqit.net/images/backend/mosque/07116ff2-299e-4ed7-b153-75fd74b883f5/mosque/1f02c2e2-685e-6374-8985-0ab233a5b545.png",
    "address": "شارع الأدباء، ياجوز",
    "city": "عمان",
    "zipcode": "11954",
    "countryFullName": "Jordan",
    "lng": 35.9135363,
    "lat": 32.0391553
  },
  {
    "slug": "msjd-lhj-mr-hmyd-n-wr-11163-jordan",
    "name": "مسجد محمد علي سلامة العبيدي",
    "image1": "https://cdn.mawaqit.net/images/backend/mosque/8a0f9d86-b79a-4a55-9cfd-291dfce7fcb8/mosque/1f025342-6ff1-6d6c-aa5b-0ac73cfd41db.png",
    "address": "الأخضر، حي نزال",
    "city": "عمان",
    "zipcode": "11163",
    "countryFullName": "Jordan",
    "lng": 35.9135554,
    "lat": 31.9332826
  },
  {
    "slug": "masjid-al-malik-talal-sulayman-musa-al-sukar-al-shunah-al-wusta-18110-jordan",
    "name": "مسجد الملك طلال - سليمان موسى السكر -",
    "image1": "https://cdn.mawaqit.net/images/backend/mosque/5a1fa1db-82ab-43e2-b757-bad462564eb8/mosque/1f02caa5-d598-69a6-8961-0ab233a5b545.png",
    "address": "منطقة الرامة",
    "city": "الشونة الوسطى",
    "zipcode": "18110",
    "countryFullName": "Jordan",
    "lng": 35.6524449,
    "lat": 31.8120694
  },
  {
    "slug": "masjid-tariq-bin-ziyad-jabalnadif-11152-amman-jordan",
    "name": "مسجد طارق بن زياد",
    "image1": "https://cdn.mawaqit.net/images/backend/mosque/fa6e9b83-5429-4d0c-89bf-520c43eb49c4/mosque/1f028c56-ca1f-6a94-a65d-0aa0def8c88b.png",
    "address": "جبل النظيف",
    "city": "عمان",
    "zipcode": "11152",
    "countryFullName": "Jordan",
    "lng": 35.92570066452,
    "lat": 31.93974448034
  },
  {
    "slug": "masjid-abu-bakr-al-siddiq-al-junaid-district-sakhra-ajloun-jordan",
    "name": "مسجد أبو بكر الصديق",
    "image1": "https://cdn.mawaqit.net/images/backend/mosque/a0f7f9e2-194f-498e-9415-e78da812c267/mosque/1f03af7f-759d-6f32-817c-0afdac34284f.png",
    "address": "قضاء الجنيد، بلدة صخرة",
    "city": "عجلون",
    "zipcode": "26810",
    "countryFullName": "Jordan",
    "lng": 35.838046073914,
    "lat": 32.373007135668
  },
  {
    "slug": "al-sahaba-dhahiyat-al-nakheel-mosque-ousman-naseef-street-marj-al-hamam-11180-amman-jordan",
    "name": "مسجد الصحابة ضاحية النخيل",
    "image1": "https://cdn.mawaqit.net/images/backend/mosque/e1fbed19-1bc2-480d-b27f-783ff8b55ace/mosque/1f0324f8-0965-652a-b83d-0e325d5c4035.png",
    "address": "شارع عثمان ناصيف،, مرج الحمام",
    "city": "AMMAN",
    "zipcode": "11180",
    "countryFullName": "Jordan",
    "lng": 35.865624547005,
    "lat": 31.906693601792
  },
  {
    "slug": "msjd-lsbh-lrsyf-2622-jordan",
    "name": "مسجد الصباح",
    "image1": "https://cdn.mawaqit.net/images/backend/mosque/28be37e7-885f-4ced-87c4-ced2b2f66f2a/mosque/1f02d9aa-2d6b-66ca-93f2-0efc9ea15c0b.jpg",
    "address": "الأردن",
    "city": "الرصيفة",
    "zipcode": "2622",
    "countryFullName": "Jordan",
    "lng": 36.02974,
    "lat": 32.02655
  },
  {
    "slug": "msjd-lhd-amman-266-jordan",
    "name": "مسجد الهدى",
    "image1": "https://cdn.mawaqit.net/images/backend/mosque/1062ae2a-b654-44bd-a057-0390dba18846/mosque/1f02dbd5-f3fa-6e26-ad06-0a7da61eec13.jpeg",
    "address": "أبو نصير، عمّان، Jordan",
    "city": "AMMAN",
    "zipcode": "266",
    "countryFullName": "Jordan",
    "lng": 35.879888534546,
    "lat": 32.066392276374
  },
  {
    "slug": "masjid-hawiyah-bint-madhhour-28172-mashari-jordan",
    "name": "مسجد هوية بنت مظهور",
    "image1": "https://cdn.mawaqit.net/images/backend/mosque/51245bc6-14d4-47a1-95e6-93745b854c9c/mosque/1f034d08-97f1-6374-95c6-0e4c23723657.jpeg",
    "address": "الاغوار الشماليه المشارع، الأردن",
    "city": "المشارع",
    "zipcode": "28172",
    "countryFullName": "Jordan",
    "lng": 35.5952245,
    "lat": 32.4465646
  },
  {
    "slug": "msjd-lrwd-lmbrk-mwn-11953-jordan",
    "name": "مسجد الروضة المباركة",
    "image1": "https://cdn.mawaqit.net/images/backend/mosque/36d7a601-5a69-439a-ba5d-8c639a10d261/mosque/1f03412a-3c83-6292-8d7d-0e63ec3f3ff5.jpeg",
    "address": "تلاع العلي، عمّان، الأردن",
    "city": "عمّان",
    "zipcode": "11953",
    "countryFullName": "Jordan",
    "lng": 35.858548879623,
    "lat": 32.003890890694
  },
  {
    "slug": "masjid-dhahiat-almadinah-almunawarah-13134-zarqa-jordan",
    "name": "مسجد ضاحية المدينة المنورة",
    "image1": "https://cdn.mawaqit.net/images/backend/mosque/a899b828-a527-40a9-8474-42a1c97abbde/mosque/1f03cfc6-0b60-6fae-8b33-0e17cda947f5.jpeg",
    "address": "ضاحية المدينة المنورة",
    "city": "ZARQA",
    "zipcode": "13134",
    "countryFullName": "Jordan",
    "lng": 36.0629595,
    "lat": 32.052385
  },
  {
    "slug": "masjid-shuhada-qalat-al-karak-11512-amman-jordan",
    "name": "مسجد شهداء قلعة الكرك",
    "image1": "https://cdn.mawaqit.net/images/backend/mosque/3775c169-7e73-45b5-b172-9cf68553f6ce/mosque/1f037c8b-0066-6920-8d0a-0abb1d73129d.jpeg",
    "address": "قرية سالم",
    "city": "عمان",
    "zipcode": "11512",
    "countryFullName": "Jordan",
    "lng": 35.979487001896,
    "lat": 31.842399588017
  },
  {
    "slug": "al-birr-wa-al-taqwa-mosque-queen-rania-street-salt-jordan",
    "name": "مسجد البر والتقوى",
    "image1": "https://cdn.mawaqit.net/images/backend/mosque/f85088f1-0b9b-4f6e-8c61-05fda7f370f5/mosque/1f03a38a-78e1-6b7c-8fd8-0ebf32fefef3.jpeg",
    "address": "شارع الملكة رانيا",
    "city": "السلط",
    "zipcode": "19110",
    "countryFullName": "Jordan",
    "lng": 35.7414676,
    "lat": 32.0449668
  },
  {
    "slug": "masjid-abu-bakr-al-siddiq-abu-al-siddiq-street-al-mafraq-jordan",
    "name": "مسجد أبو بكر الصديق",
    "image1": "https://cdn.mawaqit.net/images/backend/mosque/7bc1e867-a7b6-4db0-b994-c1fa0a255e4f/mosque/1f03ad5e-9988-68e8-9acf-0ebf32fefef3.png",
    "address": "شارع ابو الصديق المفرق",
    "city": "المفرق",
    "zipcode": "25110",
    "countryFullName": "Jordan",
    "lng": 36.2056081,
    "lat": 32.3360903
  }
]