[
  {
    "slug": "surau-taman-kinarut-ria-papar",
    "name": "SURAU ABU BAKAR SIDDIQ",
    "image1": "https://cdn.mawaqit.net/images/backend/mosque/5ee05025-7076-42fe-851b-f13703107d10/mosque/1eea8de5-f41d-6fb2-ab85-066ed47a7584.jpg",
    "address": "E19, Tkt Bwh, Blk G, Tmn Kinarut Ria, Jln Lama Papar",
    "city": "Papar",
    "zipcode": "89600",
    "countryFullName": "Malaysia",
    "lng": 116.039158,
    "lat": 5.8157075
  },
  {
    "slug": "masjid-al-mukminun-usj-2-subang-jaya-47600-malaysia",
    "name": "Masjid Al-Mukminun USJ 2",
    "image1": "https://cdn.mawaqit.net/images/backend/mosque/b5de017d-0f00-4f7b-ba1c-da37f0103cca/mosque/1eea8e0a-718d-69ce-8b5b-066ed47a7584.jpg",
    "address": "Lot 6 & 8, Jalan USJ 2/4S",
    "city": "Subang-Jaya",
    "zipcode": "47600",
    "countryFullName": "Malaysia",
    "lng": 101.585,
    "lat": 3.05999
  },
  {
    "slug": "surau-wadi-at-taqwa-jasin-77200-malaysia",
    "name": "Surau Wadi At-Taqwa",
    "image1": "https://cdn.mawaqit.net/images/backend/mosque/333d79db-df4c-4670-be51-d010360126d3/mosque/1eea8e0f-e17f-649e-af58-066ed47a7584.jpg",
    "address": "Bandar Jasin Bestari Seksyen 5",
    "city": "Jasin",
    "zipcode": "77200",
    "countryFullName": "Malaysia",
    "lng": 102.39280901674,
    "lat": 2.2838811240234
  },
  {
    "slug": "surau-al-hidayah-taman-mega-jaya-cheras-56100-malaysia",
    "name": "Surau Al-Hidayah - Taman Mega Jaya",
    "image1": "https://cdn.mawaqit.net/images/backend/mosque/702db01c-66b4-4407-9c9d-c93f931996c2/mosque/1eea8e13-7136-6922-a6a9-066ed47a7584.jpg",
    "address": "JALAN MEGA 15, TAMAN MEGA JAYA, 56100 AMPANG, KUALA LUMPUR",
    "city": "Cheras",
    "zipcode": "56100",
    "countryFullName": "Malaysia",
    "lng": 101.7629967,
    "lat": 3.1097198
  },
  {
    "slug": "madrasah-al-hilaliah-kuala-lumpur-53100-malaysia",
    "name": "Madrasah Al-Hilaliah",
    "image1": "https://cdn.mawaqit.net/images/backend/mosque/90c6d407-f79a-489a-a549-489e713819f2/mosque/1eea8e3e-12c9-6a80-9077-066ed47a7584.jpg",
    "address": "109 JALAN MADRASAH GOMBAK SETIA",
    "city": "Kuala-Lumpur",
    "zipcode": "53100",
    "countryFullName": "Malaysia",
    "lng": 101.7166207,
    "lat": 3.2183278
  },
  {
    "slug": "masjid-india-muslim-tengku-kelana-klang-klang-41000-malaysia",
    "name": "Masjid India Muslim Tengku Kelana",
    "image1": "https://cdn.mawaqit.net/images/backend/mosque/875aae76-e665-42ac-9000-8436fabfe582/mosque/1eea8e48-61dc-6bb8-af70-066ed47a7584.jpg",
    "address": "Lot 32, Jalan Tengku Kelana",
    "city": "Klang",
    "zipcode": "41000",
    "countryFullName": "Malaysia",
    "lng": 101.4475424,
    "lat": 3.0419764
  },
  {
    "slug": "surau-al-falah-smk-cyberjaya-cyberjaya-63000-malaysia",
    "name": "SURAU AL-FALAH",
    "image1": "https://cdn.mawaqit.net/images/backend/mosque/70c7bc08-9d55-4c87-b231-e7613767c19f/mosque/1eea8e90-3011-65f0-8d8f-066ed47a7584.jpg",
    "address": "PERSIARAN FAUNA 2, ZON FLAGSHIP 2",
    "city": "CYBERJAYA",
    "zipcode": "63000",
    "countryFullName": "Malaysia",
    "lng": 101.6442225,
    "lat": 2.9114867
  },
  {
    "slug": "surau-al-mukminin-kg-sg-perling-johor-bahru-81200-malaysia",
    "name": "Surau al Mukminin Kg Sg Perling",
    "image1": "https://cdn.mawaqit.net/images/backend/mosque/0e0feebf-5051-4f07-80d8-e1d9b1c6ff36/mosque/1eea8ea8-d600-65c0-96d5-066ed47a7584.jpg",
    "address": "Sungai Perling",
    "city": "JOHOR BAHRU",
    "zipcode": "81200",
    "countryFullName": "Malaysia",
    "lng": 103.663344,
    "lat": 1.5375399
  },
  {
    "slug": "surau-kampung-kubang-buaya-kuantan-25250-malaysia",
    "name": "Surau Kampung Kubang Buaya",
    "image1": "https://cdn.mawaqit.net/images/backend/mosque/3f429010-c1b4-490d-b1fd-efd5f077951c/mosque/1eea8ec3-0409-6556-96d0-066ed47a7584.jpg",
    "address": "Surau Kampung Kubang Buaya, Lorong Kubang Buaya 56, 25250 Kuantan, Pahang, Malaysia",
    "city": "KUANTAN",
    "zipcode": "25250",
    "countryFullName": "Malaysia",
    "lng": 103.346137,
    "lat": 3.8180085
  },
  {
    "slug": "surau-almanar-bandar-putrajaya-62050-malaysia",
    "name": "SURAU المنر PRESINT 14 PUTRAJAYA",
    "image1": "https://cdn.mawaqit.net/images/backend/mosque/47f7f999-4d22-4af0-94f6-ccc2382adbe8/mosque/1eea8ee8-7c95-63ba-8c9a-066ed47a7584.jpg",
    "address": "PRESINT 14",
    "city": "BANDAR PUTRAJAYA",
    "zipcode": "62050",
    "countryFullName": "Malaysia",
    "lng": 101.7205307,
    "lat": 2.9504047
  },
  {
    "slug": "surau-al-falah-batu-pahat-johor-83000-malaysia",
    "name": "Surau Al Falah",
    "image1": "https://cdn.mawaqit.net/images/backend/mosque/74a595c4-d7bc-4d18-b72d-ff335a60e77e/mosque/1eebde4b-c309-6252-ac2e-06acfcd1c88a.jpg",
    "address": "Lot 795, jp 11-1, jalan Pantai",
    "city": "BATU PAHAT, JOHOR",
    "zipcode": "83000",
    "countryFullName": "Malaysia",
    "lng": 102.9243385,
    "lat": 1.8421098
  },
  {
    "slug": "masjid-kampung-seri-ladang-batu-pahat-83100-malaysia",
    "name": "Masjid Jamek Kampung Seri Ladang",
    "image1": "https://cdn.mawaqit.net/images/backend/mosque/4c7aad81-f5c8-4bba-bd83-b57647924fbb/mosque/1eeca2b1-6033-6fa8-b73e-0a7eba2dd6b3.jpg",
    "address": "Jalan Jaya Diri, Kampung Seri Ladang Rengit",
    "city": "BATU PAHAT",
    "zipcode": "83100",
    "countryFullName": "Malaysia",
    "lng": 103.1467449,
    "lat": 1.6866328
  },
  {
    "slug": "surau-maahad-tahfiz-wattalaqqi-almarbawi-kuala-kangsar-33010-malaysia",
    "name": "Surau Maahad Tahfiz Wattalaqqi Almarbawi",
    "image1": "https://cdn.mawaqit.net/images/backend/mosque/13b21cf2-1881-437a-845e-a88533674978/mosque/1eeca56a-a184-64a6-9aa2-06acfcd1c88a.jpg",
    "address": "KAMPUNG TERSUSUN LUBUK MERBAU",
    "city": "KUALA KANGSAR",
    "zipcode": "33010",
    "countryFullName": "Malaysia",
    "lng": 100.8959568,
    "lat": 4.7904696
  },
  {
    "slug": "surau-ar-raudhah-islamiah-kuala-lumpur-54200-malaysia-2",
    "name": "SURAU AR-RAUDHAH ISLAMIAH",
    "image1": "https://cdn.mawaqit.net/images/backend/mosque/2a1b7b18-2a51-4f95-8ccd-8a6769baf44b/mosque/1eed8cdd-5dde-6fa2-b515-0a7eba2dd6b3.jpg",
    "address": "Jalan AU 3/29, Ampang Hulu Klang",
    "city": "KUALA LUMPUR",
    "zipcode": "54200",
    "countryFullName": "Malaysia",
    "lng": 101.7585226,
    "lat": 3.1906401
  },
  {
    "slug": "masjid-bukit-pasir-batu-pahat-batu-pahat-83000-malaysia",
    "name": "MASJID BUKIT PASIR",
    "image1": "https://cdn.mawaqit.net/images/backend/mosque/e84cb53e-a8a6-418b-ae7f-96fa8e15fd24/mosque/1ef641d7-36bf-6356-b403-0e4a41cdad45.jpg",
    "address": "Jalan Bukit Pasir - Tongkang Pecah",
    "city": "BATU PAHAT",
    "zipcode": "83000",
    "countryFullName": "Malaysia",
    "lng": 102.9417685,
    "lat": 1.8741295
  },
  {
    "slug": "masjid-al-taqwa-mukim-pulau-kubang-kerian-16150-malaysia",
    "name": "Masjid Al-Taqwa Mukim Pulau",
    "image1": "https://cdn.mawaqit.net/images/backend/mosque/98737ae1-3d2f-49fb-8de4-fa3b90099e22/mosque/1ef68deb-c4d5-6cc0-bb0d-0e4a41cdad45.jpg",
    "address": "Kampung Pulau Masjid",
    "city": "KUBANG KERIAN",
    "zipcode": "16150",
    "countryFullName": "Malaysia",
    "lng": 102.2861456,
    "lat": 6.092115
  },
  {
    "slug": "surau-ubudiah-jalan-4m-ampang-jaya-ampang-68000-malaysia",
    "name": "SURAU UBUDIAH AMPANG JAYA",
    "image1": "https://cdn.mawaqit.net/images/backend/mosque/d0b6d56b-558d-4ee9-b12d-12fcd442e0eb/mosque/1efaf939-9a47-6630-8e67-0a0389a4e0f5.jpg",
    "address": "21 JALAN 4M AMPANG JAYA",
    "city": "AMPANG",
    "zipcode": "68000",
    "countryFullName": "Malaysia",
    "lng": 101.7706875277,
    "lat": 3.158049714506
  },
  {
    "slug": "masjid-ar-rahman-kedah-06700-malaysia",
    "name": "Masjid Ar Rahman Kampung Paya Kerchut",
    "image1": "https://cdn.mawaqit.net/images/backend/mosque/126f4cf4-5caa-478d-b856-fea56467c219/mosque/1efd88e9-78cd-6f9e-ae7b-0ac178b258e1.jpg",
    "address": "Masjid Ar Rahman, Kampung Paya Kerchut, Mukim Air Puteh",
    "city": "KEDAH",
    "zipcode": "06700",
    "countryFullName": "Malaysia",
    "lng": 100.50556789152,
    "lat": 5.9449870478295
  },
  {
    "slug": "surau-alfalah-seremban-70450-malaysia",
    "name": "SURAU ALFALAH",
    "image1": "https://cdn.mawaqit.net/images/backend/mosque/304b0ff5-b975-4803-bda0-b3ecb0019226/mosque/1eff2044-164c-6da4-ab70-0a7d06691847.jpg",
    "address": "TAMAN BUKIT KELANA, JALAN PAROI-SENAWANG",
    "city": "SEREMBAN",
    "zipcode": "70450",
    "countryFullName": "Malaysia",
    "lng": 101.9788674,
    "lat": 2.715875
  },
  {
    "slug": "surau-annajatul-hasanah-puchong-47100-malaysia",
    "name": "Surau Annajatul Hasanah",
    "image1": "https://cdn.mawaqit.net/images/backend/mosque/89269d95-364e-4e17-b5d3-6ff3874367ed/mosque/1effb4c2-e545-6044-8ec6-0ace4ba5d73d.jpg",
    "address": "Puchong Permai, 47100",
    "city": "PUCHONG",
    "zipcode": "47100",
    "countryFullName": "Malaysia",
    "lng": 101.59710735083,
    "lat": 3.0091217588885
  },
  {
    "slug": "masjid-nur-ehsan-kg-lumat-membakut-89807-malaysia",
    "name": "Masjid Nur Ehsan Kg Lumat",
    "image1": "https://cdn.mawaqit.net/images/backend/mosque/cec11525-fa42-43e5-bdcd-783652ff3b6a/mosque/1f037b75-a076-680a-b479-0e64c74f2ff1.png",
    "address": "Membakut, Sabah, Malaysia",
    "city": "MEMBAKUT",
    "zipcode": "89807",
    "countryFullName": "Malaysia",
    "lng": 115.75609982014,
    "lat": 5.416162937629
  },
  {
    "slug": "surau-hj-maasom-klang-42100-malaysia",
    "name": "SURAU HJ MA'ASOM",
    "image1": "https://cdn.mawaqit.net/images/backend/mosque/9da6badb-8838-4194-ac29-e19305e6406a/mosque/1f03e1ba-6080-6c22-b590-06f7ea63bd95.jpg",
    "address": "3, Jalan Bakti, Kampung Rantau Panjang, Klang, Selangor, Malaysia",
    "city": "KLANG",
    "zipcode": "42100",
    "countryFullName": "Malaysia",
    "lng": 101.4195231,
    "lat": 3.0617661
  }
]