[
  {
    "slug": "masjid-vendredi-boueni-boueni",
    "name": "Masjid Vendredi Boueni - مَسْجِدالجمعة بواني",
    "image1": "https://cdn.mawaqit.net/images/backend/mosque_default_picture.png",
    "address": "13 rue cheikh abdourahmane",
    "city": "Boueni",
    "zipcode": "97624",
    "countryFullName": "Mayotte",
    "lng": 45.0805029,
    "lat": -12.9099576
  },
  {
    "slug": "masjid-aljuman-tsimkoura",
    "name": "مَسْجِد الجُمْعَة Masjid Jumu'ā",
    "image1": "https://cdn.mawaqit.net/images/backend/mosque/1854a938-da21-4cc0-ab41-b82b10b29f06/mosque/1eea8da1-ebdc-68c4-a2fc-066ed47a7584.jpg",
    "address": "Quartier Mosquée Vendredi",
    "city": "Tsimkoura",
    "zipcode": "97620",
    "countryFullName": "Mayotte",
    "lng": 45.13852,
    "lat": -12.940279
  },
  {
    "slug": "mtsangani-mamoudzou",
    "name": "M'Kiri Wa M'Tsapéré M'tsangani",
    "image1": "https://cdn.mawaqit.net/images/backend/mosque/21bbbf62-bd9b-4855-9efd-5bf24ec4b7a4/mosque/1eea8db9-f4b6-6f2c-b3a8-066ed47a7584.jpg",
    "address": "69 route nationale 1 M'Tsapere",
    "city": "Mamoudzou",
    "zipcode": "97600",
    "countryFullName": "Mayotte",
    "lng": 45.2236547,
    "lat": -12.7755466
  },
  {
    "slug": "bandrahari-pamandzi",
    "name": "M'Kiri Wa BANDRAHARI",
    "image1": "https://cdn.mawaqit.net/images/backend/mosque/c665c3d8-0901-4b8c-adbf-2bd6e9d6fb2d/mosque/1eea8dbd-cc98-6514-bf4e-066ed47a7584.jpg",
    "address": "20 RUE BANDRAHARI",
    "city": "Pamandzi",
    "zipcode": "97615",
    "countryFullName": "Mayotte",
    "lng": 45.2829634,
    "lat": -12.7960412
  },
  {
    "slug": "nour-pamandzi",
    "name": "مسجد النور",
    "image1": "https://cdn.mawaqit.net/images/backend/mosque/cdb121e4-fa35-4d59-a40d-bcc96ae4d47b/mosque/1eea8dbd-f02f-625c-92ea-066ed47a7584.jpg",
    "address": "RUE HACHIWAWA BP 60",
    "city": "Pamandzi",
    "zipcode": "97615",
    "countryFullName": "Mayotte",
    "lng": 45.2769509,
    "lat": -12.7990107
  },
  {
    "slug": "nguizi-mamoudzou",
    "name": "M'kiri Wa Nguizi M'TSAPERE",
    "image1": "https://cdn.mawaqit.net/images/backend/mosque/5bb92121-4b54-4506-b510-7ece7524676f/mosque/1eea8dbf-ef42-6d60-a962-066ed47a7584.jpg",
    "address": "Rue ambassadeur M'Tsapéré",
    "city": "Mamoudzou",
    "zipcode": "97600",
    "countryFullName": "Mayotte",
    "lng": 45.222217,
    "lat": -12.7884597
  },
  {
    "slug": "djoumoi-mamoudzou",
    "name": "مسجد الجمعة",
    "image1": "https://cdn.mawaqit.net/images/backend/mosque/51b622d3-f548-4265-a04c-aa69f286b6af/mosque/1eea8dc3-e8dd-6732-84b6-066ed47a7584.jpg",
    "address": "29 rue du commerce",
    "city": "Mamoudzou",
    "zipcode": "97600",
    "countryFullName": "Mayotte",
    "lng": 45.2301542,
    "lat": -12.7818899
  },
  {
    "slug": "jumua-pamandzi",
    "name": "مسجد الجمعة",
    "image1": "https://cdn.mawaqit.net/images/backend/mosque/1fb803c0-ea0f-48e3-b508-d6214cd1bfac/mosque/1eea8dc5-6e6e-603a-9093-066ed47a7584.jpg",
    "address": "8 rue de l'ancienne Stade",
    "city": "Pamandzi",
    "zipcode": "97615",
    "countryFullName": "Mayotte",
    "lng": 45.2829634,
    "lat": -12.7960412
  },
  {
    "slug": "kadjiftecheni-bandraboua",
    "name": "M'kiri KADJIFTCHENI",
    "image1": "https://cdn.mawaqit.net/images/backend/mosque/cab9e61c-7c2e-4ee3-bf7a-76e8fdb70a7a/mosque/1eea8dc5-7d93-6bdc-b7ef-066ed47a7584.jpg",
    "address": "RESPONSABLE DE LA MOSQUEE 1045 RUE DE SOUVENIR",
    "city": "Bandraboua",
    "zipcode": "97650",
    "countryFullName": "Mayotte",
    "lng": 45.1225604,
    "lat": -12.7034213
  },
  {
    "slug": "chadhouli-pamandzi",
    "name": "MASDJID CHADHOULI DKZ",
    "image1": "https://cdn.mawaqit.net/images/backend/mosque/e3d55f83-2c08-4fba-a8fe-4227371debda/mosque/1eea8dc5-e6d1-6086-b879-066ed47a7584.jpg",
    "address": "TROTRODJEOU",
    "city": "Pamandzi",
    "zipcode": "97615",
    "countryFullName": "Mayotte",
    "lng": 45.2829634,
    "lat": -12.7960412
  },
  {
    "slug": "vendredi-mamoudzou",
    "name": "Mosquée de Vendredi de M'Tsapéré",
    "image1": "https://cdn.mawaqit.net/images/backend/mosque/d5521a2d-1212-4ef1-8860-c06c6c136bf7/mosque/1eea8dc5-fd9f-66f0-96e5-066ed47a7584.jpg",
    "address": "120 Route Nationale M'Tsapéré",
    "city": "Mamoudzou",
    "zipcode": "97649",
    "countryFullName": "Mayotte",
    "lng": 45.2214529,
    "lat": -12.7918507
  },
  {
    "slug": "sandavangue-pamandzi",
    "name": "M'kirI Wa SANDRAVOIANGUE",
    "image1": "https://cdn.mawaqit.net/images/backend/mosque/ecd4d08c-9a7b-4e52-af5d-d616eb8bee7c/mosque/1eea8dc6-d619-6bf2-9b3b-066ed47a7584.jpg",
    "address": "27 rue de la Ferme",
    "city": "Pamandzi",
    "zipcode": "97615",
    "countryFullName": "Mayotte",
    "lng": 45.2829634,
    "lat": -12.7960412
  },
  {
    "slug": "vendredi-tsingoni",
    "name": "مسجد الجمعة",
    "image1": "https://cdn.mawaqit.net/images/backend/mosque/bf109b9b-26e5-4155-9e65-86ff96e4f5f5/mosque/1eea8dcb-760a-657c-9482-066ed47a7584.jpg",
    "address": "quartier hadoume",
    "city": "Tsingoni",
    "zipcode": "97680",
    "countryFullName": "Mayotte",
    "lng": 45.1085369,
    "lat": -12.7883663
  },
  {
    "slug": "wastoi-mamoudzou",
    "name": "Masdjidil  Wastoi",
    "image1": "https://cdn.mawaqit.net/images/backend/mosque/0a488154-5e3b-4e5e-a0ed-5f083d8c2c3d/mosque/1eea8dcd-d975-6b6e-8d36-066ed47a7584.jpg",
    "address": "MOSQUEE ANJOUANNAISSE MTSAPERE Mahevantana",
    "city": "Mamoudzou",
    "zipcode": "97600",
    "countryFullName": "Mayotte",
    "lng": 45.2203001,
    "lat": -12.7879039
  },
  {
    "slug": "kaweni-mamoudzou",
    "name": "M'Kiri Wa Djoumoi Kaweni",
    "image1": "https://cdn.mawaqit.net/images/backend/mosque/e56a8c6f-df23-406c-a9c6-a99256fa025e/mosque/1eea8dd1-0521-6fe4-b3a9-066ed47a7584.jpg",
    "address": "bis rue mosquée du vendredi, Kawéni",
    "city": "Mamoudzou",
    "zipcode": "97600",
    "countryFullName": "Mayotte",
    "lng": 45.2209905,
    "lat": -12.7732809
  },
  {
    "slug": "vendredi-mzouazia",
    "name": "M'Kiri Wa Djoumoi Wa Mzouazia",
    "image1": "https://cdn.mawaqit.net/images/backend/mosque/368105eb-2d9b-45a9-b52e-3344699db88e/mosque/1eea8dd1-6143-6070-bcd4-066ed47a7584.jpg",
    "address": "Rue de la Mosquée",
    "city": "Mzouazia",
    "zipcode": "97620",
    "countryFullName": "Mayotte",
    "lng": 45.1501179,
    "lat": -12.9353605
  },
  {
    "slug": "m-wangazidja",
    "name": "M'Kiri Wangazidja",
    "image1": "https://cdn.mawaqit.net/images/backend/mosque/29cf42d8-d2ff-4a79-8bff-ef0a72b72eac/mosque/1eea8dd3-0190-6c70-9279-066ed47a7584.jpg",
    "address": "25 rue du dispensaire",
    "city": "Dzaoudzi-Labattoir",
    "zipcode": "97615",
    "countryFullName": "Mayotte",
    "lng": 45.2716659,
    "lat": -12.7895194
  },
  {
    "slug": "masjid-al-jaumwan-mzouazia",
    "name": "مَسْجِد الْجُمُعَةِ مَرْكَزْ القَرِيَةْ",
    "image1": "https://cdn.mawaqit.net/images/backend/mosque/cc237350-e623-4772-9e5a-a698990f22b2/mosque/1eea8dd3-2c05-6df2-a50c-066ed47a7584.JPG",
    "address": "centre du village",
    "city": "Mzouazia",
    "zipcode": "97620",
    "countryFullName": "Mayotte",
    "lng": 45.1038634,
    "lat": -12.9260444
  },
  {
    "slug": "al-azhar-boueni",
    "name": "M'Kiri Wa HAMOINAMANGA",
    "image1": "https://cdn.mawaqit.net/images/backend/mosque/f80360b2-ead4-4ab4-8fa1-69e40b5acfbd/mosque/1eea8dd3-4f22-6664-912f-066ed47a7584.jpg",
    "address": "QUARTIER HAMOINAMANGA",
    "city": "Boueni",
    "zipcode": "97620",
    "countryFullName": "Mayotte",
    "lng": 45.0816661,
    "lat": -12.9116466
  },
  {
    "slug": "riffay-labattoir",
    "name": "M'Kri Wa RIFFAY",
    "image1": "https://cdn.mawaqit.net/images/backend/mosque/6db2f1cc-ee18-4e54-abf2-6ee2274c6561/mosque/1eea8dd3-aeb8-6600-907c-066ed47a7584.jpg",
    "address": "1 rue mosquée Riffay",
    "city": "Dzaoudzi-Labattoir",
    "zipcode": "97615",
    "countryFullName": "Mayotte",
    "lng": 45.2807831,
    "lat": -12.7878499
  },
  {
    "slug": "tawhid-mamoudzou",
    "name": "مسجد التوحيد",
    "image1": "https://cdn.mawaqit.net/images/backend/mosque/4b74df1f-b157-4acb-83a0-03c3f875fc55/mosque/1eea8dda-018c-6402-b994-066ed47a7584.jpg",
    "address": "64 RUE DU FOYER KAWENI",
    "city": "Mamoudzou",
    "zipcode": "97600",
    "countryFullName": "Mayotte",
    "lng": 45.221129,
    "lat": -12.7737459
  },
  {
    "slug": "mosquee-de-vendredi-moinatrindri-moinatrindri",
    "name": "MOSQUEE DE VENDREDI MOINATRINDRI",
    "image1": "https://cdn.mawaqit.net/images/backend/mosque/dd269089-5dd3-4d8b-82e9-1f21ef4017d3/mosque/1eea8de2-ecfb-6c00-8679-066ed47a7584.jpg",
    "address": "27 AncienVillage",
    "city": "Moinatrindri",
    "zipcode": "97620",
    "countryFullName": "Mayotte",
    "lng": 45.096854,
    "lat": -12.9002934
  },
  {
    "slug": "masjid-islamique-ongojou",
    "name": "مَسْجِد إِسْلاَمِيقْ كَارْدجَانفيندزا",
    "image1": "https://cdn.mawaqit.net/images/backend/mosque/c4ff17ba-ca55-4330-897e-d86238dacce8/mosque/1eea8de6-ba5e-6cb2-bedc-066ed47a7584.jpg",
    "address": "31 rue chissimani",
    "city": "Ongojou",
    "zipcode": "97660",
    "countryFullName": "Mayotte",
    "lng": 45.0991667,
    "lat": -12.7822222
  },
  {
    "slug": "masjid-foumbani-mtsamboro",
    "name": "مَسْجِد الْجُمُعَةِ فُومبَانِي",
    "image1": "https://cdn.mawaqit.net/images/backend/mosque/21ce69d4-3b8b-4284-a8af-09ccec28ec4d/mosque/1eea8de7-15e9-61cc-a918-066ed47a7584.jpg",
    "address": "46.quartier foumbani",
    "city": "Mtsamboro",
    "zipcode": "97630",
    "countryFullName": "Mayotte",
    "lng": 45.068827,
    "lat": -12.7007221
  },
  {
    "slug": "masjid-chadouli-mramadoudou",
    "name": "مَسْجِد الْجُمُعَةِ شَدُولِي",
    "image1": "https://cdn.mawaqit.net/images/backend/mosque/e11c1a35-08ee-4bc5-bd69-0189c5f2cfd7/mosque/1eea8de7-dc20-6ef8-9c2f-066ed47a7584.jpg",
    "address": "mosquee mramadoudou",
    "city": "Mramadoudou",
    "zipcode": "97620",
    "countryFullName": "Mayotte",
    "lng": 45.1545673,
    "lat": -12.9289236
  },
  {
    "slug": "masjid-vendredi-mramadoudou",
    "name": "مَسْجِد الْجُمُعَةِ بَ",
    "image1": "https://cdn.mawaqit.net/images/backend/mosque/2035661b-15d5-46c5-8ca8-e3ab9ddc1f08/mosque/1eea8de8-5264-6092-887e-066ed47a7584.jpg",
    "address": "MRAMADOUDOU  BAS",
    "city": "Mramadoudou",
    "zipcode": "97620",
    "countryFullName": "Mayotte",
    "lng": 45.1545673,
    "lat": -12.9289236
  },
  {
    "slug": "masjid-aljaumwan-ambouditsoha-kani-keli",
    "name": "مَسجِد الْجُمُعَةِ قَرْتِي امبُدِسُحَ",
    "image1": "https://cdn.mawaqit.net/images/backend/mosque/3395c5b8-6412-48ac-9aa9-fe9bd3ac6c19/mosque/1eea8de8-b1a4-64e4-90eb-066ed47a7584.jpg",
    "address": "52 rue de la mairie",
    "city": "Kani-Keli",
    "zipcode": "97625",
    "countryFullName": "Mayotte",
    "lng": 45.1042464,
    "lat": -12.9571733
  },
  {
    "slug": "masjid-kouba-dobossani-mtsamboro",
    "name": "مَسْجِد الْقُبَاء دبوسانْ",
    "image1": "https://cdn.mawaqit.net/images/backend/mosque/4a13aab9-de3b-4b75-a84f-8493d015a939/mosque/1eea8dea-3805-6c62-a6a5-066ed47a7584.jpg",
    "address": "10 Rue assani anassi",
    "city": "Mtsamboro",
    "zipcode": "97630",
    "countryFullName": "Mayotte",
    "lng": 45.0688465,
    "lat": -12.7006306
  },
  {
    "slug": "masjid-wemani-mtsamboro",
    "name": "مَسْجِد بِلَلِ وِمَنِ",
    "image1": "https://cdn.mawaqit.net/images/backend/mosque/88fe412b-54e4-4c64-b2e9-8363c9468e92/mosque/1eea8dea-fa9b-6b14-8927-066ed47a7584.jpg",
    "address": "26 quartier wemani",
    "city": "Mtsamboro",
    "zipcode": "97630",
    "countryFullName": "Mayotte",
    "lng": 45.070632,
    "lat": -12.6966634
  },
  {
    "slug": "masjid-boustoine-mtsahara",
    "name": "مَسْجِد رِيْفَعي بُسْتُوَنْ",
    "image1": "https://cdn.mawaqit.net/images/backend/mosque/585b05c0-cb32-4775-abec-e88e5ace504c/mosque/1eea8deb-3b6e-6128-8eff-066ed47a7584.jpg",
    "address": "11 rue boustoine",
    "city": "Mtsahara",
    "zipcode": "97630",
    "countryFullName": "Mayotte",
    "lng": 45.085174,
    "lat": -12.680058
  },
  {
    "slug": "masjid-aljaumwan-tsoundzou",
    "name": "2 مَسْجِد الْجُمُعَةِ رُت نَسِي نَلْ",
    "image1": "https://cdn.mawaqit.net/images/backend/mosque/4bacd032-5474-4e96-9397-90528d752bf4/mosque/1eea8deb-bc6d-63f0-9d5a-066ed47a7584.jpg",
    "address": "698 route nationale 2",
    "city": "Tsoundzou",
    "zipcode": "97605",
    "countryFullName": "Mayotte",
    "lng": 45.2041887,
    "lat": -12.8081732
  },
  {
    "slug": "masjid-aljaumwan-dembeni",
    "name": "مَسْجِد الْجُمُعَةِ فُنْدِ صَولِحِي",
    "image1": "https://cdn.mawaqit.net/images/backend/mosque/6dab7561-bf35-40a1-8fb8-f5ac3912c764/mosque/1eea8deb-ef72-65ac-affa-066ed47a7584.jpg",
    "address": "5 RUE FOUNDI SOILIHI",
    "city": "Dembeni",
    "zipcode": "97660",
    "countryFullName": "Mayotte",
    "lng": 45.2825033,
    "lat": -12.7981599
  },
  {
    "slug": "masjid-aljaumwan-acoua",
    "name": "مسجد الجامع       حكو",
    "image1": "https://cdn.mawaqit.net/images/backend/mosque/514bf874-d1cd-46df-bc74-33b4c1465f53/mosque/1eea8dec-44a6-63d4-90ab-066ed47a7584.jpg",
    "address": "rue charan acoua",
    "city": "Acoua",
    "zipcode": "97630",
    "countryFullName": "Mayotte",
    "lng": 45.0578911,
    "lat": -12.7256416
  },
  {
    "slug": "masjid-chadhuli-mtsamoudou",
    "name": "مَسْجِد شَدُولِي مسمد",
    "image1": "https://cdn.mawaqit.net/images/backend/mosque/bc8fe3ae-5a2f-4c0b-8f4e-45165456a177/mosque/1eea8dec-8616-6ba2-a0b0-066ed47a7584.jpg",
    "address": "bonovo",
    "city": "Mtsamoudou",
    "zipcode": "97620",
    "countryFullName": "Mayotte",
    "lng": 45.1740161,
    "lat": -12.9633319
  },
  {
    "slug": "masjid-firdaous-bambo-est",
    "name": "مَسْجِد الْفِردَوسِ بنبو",
    "image1": "https://cdn.mawaqit.net/images/backend/mosque/5ad7e5ba-0651-470c-8c55-d5f5b6a535e6/mosque/1eea8ded-4803-6bde-87ff-066ed47a7584.jpg",
    "address": "Quartier mosquee",
    "city": "Bambo-Est",
    "zipcode": "97660",
    "countryFullName": "Mayotte",
    "lng": 45.176597049548,
    "lat": -12.929277834067
  },
  {
    "slug": "masjid-al-jaumwan-ouangani",
    "name": "مَسْجِد الْجُمُعَةِ النور",
    "image1": "https://cdn.mawaqit.net/images/backend/mosque/c2fc8abd-2517-455a-be69-94b9107c8b47/mosque/1eea8ded-91ed-6e16-a4a4-066ed47a7584.jpg",
    "address": "Angle Rue kidimbi & boulevard",
    "city": "Ouangani",
    "zipcode": "97670",
    "countryFullName": "Mayotte",
    "lng": 45.137947757304,
    "lat": -12.849547103641
  },
  {
    "slug": "masjid-al-jaumwan-ar-rahman-kani-be",
    "name": "مَسْجِد الْجُمُعَةِ الرحمن",
    "image1": "https://cdn.mawaqit.net/images/backend/mosque/37af564d-e75a-4cee-b55d-7e975bf58a37/mosque/1eea8ded-a0a0-6986-b5d3-066ed47a7584.jpg",
    "address": "Mosquee de vendredi kani be",
    "city": "Kani-Be",
    "zipcode": "97625",
    "countryFullName": "Mayotte",
    "lng": 45.1057452,
    "lat": -12.9567321
  },
  {
    "slug": "masjid-aljaumwan-choungui",
    "name": "مَسْجِد الْجُمُعَةِ السلام",
    "image1": "https://cdn.mawaqit.net/images/backend/mosque/c4b82e33-eea5-482e-a0be-06f4c73b8c40/mosque/1eea8ded-cf62-6de6-bb35-066ed47a7584.jpg",
    "address": "89 rue MZENARIA",
    "city": "Choungui",
    "zipcode": "97625",
    "countryFullName": "Mayotte",
    "lng": 45.1272358,
    "lat": -12.961981
  },
  {
    "slug": "masjid-ar-rahman-kani-keli",
    "name": "مَسْجِد الرحمن كَانِي كيلِي",
    "image1": "https://cdn.mawaqit.net/images/backend/mosque/99f83b50-9248-4123-8ce4-7e8ba85ced37/mosque/1eea8dee-7f9e-6c0a-9da8-066ed47a7584.jpg",
    "address": "1 Rue de la mosquee des jeunes",
    "city": "Kani-Keli",
    "zipcode": "97625",
    "countryFullName": "Mayotte",
    "lng": 45.1062001,
    "lat": -12.9551984
  },
  {
    "slug": "masjid-al-azhar-tsararano",
    "name": "مَسْجِد الأزْهَر",
    "image1": "https://cdn.mawaqit.net/images/backend/mosque/5c58598e-9d97-418a-94cb-c5f02f0b50da/mosque/1eea8dee-9dc0-62ce-ba6a-066ed47a7584.jpg",
    "address": "18 Rue charles de gaulle",
    "city": "Tsararano",
    "zipcode": "97660",
    "countryFullName": "Mayotte",
    "lng": 45.1708699,
    "lat": -12.8347755
  },
  {
    "slug": "masdjid-noor-passamainty",
    "name": "ACMG Masdjid Foundi Maoulid",
    "image1": "https://cdn.mawaqit.net/images/backend/mosque/c7d226ab-78f8-4049-996e-b256e080c530/mosque/1eea8df0-9bee-6e9e-8d65-066ed47a7584.jpg",
    "address": "2 rue Foundi Boueni Kali",
    "city": "Passamainty",
    "zipcode": "97600",
    "countryFullName": "Mayotte",
    "lng": 45.0790997,
    "lat": -12.906211
  },
  {
    "slug": "mkiri-wa-zazaveri-mamoudzou",
    "name": "M'KIRI WA ZAZAVERI",
    "image1": "https://cdn.mawaqit.net/images/backend/mosque/2d8b0b6e-86d1-4db6-8bbe-60e90632f8cd/mosque/1eea8dfa-c4f7-6908-a7df-066ed47a7584.jpg",
    "address": "9 RUE ZAZAVERI MTSAPERE",
    "city": "Mamoudzou",
    "zipcode": "97600",
    "countryFullName": "Mayotte",
    "lng": 45.227872,
    "lat": -12.7809488
  },
  {
    "slug": "mkiri-wa-said-achiraffi-pamandzi",
    "name": "Masdjid  Mouanlim SAID ACHIRAFFI",
    "image1": "https://cdn.mawaqit.net/images/backend/mosque/9db556fb-bb0c-4f86-8f71-0dd9b50dda22/mosque/1eea8dfb-34f4-61ca-82bb-066ed47a7584.jpg",
    "address": "Lot.SAID ACHIRAFFI",
    "city": "Pamandzi",
    "zipcode": "97615",
    "countryFullName": "Mayotte",
    "lng": 45.2838203,
    "lat": -12.7950103
  },
  {
    "slug": "masdjid-ali-mdahoma-inoussa-pamandzi",
    "name": "مسجد انفو",
    "image1": "https://cdn.mawaqit.net/images/backend/mosque/122525a3-11a3-4f53-a6c9-c2bf3e1ffcac/mosque/1eea8dfb-5381-641c-8ffe-066ed47a7584.jpg",
    "address": "12 RUE MAWANA MADI",
    "city": "Pamandzi",
    "zipcode": "97615",
    "countryFullName": "Mayotte",
    "lng": 45.2814354,
    "lat": -12.7978134
  },
  {
    "slug": "mkiri-wa-mrowale-mrowale",
    "name": "MKIRI WA MROALE",
    "image1": "https://cdn.mawaqit.net/images/backend/mosque/a988ec24-e1d7-47c3-99ba-12b339dc277f/mosque/1eea8dfc-f12f-685c-833d-066ed47a7584.jpg",
    "address": "C/O PRESIDENT ASSOCIATION MROWALE",
    "city": "Mrowale",
    "zipcode": "97680",
    "countryFullName": "Mayotte",
    "lng": 45.127802889371,
    "lat": -12.788744506689
  },
  {
    "slug": "mkiri-wa-djoumoi-wa-sohoa-sohoa",
    "name": "M'Kiri Wa Djoumoi Wa SOHOA",
    "image1": "https://cdn.mawaqit.net/images/backend/mosque/7fb839a6-77b6-42a8-9f2b-8a4fff301f5a/mosque/1eea8dfd-004a-6a4e-a86d-066ed47a7584.JPG",
    "address": "Mosquee de Vendredi SOHOA",
    "city": "Sohoa",
    "zipcode": "97670",
    "countryFullName": "Mayotte",
    "lng": 45.0993383,
    "lat": -12.8492939
  },
  {
    "slug": "mkiri-wa-wani-dzaoudzi-labattoir",
    "name": "M'KIRI WA WANI",
    "image1": "https://cdn.mawaqit.net/images/backend/mosque/927d63d4-e77c-4464-92f2-c3507f26978d/mosque/1eea8dff-3ec7-6b4e-8cb5-066ed47a7584.jpg",
    "address": "39 rue de  commerce",
    "city": "Dzaoudzi-Labattoir",
    "zipcode": "97615",
    "countryFullName": "Mayotte",
    "lng": 45.270911,
    "lat": -12.7886401
  },
  {
    "slug": "mkiri-wa-mronabeja-mronabeja",
    "name": "M'KIRI WA MRONABEJA",
    "image1": "https://cdn.mawaqit.net/images/backend/mosque/1a179615-cca5-4572-82bb-4082b8d1c647/mosque/1eea8dff-4d3b-64b4-bbd4-066ed47a7584.jpg",
    "address": "MR AHAMADA CHANFI NOUVELLE MOSQUEE MRONABEJA",
    "city": "Mronabeja",
    "zipcode": "97625",
    "countryFullName": "Mayotte",
    "lng": 45.124898,
    "lat": -12.9791112
  },
  {
    "slug": "masjid-markzai-sada-97640-mayotte",
    "name": "مسجد مركز بمدينة سادا",
    "image1": "https://cdn.mawaqit.net/images/backend/mosque/55076018-9ff8-4eee-94bd-f668e36b96e0/mosque/1eea8e04-5cf7-622c-83fa-066ed47a7584.jpg",
    "address": "7 rue Moussa Baba; quartier Cavani;",
    "city": "Sada",
    "zipcode": "97640",
    "countryFullName": "Mayotte",
    "lng": 45.098562,
    "lat": -12.849967
  },
  {
    "slug": "mosquee-vendredi-chirongui-97620-mayotte",
    "name": "MOSQUEE VENDREDI",
    "image1": "https://cdn.mawaqit.net/images/backend/mosque/1dd9a5e3-550c-4373-9b69-70c933bd25f1/mosque/1eea8e05-ba32-6a12-b9df-066ed47a7584.JPG",
    "address": "QUARTIER MOSQUEE",
    "city": "Chirongui",
    "zipcode": "97620",
    "countryFullName": "Mayotte",
    "lng": 45.15062,
    "lat": -12.9339923
  },
  {
    "slug": "mkiri-wa-djoumoi-wa-bandrele-bandrele-97660-mayotte",
    "name": "M'Kiri Wa DJOUMOI Wa BANDRELE",
    "image1": "https://cdn.mawaqit.net/images/backend/mosque/7daa18f0-2d44-4769-a022-5d40480502de/mosque/1eea8e0b-ded8-6d8e-b5c3-066ed47a7584.jpg",
    "address": "RUE DE LA MAIRIE",
    "city": "Bandrele",
    "zipcode": "97660",
    "countryFullName": "Mayotte",
    "lng": 45.1944822,
    "lat": -12.9093436
  },
  {
    "slug": "mkiri-wa-djoumoi-sada-97640-mayotte",
    "name": "مسجد الجمعة",
    "image1": "https://cdn.mawaqit.net/images/backend/mosque/75784953-4428-4b41-a207-c99dfcf39ed2/mosque/1eea8e11-7007-64ea-a7d1-066ed47a7584.jpg",
    "address": "Quartier KOUTROUZAHARI",
    "city": "Sada",
    "zipcode": "97640",
    "countryFullName": "Mayotte",
    "lng": 45.1050317,
    "lat": -12.8503231
  },
  {
    "slug": "mkiri-wa-cetam-dzaoudzi-labattoir-97615-mayotte",
    "name": "M'Kiri Wa CETAM",
    "image1": "https://cdn.mawaqit.net/images/backend/mosque/bc86ef38-9a6f-443a-a2a6-9929e1aec122/mosque/1eea8e11-8d65-6640-bb23-066ed47a7584.jpg",
    "address": "7 rue Mosquee CETAM",
    "city": "Dzaoudzi-Labattoir",
    "zipcode": "97615",
    "countryFullName": "Mayotte",
    "lng": 45.2807831,
    "lat": -12.7878499
  },
  {
    "slug": "mkiri-wa-djoumoi-combani-97680-mayotte",
    "name": "M'Kiri Wa Djoumoi - COMBANI",
    "image1": "https://cdn.mawaqit.net/images/backend/mosque/52cd364d-cfdb-4756-ba9b-9ea2f5e6dbcd/mosque/1eea8e12-091c-67e8-91e6-066ed47a7584.jpg",
    "address": "Mosquee de vendredi combani",
    "city": "Combani",
    "zipcode": "97680",
    "countryFullName": "Mayotte",
    "lng": 45.1330807,
    "lat": -12.7903423
  },
  {
    "slug": "mkiri-wa-zaouiya-cheikh-ahmed-soilihi-mamoudzou-97600-mayotte",
    "name": "ZAOUIYA CHEIKH AHMED SOILIHI",
    "image1": "https://cdn.mawaqit.net/images/backend/mosque/2cb2c9ca-bd47-4815-b6cc-c046ec1e6bf0/mosque/1eea8e13-fcb0-6cbe-a9a7-066ed47a7584.jpg",
    "address": "5 MARQUAT MANGUIER",
    "city": "Mamoudzou",
    "zipcode": "97600",
    "countryFullName": "Mayotte",
    "lng": 45.2282013,
    "lat": -12.7848842
  },
  {
    "slug": "mkiri-wa-mbouanatsa-mbouanatsa-97620-mayotte",
    "name": "Masdjid Cheikh COMBO OUSSÉNI",
    "image1": "https://cdn.mawaqit.net/images/backend/mosque/464056c6-d762-4441-b239-3a58850c5624/mosque/1eea8e14-9a5f-6546-8467-066ed47a7584.jpg",
    "address": "MOSQUE MBOUANATSA",
    "city": "Mbouanatsa",
    "zipcode": "97620",
    "countryFullName": "Mayotte",
    "lng": 45.1021109,
    "lat": -12.9438408
  },
  {
    "slug": "mkiri-wa-bahedja-ousseni-sada-97640-mayotte",
    "name": "Masdjid BAHEDJA OUSSENI",
    "image1": "https://cdn.mawaqit.net/images/backend/mosque/12bdca56-4e85-4d01-8e55-e31d6dd77f62/mosque/1eea8e18-6ec2-6358-81bb-066ed47a7584.jpg",
    "address": "Quartier DOMOELI",
    "city": "Sada",
    "zipcode": "97640",
    "countryFullName": "Mayotte",
    "lng": 45.1065289,
    "lat": -12.8466445
  },
  {
    "slug": "masdjid-djouante-dzaoudzi-labattoir-97615-mayotte",
    "name": "مسجد الجمعة",
    "image1": "https://cdn.mawaqit.net/images/backend/mosque/8a70ec68-d33d-41b1-9358-8b5f3dd4d3d0/mosque/1eea8e18-b92e-6702-939b-066ed47a7584.jpg",
    "address": "2 Rue mosquée de vendredi",
    "city": "Dzaoudzi-Labattoir",
    "zipcode": "97615",
    "countryFullName": "Mayotte",
    "lng": 45.2853092,
    "lat": -12.7767003
  },
  {
    "slug": "mkiri-wa-maoulida-mtsapere-97600-mayotte",
    "name": "M'KIRI MAOULIDA AHMED",
    "image1": "https://cdn.mawaqit.net/images/backend/mosque/67d78935-f200-48bc-bba0-9debba5f285d/mosque/1eea8e19-d852-6c7c-8571-066ed47a7584.jpg",
    "address": "ASSO. MOSQUEE YAJOU 63 Rue maeventana",
    "city": "Mtsapere",
    "zipcode": "97600",
    "countryFullName": "Mayotte",
    "lng": 45.2191331,
    "lat": -12.7878373
  },
  {
    "slug": "mkiri-wa-trotro-mtsapere-97600-mayotte",
    "name": "M'KIRI WA TROTRO",
    "image1": "https://cdn.mawaqit.net/images/backend/mosque/6f0d47bc-7c90-4990-a806-c8fc637d6f17/mosque/1eea8e1a-cd1c-6fc8-9a01-066ed47a7584.jpg",
    "address": "ASSO. MOSQUEE MANDZARSOA",
    "city": "Mtsapere",
    "zipcode": "97600",
    "countryFullName": "Mayotte",
    "lng": 45.2229303,
    "lat": -12.7868564
  },
  {
    "slug": "mkiri-wa-guizi-mamoudzou-97600-mayotte",
    "name": "M'Kiri Wa GUIZI",
    "image1": "https://cdn.mawaqit.net/images/backend/mosque/a1ea3e24-b41a-414a-9d94-4a48f55a7e93/mosque/1eea8e1b-e05f-6bc0-8910-066ed47a7584.jpg",
    "address": "24 Rue MGOMBANI",
    "city": "Mamoudzou",
    "zipcode": "97600",
    "countryFullName": "Mayotte",
    "lng": 45.2324545,
    "lat": -12.7821903
  },
  {
    "slug": "mkiri-wa-djoumoi-hanoudrou-97620-mayotte",
    "name": "مَسْجِد الْجُمُعَةِ الرحمن",
    "image1": "https://cdn.mawaqit.net/images/backend/mosque/d6e9160a-f07d-46d4-af9a-82aa52a90c91/mosque/1eea8e22-9a4f-63cc-a44c-066ed47a7584.jpg",
    "address": "Mosquee de vendredi",
    "city": "Hagnoundrou",
    "zipcode": "97620",
    "countryFullName": "Mayotte",
    "lng": 45.1015268,
    "lat": -12.9057117
  },
  {
    "slug": "msjd-ljm-poroani-97620-mayotte",
    "name": "مسجد الجمعة",
    "image1": "https://cdn.mawaqit.net/images/backend/mosque/1224e498-e5aa-4fcd-a6d4-26fb86873b15/mosque/1eea8e2a-5922-6a68-8677-066ed47a7584.jpg",
    "address": "Associat° DJOUMOUANTI ISLAMIAT MOSQUEE VENDREDI POROANI",
    "city": "Poroani",
    "zipcode": "97620",
    "countryFullName": "Mayotte",
    "lng": 45.0970678,
    "lat": -12.9003156
  },
  {
    "slug": "masdjid-nourou-kavani-mdz-97600-mayotte",
    "name": "MASDJID NOUROU",
    "image1": "https://cdn.mawaqit.net/images/backend/mosque/8d55a417-b939-4b87-9d28-984a69433365/mosque/1eea8e2f-d211-6c12-9c6e-066ed47a7584.jpg",
    "address": "24 BIS RUE DE LA MOSQUEE",
    "city": "Kavani-Mdz",
    "zipcode": "97600",
    "countryFullName": "Mayotte",
    "lng": 45.2806221,
    "lat": -12.7878962
  },
  {
    "slug": "mosquee-chababidine-bandrele-97660-mayotte",
    "name": "MOSQUEE CHABABIDINE",
    "image1": "https://cdn.mawaqit.net/images/backend/mosque/18e148e8-ee02-4a8a-8b06-fbeea1add7a0/mosque/1eea8e32-6218-669c-a68b-066ed47a7584.jpg",
    "address": "4 RUE MKOUMAFEJOU",
    "city": "Bandrele",
    "zipcode": "97660",
    "countryFullName": "Mayotte",
    "lng": 45.1928347,
    "lat": -12.9106866
  },
  {
    "slug": "mkiri-wa-chababi-labattoir-97615-mayotte",
    "name": "M'KIRI WA CHABABI",
    "image1": "https://cdn.mawaqit.net/images/backend/mosque/c64c8917-d315-4b7d-a05d-99afb17c503e/mosque/1eea8e32-7f2e-66fa-aef7-066ed47a7584.jpg",
    "address": "21 rue MARIAME ALI",
    "city": "Labattoir",
    "zipcode": "97615",
    "countryFullName": "Mayotte",
    "lng": 45.2853092,
    "lat": -12.7767003
  },
  {
    "slug": "mkafeni-tsingoni-97680-mayotte",
    "name": "MKAFENI",
    "image1": "https://cdn.mawaqit.net/images/backend/mosque/8e6724f0-6f77-45ff-b1e0-d9eda21d52d3/mosque/1eea8e3d-bf5d-69aa-9fdf-066ed47a7584.jpg",
    "address": "MOSQUEE MKAFENI",
    "city": "Tsingoni",
    "zipcode": "97680",
    "countryFullName": "Mayotte",
    "lng": 45.1047941,
    "lat": -12.7905411
  },
  {
    "slug": "mosquee-magarando-vahibe-97600-mamadou-mayotte",
    "name": "Mosquée magarando",
    "image1": "https://cdn.mawaqit.net/images/backend/mosque/a189e6ad-5006-4a3a-87a6-f5a2b12721ec/mosque/1eea8e45-4a7c-675a-aa9d-066ed47a7584.jpg",
    "address": "Ruelle villa",
    "city": "Vahibe",
    "zipcode": "97600 Mamadou",
    "countryFullName": "Mayotte",
    "lng": 45.1763564,
    "lat": -12.7897299
  },
  {
    "slug": "masdjid-oulfay-majicavo-koropa-97690-koungou-mayotte",
    "name": "Masdjid Oulfa",
    "image1": "https://cdn.mawaqit.net/images/backend/mosque/03252b3e-4d82-43f5-b35c-de70963a7b03/mosque/1eea8e49-e4e4-6104-b970-066ed47a7584.jpg",
    "address": "2 rue digole Ajou Majicavo 2 Bandrajou",
    "city": "Majicavo-Koropa",
    "zipcode": "97690, Koungou",
    "countryFullName": "Mayotte",
    "lng": 45.2208438,
    "lat": -12.7464107
  },
  {
    "slug": "mkiri-wa-mirereni-mirereni-97680-mayotte",
    "name": "مسجد الجمعة  MIRERENI",
    "image1": "https://cdn.mawaqit.net/images/backend/mosque/7e0f2e1e-93b8-4048-bf9b-1b185e8b7b07/mosque/1eea8e4b-feba-60c2-a5b2-066ed47a7584.jpg",
    "address": "MME ABDALLAH RAFFOU NOUVELLE MOSQUEE MIRERENI",
    "city": "Mirereni",
    "zipcode": "97680",
    "countryFullName": "Mayotte",
    "lng": 45.1412649,
    "lat": -12.7887999
  },
  {
    "slug": "mkiri-wa-djoumoi-majikavo-koropa-koungou-97600-mayotte",
    "name": "مسجد الجمعة MAJIKAVO KOROPA",
    "image1": "https://cdn.mawaqit.net/images/backend/mosque/86fad184-bd1d-4633-abab-8872fab6d7d0/mosque/1eea8e50-22dd-6cc0-84f7-066ed47a7584.jpg",
    "address": "MOSQUEE DE VENDREDI MAJIKAVO KOROPA",
    "city": "Koungou",
    "zipcode": "97600",
    "countryFullName": "Mayotte",
    "lng": 45.2214975,
    "lat": -12.7725382
  },
  {
    "slug": "mkiri-wa-djoumoi-wa-mronabeja-mronabeja-97625-mronabeja-mayotte",
    "name": "M'KIRI Wa Djoumoi wa MRONABEJA",
    "image1": "https://cdn.mawaqit.net/images/backend/mosque/1c250d1a-47ba-4673-b569-867f2f83e8ea/mosque/1eea8e50-2faa-6e9e-8301-066ed47a7584.jpg",
    "address": "MOSQUEE DE VENDREDI",
    "city": "Mronabeja",
    "zipcode": "97625 MRONABEJA",
    "countryFullName": "Mayotte",
    "lng": 45.124898,
    "lat": -12.9791112
  },
  {
    "slug": "mkiri-wa-kani-keli-kani-keli-97625-mayotte",
    "name": "MOSQUEE LOTISSEMENT DE KANI-BE (MAKKAH)",
    "image1": "https://cdn.mawaqit.net/images/backend/mosque/014cd4e8-535e-4431-b0b7-c84ffb269e32/mosque/1eea8e50-3cc1-6e66-a72c-066ed47a7584.jpg",
    "address": "10 RUE FOUNDI HAMADA MZE",
    "city": "Kani-Keli",
    "zipcode": "97625",
    "countryFullName": "Mayotte",
    "lng": 45.1120971,
    "lat": -12.9655938
  },
  {
    "slug": "mkiri-wa-rassiboinakaime-mamoudzou-97600-mayotte",
    "name": "M'Kiri Wa RassiBoinaKaime",
    "image1": "https://cdn.mawaqit.net/images/backend/mosque/60555c90-0fe7-450c-88d8-6eeb11fcb65e/mosque/1eea8e62-336e-64c4-8f99-066ed47a7584.jpg",
    "address": "Mosquée Rassi Boina Kaime",
    "city": "Mamoudzou",
    "zipcode": "97600",
    "countryFullName": "Mayotte",
    "lng": 45.2235238,
    "lat": -12.7594616
  },
  {
    "slug": "masdjid-baitil-mal-passamainty-97600-mayotte",
    "name": "MASDJID Baitil Mali",
    "image1": "https://cdn.mawaqit.net/images/backend/mosque/de2b0bfd-3410-4794-a06c-266c47461d51/mosque/1eea8e62-40cb-632e-8b9c-066ed47a7584.jpg",
    "address": "MASDJID Baitil Mali",
    "city": "Passamainty",
    "zipcode": "97600",
    "countryFullName": "Mayotte",
    "lng": 45.2079614,
    "lat": -12.802016
  },
  {
    "slug": "mosquee-sim-combani-tsingoni-97680-mayotte",
    "name": "Mosquée SIM COMBANI",
    "image1": "https://cdn.mawaqit.net/images/backend/mosque/3dd9d5dc-b805-4e8c-bf37-8dda8dfb45da/mosque/1eea8e75-d15a-633c-8fc8-066ed47a7584.jpg",
    "address": "43 rue de la SIM COMBANI",
    "city": "Tsingoni",
    "zipcode": "97680",
    "countryFullName": "Mayotte",
    "lng": 45.133766,
    "lat": -12.791725
  },
  {
    "slug": "masjid-ljumua-ntanana-hamjago-97630-mayotte",
    "name": "مَسْجِد الْجُمُعَةِ أنْتَنَنَ",
    "image1": "https://cdn.mawaqit.net/images/backend/mosque/9a41e327-29a6-477a-9e1a-8ea2a7da90cd/mosque/1eea8e77-f88d-66f0-8b1f-066ed47a7584.jpg",
    "address": "46 RUE ANTANANA",
    "city": "Hamjago",
    "zipcode": "97630",
    "countryFullName": "Mayotte",
    "lng": 45.0758322,
    "lat": -12.6890431
  },
  {
    "slug": "masjid-ljumu-a-i-nwrwl-bldy-mtsangadoua-97630-mayotte",
    "name": "مَسْجِد الْجُمُعَةِ نورول بلادي",
    "image1": "https://cdn.mawaqit.net/images/backend/mosque/401f8767-2ea4-4268-a8b2-297109139f5f/mosque/1eea8e79-69f5-6d78-bfcc-066ed47a7584.jpg",
    "address": "190 Rue ranovalagna",
    "city": "Mtsangadoua",
    "zipcode": "97630",
    "countryFullName": "Mayotte",
    "lng": 45.0519024,
    "lat": -12.7086282
  },
  {
    "slug": "masjid-ljumu-a-i-bakari-rijali-mtsangamouji-97650-mayotte",
    "name": "مَسْجِد الْجُمُعَةِ بَكَرِ رِجَلِ",
    "image1": "https://cdn.mawaqit.net/images/backend/mosque/405a9b59-90eb-4af5-828e-29e2c2e87770/mosque/1eea8e7a-370e-61d4-a809-066ed47a7584.jpg",
    "address": "36 Rue bacar ridjal",
    "city": "Mtsangamouji",
    "zipcode": "97650",
    "countryFullName": "Mayotte",
    "lng": 45.086352,
    "lat": -12.763276
  },
  {
    "slug": "masjid-ltisima-slmn-ouangani-97670-mayotte",
    "name": "مَسْجِد لتِسِمَ سلمن",
    "image1": "https://cdn.mawaqit.net/images/backend/mosque/dfcbb3bb-023f-42e7-85a9-c0b501e5551f/mosque/1eea8e7a-abcf-6090-ac23-066ed47a7584.jpg",
    "address": "lotissement selemani",
    "city": "Ouangani",
    "zipcode": "97670",
    "countryFullName": "Mayotte",
    "lng": 45.1378826,
    "lat": -12.848838
  },
  {
    "slug": "masjid-ljumu-a-i-lnwr-passamainti-97600-mayotte",
    "name": "مَسْجِد الْجُمُعَةِ النور",
    "image1": "https://cdn.mawaqit.net/images/backend/mosque/8a1e6080-5ed2-4d75-a2e1-16641d9024a9/mosque/1eea8e7b-14cc-657a-885b-066ed47a7584.jpg",
    "address": "2 rue de vahibe",
    "city": "Passamainti",
    "zipcode": "97600",
    "countryFullName": "Mayotte",
    "lng": 45.2079614,
    "lat": -12.802016
  },
  {
    "slug": "masjid-ljumu-a-i-lmqds-tsararano-97660-mayotte",
    "name": "مسجد الجمعة",
    "image1": "https://cdn.mawaqit.net/images/backend/mosque/d4a8e6d1-4bcf-424e-9a52-80d6cac8157e/mosque/1eea8e7b-22fc-6672-8de7-066ed47a7584.jpg",
    "address": "MOSQUEE VENDREDI TSARARANO",
    "city": "Tsararano",
    "zipcode": "97660",
    "countryFullName": "Mayotte",
    "lng": 45.185744,
    "lat": -12.8462269
  },
  {
    "slug": "masjid-byt-lmqds-kavani-mtsangamouji-97650-mayotte",
    "name": "مَسْجِد بيت المقدس",
    "image1": "https://cdn.mawaqit.net/images/backend/mosque/55b6783c-3afa-4825-9c37-e6eee4a1fde7/mosque/1eea8e7d-904b-6c26-961a-066ed47a7584.jpg",
    "address": "quartier kavani",
    "city": "Mtsangamouji",
    "zipcode": "97650",
    "countryFullName": "Mayotte",
    "lng": 45.0845289,
    "lat": -12.7597066
  },
  {
    "slug": "masjid-kartiy-quartier-mtsangamouji-97650-mayotte",
    "name": "مَسِجِدْ مَدِ دَوُدْ",
    "image1": "https://cdn.mawaqit.net/images/backend/mosque/a8fc5496-572a-4bb1-8a3d-d006cd6a5d86/mosque/1eea8e7d-9eaf-60b0-beef-066ed47a7584.jpg",
    "address": "QUARTIER MOSQUEE 100",
    "city": "Mtsangamouji",
    "zipcode": "97650",
    "countryFullName": "Mayotte",
    "lng": 45.0863419,
    "lat": -12.7583087
  },
  {
    "slug": "masjid-lnwr-shkn-chiconi-97670-mayotte",
    "name": "مَسْجِد النور شكن",
    "image1": "https://cdn.mawaqit.net/images/backend/mosque/9161f114-5caa-4cd5-9e43-8f830d7b062c/mosque/1eea8e7e-08e7-6a5e-b362-066ed47a7584.jpg",
    "address": "28 Rue de la providence",
    "city": "Chiconi",
    "zipcode": "97670",
    "countryFullName": "Mayotte",
    "lng": 45.114574,
    "lat": -12.8289119
  },
  {
    "slug": "masd-lsh-y-tsararano-97660-mayotte",
    "name": "مَسْجِد الشافعي",
    "image1": "https://cdn.mawaqit.net/images/backend/mosque/292198e8-5e6c-4b32-a174-a27f3f031887/mosque/1eea8e81-81cd-61aa-996c-066ed47a7584.jpg",
    "address": "61 CHEMIN GROS PIMENT",
    "city": "Tsararano",
    "zipcode": "97660",
    "countryFullName": "Mayotte",
    "lng": 45.170772,
    "lat": -12.83863
  },
  {
    "slug": "msjd-lrhmn-mdyn-mtsamboro-97630-mayotte",
    "name": "مسجد الرحمن مدين",
    "image1": "https://cdn.mawaqit.net/images/backend/mosque/dba33ca9-de94-4cca-b4b9-73d476532386/mosque/1eea8e85-3fc4-689a-9459-066ed47a7584.jpg",
    "address": "409 RUE BOINA MARI",
    "city": "Mtsamboro",
    "zipcode": "97630",
    "countryFullName": "Mayotte",
    "lng": 45.069522,
    "lat": -12.6976099
  },
  {
    "slug": "masjid-ljumu-a-i-barakan-barakani-97670-mayotte",
    "name": "مَسْجِد الْجُمُعَةِ بَرَكَنْ",
    "image1": "https://cdn.mawaqit.net/images/backend/mosque/b52b5a62-ba7b-4ec0-9954-0ed6fde0b655/mosque/1eea8e85-d090-6c52-97f5-066ed47a7584.jpg",
    "address": "RUE DU STADE",
    "city": "Barakani",
    "zipcode": "97670",
    "countryFullName": "Mayotte",
    "lng": 45.1317025,
    "lat": -12.8367459
  },
  {
    "slug": "masjidljumu-a-i-musmd-mtsamoudou-97660-mayotte",
    "name": "مَسْجِد الْجُمُعَةِ النور مُسَمُدُ",
    "image1": "https://cdn.mawaqit.net/images/backend/mosque/2006ff4d-fc93-4332-b206-7ff3a3607c0f/mosque/1eea8e88-1637-6ace-871c-066ed47a7584.jpg",
    "address": "RUE MOSQUEE VENDREDI",
    "city": "MTSAMOUDOU",
    "zipcode": "97660",
    "countryFullName": "Mayotte",
    "lng": 45.1615383,
    "lat": -12.9720585
  },
  {
    "slug": "masjid-lmqds-tsoundzou-ii-97600-mayotte",
    "name": "مَسْجِد بَيْتِ المُقَدَسْ",
    "image1": "https://cdn.mawaqit.net/images/backend/mosque/869e4c4e-47a8-40d8-a906-e6ec5c1818fb/mosque/1eea8e88-c54a-6052-a90a-066ed47a7584.jpg",
    "address": "43 ROUTE NATIONALE",
    "city": "TSOUNDZOU",
    "zipcode": "97600",
    "countryFullName": "Mayotte",
    "lng": 45.202107,
    "lat": -12.806267
  },
  {
    "slug": "mkiri-wa-kavani-be-passamainty-97600-mayotte",
    "name": "M'Kiri Wa Kavani Bé",
    "image1": "https://cdn.mawaqit.net/images/backend/mosque/a664aacb-0675-42d0-83fb-cdfe15e5cce5/mosque/1eea8e88-e7af-65e8-9e3d-066ed47a7584.jpg",
    "address": "2 ruelle BA SIFA",
    "city": "PASSAMAINTY",
    "zipcode": "97600",
    "countryFullName": "Mayotte",
    "lng": 45.210744,
    "lat": -12.80225
  },
  {
    "slug": "msjd-lsnt-doujani-97600-mayotte",
    "name": "MASDJID SUNNAH",
    "image1": "https://cdn.mawaqit.net/images/backend/mosque/ce0d361e-0f0d-4710-aa9d-976f7541de4a/mosque/1eea8e8a-c5dd-6a76-8eeb-066ed47a7584.jpg",
    "address": "Rue du college de Doujani",
    "city": "DOUJANI",
    "zipcode": "97600",
    "countryFullName": "Mayotte",
    "lng": 45.2130525,
    "lat": -12.7938987
  },
  {
    "slug": "mkiri-wa-mozdlifa-labattoir-97615-mayotte",
    "name": "M'Kiri wa Mouzdalifa",
    "image1": "https://cdn.mawaqit.net/images/backend/mosque/a3f9bc8a-c937-46e6-af57-6cca3a4c343a/mosque/1eea8e8e-bb44-617e-bad6-066ed47a7584.jpg",
    "address": "19 rue de stade",
    "city": "LABATTOIR",
    "zipcode": "97615",
    "countryFullName": "Mayotte",
    "lng": 45.2853092,
    "lat": -12.7767003
  },
  {
    "slug": "mkiri-wa-barakani-mamoudzou-97600-mayotte",
    "name": "M'Kiri wa Barakani",
    "image1": "https://cdn.mawaqit.net/images/backend/mosque/9d3a0a82-715c-4f83-9086-80bd6367bda2/mosque/1eea8e8e-c809-6f9e-a6b2-066ed47a7584.jpg",
    "address": "48 rue Barakani",
    "city": "MAMOUDZOU",
    "zipcode": "97600",
    "countryFullName": "Mayotte",
    "lng": 45.2235238,
    "lat": -12.7594616
  },
  {
    "slug": "masjid-ljumu-a-i-lrhmn-chenbenyoumba-97650-mayotte",
    "name": "مَسْجِد الْجُمُعَةِ الرحمن",
    "image1": "https://cdn.mawaqit.net/images/backend/mosque/2b696957-7f0d-4ca8-b8a8-8ec5d6c494ee/mosque/1eea8e90-e78a-6cd6-b873-066ed47a7584.jpg",
    "address": "quatier encien village",
    "city": "CHENBENYOUMBA",
    "zipcode": "97650",
    "countryFullName": "Mayotte",
    "lng": 45.0781675,
    "lat": -12.7620483
  },
  {
    "slug": "masjid-ildarus-sayd-tsoundzou-97600-mayotte",
    "name": "مسجد عيدروس",
    "image1": "https://cdn.mawaqit.net/images/backend/mosque/ef99c4c5-0b9a-40e7-b250-d99f4c116836/mosque/1eea8e91-045e-63da-9bc5-066ed47a7584.jpg",
    "address": "1642 ROUTE NATIONALE",
    "city": "TSOUNDZOU",
    "zipcode": "97600",
    "countryFullName": "Mayotte",
    "lng": 45.202107,
    "lat": -12.806267
  },
  {
    "slug": "msjd-shababidin-mtsahara-97630-mayotte",
    "name": "مسجد شَبَبِدِنْ",
    "image1": "https://cdn.mawaqit.net/images/backend/mosque/8c4749ac-86ba-4d7a-8868-5b59e36abc02/mosque/1eea8e93-02dc-6802-a4f3-066ed47a7584.jpg",
    "address": "38 RUE DBDOUL ANZIZ",
    "city": "MTSAHARA",
    "zipcode": "97630",
    "countryFullName": "Mayotte",
    "lng": 45.085174,
    "lat": -12.680058
  },
  {
    "slug": "msjd-ljm-mtsangamboua-97650-mayotte",
    "name": "Masdjid Al Djumã Wali Mwalim",
    "image1": "https://cdn.mawaqit.net/images/backend/mosque/5e009ddf-aace-4112-a0b4-04dc3032ad0d/mosque/1eea8e97-d3dd-602e-955c-066ed47a7584.jpg",
    "address": "MTSANGAMBOUA",
    "city": "MTSANGAMBOUA",
    "zipcode": "97650",
    "countryFullName": "Mayotte",
    "lng": 45.1085369,
    "lat": -12.6894393
  },
  {
    "slug": "masjid-masuwlaha-nadaza-mtsamoudou-97620-mayotte",
    "name": "مَسْجِد مَاسُولاَهَا أنَادَازَا",
    "image1": "https://cdn.mawaqit.net/images/backend/mosque/77ca0e63-d5df-4f57-9209-4783714da0f5/mosque/1eea8e99-8787-6902-ac16-066ed47a7584.jpg",
    "address": "46 RUE ANDAZA",
    "city": "MTSAMOUDOU",
    "zipcode": "97620",
    "countryFullName": "Mayotte",
    "lng": 45.1740161,
    "lat": -12.9633319
  },
  {
    "slug": "mosquee-madrassat-masjid-mdrs-mtsangamouji-97650-mayotte",
    "name": "Mosquée Madrassat مَسْجِد مَدْرَسَة",
    "image1": "https://cdn.mawaqit.net/images/backend/mosque/6880a241-d774-43c2-8327-d0a265f31d3c/mosque/1eea8e9d-32f7-6d52-a673-066ed47a7584.jpg",
    "address": "2 Chemin Daoudou Angaya",
    "city": "M’TSANGAMOUJI",
    "zipcode": "97650",
    "countryFullName": "Mayotte",
    "lng": 45.084960180772,
    "lat": -12.760632879562
  },
  {
    "slug": "mkiri-wa-la-vigie-la-vigie-97615-mayotte",
    "name": "M'Kiri wa La Vigie",
    "image1": "https://cdn.mawaqit.net/images/backend/mosque/39e10386-9dfb-48a4-a4e5-68215f96c014/mosque/1eea8ea6-d606-6512-af5e-066ed47a7584.jpg",
    "address": "25 rue Mosquée de la Vigie",
    "city": "LA VIGIE",
    "zipcode": "97615",
    "countryFullName": "Mayotte",
    "lng": 45.2886111,
    "lat": -12.7888889
  },
  {
    "slug": "masjid-coconi-chiconi-97670-mayotte",
    "name": "مسجد كوكون",
    "image1": "https://cdn.mawaqit.net/images/backend/mosque/1be14083-e104-439d-b6fd-2525958c0cf7/mosque/1eea8eaa-64be-6900-816f-066ed47a7584.jpg",
    "address": "16 Avenue de Coconi",
    "city": "CHICONI",
    "zipcode": "97670",
    "countryFullName": "Mayotte",
    "lng": 45.119511,
    "lat": -12.838926
  },
  {
    "slug": "msjd-jm-y-lhy-w-ltrby-mn-jl-lgd-sada-97640-mayotte",
    "name": "مسجد جمعية الحياة و التربية من اجل الغد",
    "image1": "https://cdn.mawaqit.net/images/backend/mosque/15906542-0601-4780-9012-e3dc25aaedcc/mosque/1eea8eab-1f12-691e-b8e0-066ed47a7584.jpg",
    "address": "A3M 73 Rue Younoussa Bamana",
    "city": "SADA",
    "zipcode": "97640",
    "countryFullName": "Mayotte",
    "lng": 45.097202,
    "lat": -12.85235
  },
  {
    "slug": "masjid-ljumu-a-i-hndrym-handrema-97650-mayotte",
    "name": "مَسْجِد الْجُمُعَةِ هاندريما",
    "image1": "https://cdn.mawaqit.net/images/backend/mosque/7e77be91-1297-44f5-9cf9-bf703c0e6772/mosque/1eea8ebe-95d4-61ca-b0d4-066ed47a7584.jpg",
    "address": "Rue mosquee vendredi",
    "city": "HANDREMA",
    "zipcode": "97650",
    "countryFullName": "Mayotte",
    "lng": 45.08246,
    "lat": -12.6825046
  },
  {
    "slug": "mirereni-be-chirongui-97620-mayotte",
    "name": "MIRERENI-BE",
    "image1": "https://cdn.mawaqit.net/images/backend/mosque/f4207f19-0cb8-45d8-8483-493048b9e8d1/mosque/1eea8ec1-6b06-62ec-a85f-066ed47a7584.jpg",
    "address": "120 rue de la liberté",
    "city": "CHIRONGUI",
    "zipcode": "97620",
    "countryFullName": "Mayotte",
    "lng": 45.15528,
    "lat": -12.90589
  },
  {
    "slug": "mosquee-mfilaouni-tsingoni-97680-mayotte",
    "name": "Mosquée MFILAOUNI",
    "image1": "https://cdn.mawaqit.net/images/backend/mosque/0b0709ca-c4d1-46b1-b40f-ed8034039677/mosque/1eea8ec1-af8e-6d6a-8d10-066ed47a7584.jpg",
    "address": "Combani",
    "city": "TSINGONI",
    "zipcode": "97680",
    "countryFullName": "Mayotte",
    "lng": 45.1330807,
    "lat": -12.7903423
  },
  {
    "slug": "mkiri-wa-baiti-salam-labattoir-97615-mayotte",
    "name": "M'Kiri Wa BAITI SALAMA",
    "image1": "https://cdn.mawaqit.net/images/backend/mosque/1a1cb6d4-1b08-4bb2-bbd5-9a44860ff33d/mosque/1eea8ec8-994f-6214-aadc-066ed47a7584.jpg",
    "address": "8 RUE VANILLE",
    "city": "LABATTOIR",
    "zipcode": "97615",
    "countryFullName": "Mayotte",
    "lng": 45.2853092,
    "lat": -12.7767003
  },
  {
    "slug": "masdjid-rahman-mamoudzou-97600-mayotte",
    "name": "MASDJID RAHMAN",
    "image1": "https://cdn.mawaqit.net/images/backend/mosque/7b6f08a0-7f92-4b10-89c1-8295c6534475/mosque/1eea8ec9-9428-6da2-a89e-066ed47a7584.jpg",
    "address": "26 RUE DE COMMERCE",
    "city": "MAMOUDZOU",
    "zipcode": "97600",
    "countryFullName": "Mayotte",
    "lng": 45.229931,
    "lat": -12.7820462
  },
  {
    "slug": "masdjid-djoumoi-trevani-97610-mayotte",
    "name": "مسجد الجمعة",
    "image1": "https://cdn.mawaqit.net/images/backend/mosque/5c77bc85-f1a7-4372-9ed3-aeb4f41d99a8/mosque/1eea8ecc-0136-6b18-9f5a-066ed47a7584.jpg",
    "address": "RTE NATIONAL TREVANI",
    "city": "TREVANI",
    "zipcode": "97610",
    "countryFullName": "Mayotte",
    "lng": 45.197424,
    "lat": -12.7348056
  },
  {
    "slug": "msjd-jm-y-kavani-97600-mayotte",
    "name": "MOSQUEE DE VENDREDI",
    "image1": "https://cdn.mawaqit.net/images/backend/mosque/0b8f60a3-e5ce-43c5-bfdf-a086e88bf64c/mosque/1eebfe64-d64a-6f3a-9230-0ede686d7942.jpg",
    "address": "RUE DARESSALAME",
    "city": "KAVANI",
    "zipcode": "97600",
    "countryFullName": "Mayotte",
    "lng": 45.223014,
    "lat": -12.784577
  },
  {
    "slug": "mosquee-de-vendredi-bandraboua-97650-mayotte",
    "name": "Mosquee de Vendredi",
    "image1": "https://cdn.mawaqit.net/images/backend/mosque/176a1724-db65-44f9-a0b5-6de2449cd0e6/mosque/1eec5678-5753-6ec2-a823-0a7eba2dd6b3.jpg",
    "address": "Nouvelle Mosquee VENDREDI",
    "city": "BANDRABOUA",
    "zipcode": "97650",
    "countryFullName": "Mayotte",
    "lng": 45.1629065,
    "lat": -12.7346826
  },
  {
    "slug": "mkiri-wa-choungui-choungui-97620-mayotte",
    "name": "M'kiri wa CHOUNGUI",
    "image1": "https://cdn.mawaqit.net/images/backend/mosque/ea810068-4bca-4ac0-a29f-42ac1cc28b27/mosque/1eed2df7-a6d2-6cbc-b9cc-06acfcd1c88a.jpg",
    "address": "rue de la mosqueee",
    "city": "CHOUNGUI",
    "zipcode": "97620",
    "countryFullName": "Mayotte",
    "lng": 45.1272358,
    "lat": -12.961981
  },
  {
    "slug": "mkiri-wa-djoumoi-wa-hale-mirereni-97680-mayotte",
    "name": "M'kiri wa djumwa wa hale",
    "image1": "https://cdn.mawaqit.net/images/backend/mosque/69501f82-2644-4390-bc17-26a027c26354/mosque/1eedace4-7623-6de8-ae37-06acfcd1c88a.jpg",
    "address": "MOSQUEE N°1",
    "city": "MIRERENI",
    "zipcode": "97680",
    "countryFullName": "Mayotte",
    "lng": 45.1412649,
    "lat": -12.7887999
  },
  {
    "slug": "msjd-lnwbwy-masdjid-nabawiya-majicavo-koropa-97600-mayotte",
    "name": "مسجد النّبوي - Masdjid Nabawiya",
    "image1": "https://cdn.mawaqit.net/images/backend/mosque/eae60201-a3bc-43b3-acaf-47f82ba0a332/mosque/1eee0f7b-1557-6f2e-a053-0611389194c7.jpeg",
    "address": "60 rue digole majicavo koropa koungou 97600",
    "city": "MAJICAVO KOROPA",
    "zipcode": "97600",
    "countryFullName": "Mayotte",
    "lng": 45.2208438,
    "lat": -12.7464107
  },
  {
    "slug": "mosquee-madi-daoud-mtsangamouji-97650-mayotte",
    "name": "Mosquée MADI DAOUD",
    "image1": "https://cdn.mawaqit.net/images/backend/mosque/48243016-29bd-4d16-8a77-8658f7e28aa6/mosque/1eee1017-2de3-6b00-9b01-0a0c9324ab13.jpg",
    "address": "Quartier Mosquée 100 Villas",
    "city": "M'TSANGAMOUJI",
    "zipcode": "97650",
    "countryFullName": "Mayotte",
    "lng": 45.0863419,
    "lat": -12.7583087
  },
  {
    "slug": "masjid-lbayt-rasoul-lalh-hapandzo-97670-mayotte",
    "name": "مَسْجِد البيت رسول الله",
    "image1": "https://cdn.mawaqit.net/images/backend/mosque/a66a810c-04a8-4c59-bb52-beab68e4281f/mosque/1eee1403-773c-6b5e-a344-0a0c9324ab13.jpg",
    "address": "MOSQUEE DE HAPANDZO",
    "city": "HAPANDZO",
    "zipcode": "97670",
    "countryFullName": "Mayotte",
    "lng": 45.1325429,
    "lat": -12.8352571
  },
  {
    "slug": "mkiri-wa-kavani-bandrele-97660-mayotte",
    "name": "M'Kiri Wa Kavani Bandrélé",
    "image1": "https://cdn.mawaqit.net/images/backend/mosque/c784218d-28b9-45c9-ac38-6c3676242095/mosque/1eee2d59-ba74-64d4-b7d9-0a0c9324ab13.jpg",
    "address": "MOSQUEE kavani",
    "city": "BANDRELE",
    "zipcode": "97660",
    "countryFullName": "Mayotte",
    "lng": 45.1928347,
    "lat": -12.9106866
  },
  {
    "slug": "masjid-brkn-barakani-97670-mayotte",
    "name": "المسجد لله بركن",
    "image1": "https://cdn.mawaqit.net/images/backend/mosque/f414868b-3074-40f8-8fb8-5a2e828e7925/mosque/1eee5439-1c66-6268-b2f2-0a9258a77f81.jpg",
    "address": "quartier lotissement sim",
    "city": "BARAKANI",
    "zipcode": "97670",
    "countryFullName": "Mayotte",
    "lng": 45.1900278,
    "lat": -12.8457347
  },
  {
    "slug": "mosquee-cavani-hamjago-97630-mayotte",
    "name": "مسجد كفن حمجج",
    "image1": "https://cdn.mawaqit.net/images/backend/mosque/2d3ce906-9129-4bb6-8c0d-6d313b512b05/mosque/1eeec38f-fec4-6b6c-a0b3-0621eb7171ad.jpg",
    "address": "CAVANI HAMJAGO",
    "city": "HAMJAGO",
    "zipcode": "97630",
    "countryFullName": "Mayotte",
    "lng": 45.0758322,
    "lat": -12.6890431
  },
  {
    "slug": "masjid-rfii-tsoundzou-97600-mayotte",
    "name": "مَسْجِد رِفَعِي الرّحمٰن",
    "image1": "https://cdn.mawaqit.net/images/backend/mosque/d7389a21-7fb1-4bb6-8311-56c9cedb8af8/mosque/1eeefe7f-a060-676c-8ec1-0aca010661ff.jpg",
    "address": "16 lotissement sim",
    "city": "TSOUNDZOU",
    "zipcode": "97600",
    "countryFullName": "Mayotte",
    "lng": 45.202107,
    "lat": -12.806267
  },
  {
    "slug": "mkiri-wa-nguizi-sada-97640-mayotte",
    "name": "MKIRI WANGUIZI DE SADA",
    "image1": "https://cdn.mawaqit.net/images/backend/mosque/574423c3-1a11-49a3-8a29-5f17aec0f110/mosque/1eef00f4-c608-688a-bb35-0e8f4a8ce035.jpg",
    "address": "RUE DE LA MOSQUEE",
    "city": "SADA",
    "zipcode": "97640",
    "countryFullName": "Mayotte",
    "lng": 45.100210011005,
    "lat": -12.848299638316
  },
  {
    "slug": "masdjid-salam-doujani-97600-mayotte",
    "name": "MASDJID SALAM",
    "image1": "https://cdn.mawaqit.net/images/backend/mosque/489b2e6d-19cf-4d0e-9f45-84355238424d/mosque/1eef1a72-e5f6-6f88-b1b2-0e8f4a8ce035.jpg",
    "address": "RUE DES ECOLES PRIMAIRES",
    "city": "DOUJANI",
    "zipcode": "97600",
    "countryFullName": "Mayotte",
    "lng": 45.2204156,
    "lat": -12.7839082
  },
  {
    "slug": "lmasjid-nayb-tyty-brkn-ouangani-97670-mayotte",
    "name": "الْمَسْجِد نَيبا تيتي بركة الله",
    "image1": "https://cdn.mawaqit.net/images/backend/mosque/709cdc48-52fa-47fb-8dc0-bbaf8c00b8f7/mosque/1eeffee8-fe04-658e-9c9e-0a382b7256a1.jpg",
    "address": "Mosquee quartier gnambo-titi",
    "city": "OUANGANI",
    "zipcode": "97670",
    "countryFullName": "Mayotte",
    "lng": 45.1361439,
    "lat": -12.8464537
  },
  {
    "slug": "mkiri-wa-fundi-combo-soilihi-bandraboua-97650-mayotte",
    "name": "M'Kiri Wa Fundi Combo SOILIHI",
    "image1": "https://cdn.mawaqit.net/images/backend/mosque/be558c00-5271-4830-bd12-cd7c076d6232/mosque/1ef05ec2-0aaa-61c4-99c1-0e8f4a8ce035.jpg",
    "address": "COMBO SOILIHI rue de souvenir",
    "city": "BANDRABOUA",
    "zipcode": "97650",
    "countryFullName": "Mayotte",
    "lng": 45.0840062,
    "lat": -12.755609
  },
  {
    "slug": "msjd-l-sla-myq-mtsangadoua-97630-mayotte",
    "name": "مسجد الإصلاح مسخدووا",
    "image1": "https://cdn.mawaqit.net/images/backend/mosque/03af6202-19d1-44ff-83a3-a4b7fde23a90/mosque/1ef19f87-224b-679a-acc6-0e16b454dc53.jpg",
    "address": "rue ecole maternelle",
    "city": "MTSANGADOUA",
    "zipcode": "97630",
    "countryFullName": "Mayotte",
    "lng": 45.0781584,
    "lat": -12.6833164
  },
  {
    "slug": "lmasjid-soifa-dembeni-97660-mayotte",
    "name": "مسجد صافى",
    "image1": "https://cdn.mawaqit.net/images/backend/mosque/be5b6384-9eb8-4e58-b2c9-a8a9ef5c8d1d/mosque/1ef1a023-0574-68be-b16b-069c71fb446f.jpg",
    "address": "1 rue masdjid soifa",
    "city": "DEMBENI",
    "zipcode": "97660",
    "countryFullName": "Mayotte",
    "lng": 45.192621,
    "lat": -12.8483456
  },
  {
    "slug": "masjid-mtsahara-97630-mayotte",
    "name": "المسجد الكدر MASJID KADRI",
    "image1": "https://cdn.mawaqit.net/images/backend/mosque/f82accff-2cdc-4a6c-913b-6f6ff9894657/mosque/1ef1b63e-ad53-66b2-ba2a-069c71fb446f.jpeg",
    "address": "7 Chemin BAKAMANA",
    "city": "MTSAHARA",
    "zipcode": "97630",
    "countryFullName": "Mayotte",
    "lng": 45.0837325,
    "lat": -12.6819978
  },
  {
    "slug": "masjid-vendredi-mtsahara-97630-mayotte",
    "name": "المسجد الجمع Vendredi",
    "image1": "https://cdn.mawaqit.net/images/backend/mosque/729041a9-fdad-4e2d-ad57-5dfa0cf7ab54/mosque/1ef1b8cc-7651-6444-a38d-069c71fb446f.jpg",
    "address": "1 RUE FOUNDI MAOIRDI",
    "city": "MTSAHARA",
    "zipcode": "97630",
    "countryFullName": "Mayotte",
    "lng": 45.085174,
    "lat": -12.680058
  },
  {
    "slug": "masjid-shasira-hakuwa-acoua-97630-mayotte",
    "name": "مَسْجِد شَسِرَ حَكُوَ",
    "image1": "https://cdn.mawaqit.net/images/backend/mosque/3f483345-e4f5-4fa7-b9bc-379cb0d8df95/mosque/1ef1cb37-fe80-6fe0-9b7d-0aca279fa1dd.jpeg",
    "address": "tchanssira",
    "city": "ACOUA",
    "zipcode": "97630",
    "countryFullName": "Mayotte",
    "lng": 45.0594885,
    "lat": -12.7228823
  },
  {
    "slug": "mosquee-mhajoujou-sada-97640-mayotte",
    "name": "Mosquée MHAJOUJOU",
    "image1": "https://cdn.mawaqit.net/images/backend/mosque/bc5cf924-5864-4af2-8562-e9be462d1592/mosque/1ef1dbd6-114b-614e-b73a-0acd791c875b.jpg",
    "address": "Quartier Mhajoujou",
    "city": "SADA",
    "zipcode": "97640",
    "countryFullName": "Mayotte",
    "lng": 45.098801344591,
    "lat": -12.852341441939
  },
  {
    "slug": "masjid-bilali-barakan-barakani-97670-mayotte",
    "name": "مَسْجِد بِلَلِ بَرَكَنْ",
    "image1": "https://cdn.mawaqit.net/images/backend/mosque/32dbd0e9-0106-4c5c-a2a4-f83450d91564/mosque/1ef2434c-86d2-63e4-93cd-0acd791c875b.jpg",
    "address": "Rue de la convalescence",
    "city": "BARAKANI",
    "zipcode": "97670",
    "countryFullName": "Mayotte",
    "lng": 45.1319117,
    "lat": -12.8374129
  },
  {
    "slug": "mkiri-wa-moya-labattoir-97615-mayotte",
    "name": "M'Kiri Wa MOYA",
    "image1": "https://cdn.mawaqit.net/images/backend/mosque/5fa3f40c-c367-4191-bda8-3c9a198b08bb/mosque/1ef304bf-3683-6dc2-b8b7-0e4a6d39a313.jpg",
    "address": "RUE DE LA MOSQUEE",
    "city": "LABATTOIR",
    "zipcode": "97615",
    "countryFullName": "Mayotte",
    "lng": 45.2807831,
    "lat": -12.7878499
  },
  {
    "slug": "mkiri-wa-vetivert-mamoudzou-97600-mayotte",
    "name": "MKIRI WA VETIVERT",
    "image1": "https://cdn.mawaqit.net/images/backend/mosque/44debcf7-bbdb-4d83-90e8-8240d54ae839/mosque/1ef3d29c-16bf-6d64-803f-0a67bcb0d635.jpg",
    "address": "15 RUE VETI VERT 3 CAVANI",
    "city": "MAMOUDZOU",
    "zipcode": "97600",
    "countryFullName": "Mayotte",
    "lng": 45.223014,
    "lat": -12.784577
  },
  {
    "slug": "masdjidl-hair-poroani-97620-mayotte",
    "name": "MASDJIDL HAIR",
    "image1": "https://cdn.mawaqit.net/images/backend/mosque/505f0af4-9d50-48bf-baae-c10454768b94/mosque/1ef3db7d-fe14-62c0-823a-0a67bcb0d635.jpg",
    "address": "3 RUELLE NIN MBEMBA",
    "city": "POROANI",
    "zipcode": "97620",
    "countryFullName": "Mayotte",
    "lng": 45.142049,
    "lat": -12.89159
  },
  {
    "slug": "mkiri-wa-passi-keli-pass-keli-97625-mayotte",
    "name": "M'kiri Wa PASSI KELI",
    "image1": "https://cdn.mawaqit.net/images/backend/mosque/33b5b205-1780-4132-b7f7-450b7ebcccbf/mosque/1ef48040-a797-6be6-be0b-0eccd22c0f01.jpg",
    "address": "21 RUE SOURATAL MOUSTAKIMA",
    "city": "PASS- KELI",
    "zipcode": "97625",
    "countryFullName": "Mayotte",
    "lng": 45.1260669,
    "lat": -12.9716483
  },
  {
    "slug": "mosquee-de-vendredi-chiconi-chiconi-97670-mayotte",
    "name": "Mosquée de vendredi Chiconi",
    "image1": "https://cdn.mawaqit.net/images/backend/mosque/1fcae907-bb4c-44b8-a1a6-65d4bfdbaeb1/mosque/1ef52647-2380-6a8a-937f-0a67bcb0d635.jpeg",
    "address": "Ruelle Senna",
    "city": "CHICONI",
    "zipcode": "97670",
    "countryFullName": "Mayotte",
    "lng": 45.1143795,
    "lat": -12.8303302
  },
  {
    "slug": "mosquee-de-bandrani-sada-97640-mayotte",
    "name": "Mosquée de Bandrani",
    "image1": "https://cdn.mawaqit.net/images/backend/mosque/7240c7cb-7de5-45db-b99a-ffd0fbffbe61/mosque/1ef65ffa-22e1-603c-927a-0e4a41cdad45.jpg",
    "address": "6 Ruelle Souffou Salima",
    "city": "SADA",
    "zipcode": "97640",
    "countryFullName": "Mayotte",
    "lng": 45.1029245,
    "lat": -12.8467547
  },
  {
    "slug": "mosquee-de-doujani-sada-97640-mayotte",
    "name": "Mosquée de Doujani",
    "image1": "https://cdn.mawaqit.net/images/backend/mosque/eeef8fd3-ec0f-4a4d-9a99-4aa527013a8e/mosque/1ef66004-59b5-6612-9634-0600dbafaeef.jpg",
    "address": "13 Avenue Ahamada Soumaïla",
    "city": "SADA",
    "zipcode": "97640",
    "countryFullName": "Mayotte",
    "lng": 45.1093482,
    "lat": -12.8442234
  },
  {
    "slug": "mosquee-ihiwani-soifa-tsingoni-97680-mayotte",
    "name": "IHIWANI SOIFA MIRERENI",
    "image1": "https://cdn.mawaqit.net/images/backend/mosque/5073f87b-bcfe-4acc-ab4f-4c9c522f9a55/mosque/1ef79b15-17b0-69c2-abf1-0affcb0701ab.jpg",
    "address": "MOSQUEE N°2 MRERENI MIRERENI",
    "city": "TSINGONI",
    "zipcode": "97680",
    "countryFullName": "Mayotte",
    "lng": 45.1590891,
    "lat": -12.8364987
  },
  {
    "slug": "mosquee-hareza-sohoa-97670-mayotte",
    "name": "Mosquée Haréza  ***  مَسْجِدْ حَرِيزَه",
    "image1": "https://cdn.mawaqit.net/images/backend/mosque/953bcb6a-58d6-4416-8f1b-e504e5f181b8/mosque/1efb0768-1c0c-6c9c-b901-066b4b62726d.jpg",
    "address": "2 Rue Mzé Touftrou",
    "city": "SOHOA",
    "zipcode": "97670",
    "countryFullName": "Mayotte",
    "lng": 45.106006,
    "lat": -12.822531
  },
  {
    "slug": "mosquee-lac-dziani-dzaoudzi-labattoir-97615-mayotte",
    "name": "MOSQUEE LAC DZIANI",
    "image1": "https://cdn.mawaqit.net/images/backend/mosque/547a7dec-7a6b-492b-b2de-6d4ce481bdab/mosque/1efb3cc7-51d5-66aa-b75f-065b15099ccb.jpg",
    "address": "7 RUE ABDOU ASSANI MARI",
    "city": "DZAOUDZI-LABATTOIR",
    "zipcode": "97615",
    "countryFullName": "Mayotte",
    "lng": 45.2839528,
    "lat": -12.776773
  },
  {
    "slug": "masjid-shababi-ldyn-barakani-97670-mayotte",
    "name": "مَسْجِد شَبَابِ الدين بَرَكَنْ",
    "image1": "https://cdn.mawaqit.net/images/backend/mosque/ce2f2bb1-09be-41e0-b8dd-1ec7d71c56b3/mosque/1efe56ca-3e45-637c-a6f8-0e61b0058d45.jpg",
    "address": "mosquee chababidine",
    "city": "BARAKANI",
    "zipcode": "97670",
    "countryFullName": "Mayotte",
    "lng": 45.1319117,
    "lat": -12.8374129
  },
  {
    "slug": "centre-islamique-de-mzouazia-almarkaz-boueni-97620-mayotte",
    "name": "CENTRE ISLAMIQUE DE MZOUAZIA ALMARKAZ",
    "image1": "https://cdn.mawaqit.net/images/backend/mosque/6fef3742-8a9c-4685-9119-98f7a691721f/mosque/1efe8992-37bd-6054-99b5-0e61b0058d45.jpeg",
    "address": "MZOUAZIA 42 BOULEVARD DE LA REPUBLIQUE",
    "city": "BOUENI",
    "zipcode": "97620",
    "countryFullName": "Mayotte",
    "lng": 45.1028503,
    "lat": -12.9236643
  },
  {
    "slug": "chababidine-handrema-97650-mayotte",
    "name": "CHABABIDINE",
    "image1": "https://cdn.mawaqit.net/images/backend/mosque/b8350bf1-219a-4245-9c24-aa7fcf7ec9ba/mosque/1eff071a-4709-6d04-8761-0a7d06691847.jpg",
    "address": "400 Rue de la sossotié",
    "city": "HANDREMA",
    "zipcode": "97650",
    "countryFullName": "Mayotte",
    "lng": 45.0991903,
    "lat": -12.6808538
  },
  {
    "slug": "mosquee-mouzdalifat-chiconi-97670-mayotte",
    "name": "MOSQUEE MOUZDALIFAT",
    "image1": "https://cdn.mawaqit.net/images/backend/mosque/6b97e478-c639-4311-9bc1-28e94e00419a/mosque/1eff5339-295b-6332-8b46-0e61b0058d45.jpg",
    "address": "46 RUE DE BILAMBOU",
    "city": "CHICONI",
    "zipcode": "97670",
    "countryFullName": "Mayotte",
    "lng": 45.119406,
    "lat": -12.8323959
  },
  {
    "slug": "masjid-moussa-vitta-chiconi-97670-mayotte",
    "name": "Masjid Moussa Vitta",
    "image1": "https://cdn.mawaqit.net/images/backend/mosque/c71e423d-2658-475a-aa52-dc64aa02a373/mosque/1eff5d3e-440d-6d6a-8aef-0adf9413746d.jpg",
    "address": "2 Montée Paré Mania",
    "city": "CHICONI",
    "zipcode": "97670",
    "countryFullName": "Mayotte",
    "lng": 45.1145127,
    "lat": -12.833177
  },
  {
    "slug": "mosquee-rassi-chiconi-97670-mayotte",
    "name": "Mosquée Rassi",
    "image1": "https://cdn.mawaqit.net/images/backend/mosque/7f86d462-6a6b-4779-8010-aa5e4e1dd4bc/mosque/1eff5ec1-5904-69ce-a819-06ef9144e88f.jpg",
    "address": "709 Avenue de Rassi",
    "city": "CHICONI",
    "zipcode": "97670",
    "countryFullName": "Mayotte",
    "lng": 45.110493,
    "lat": -12.835305
  },
  {
    "slug": "mkiri-wa-gnambotiti-bandrele-97660-mayotte",
    "name": "M'Kiri wa Gnambotiti",
    "image1": "https://cdn.mawaqit.net/images/backend/mosque/6d180563-2f25-406f-be9a-74423dfbc859/mosque/1eff8a85-4e4f-63b8-b9f0-0a2e1c0b5725.jpg",
    "address": "Quartier Mosquée Gnambotiti",
    "city": "BANDRéLé",
    "zipcode": "97660",
    "countryFullName": "Mayotte",
    "lng": 45.1737552,
    "lat": -12.9652969
  },
  {
    "slug": "masdjid-djoumoi-koungou-koungou-97690-mayotte",
    "name": "مسجد الجمعة KOUNGOU",
    "image1": "https://cdn.mawaqit.net/images/backend/mosque/c217d80d-156e-43d8-afd4-32ee5b02386c/mosque/1f003d80-893b-69d2-816e-06bdda781935.jpg",
    "address": "8 RUE MCHEREGOUE",
    "city": "KOUNGOU",
    "zipcode": "97690",
    "countryFullName": "Mayotte",
    "lng": 45.2070326,
    "lat": -12.7361019
  },
  {
    "slug": "amina-amina-hamjago-97630-mayotte",
    "name": "AMINA Amina",
    "image1": "https://cdn.mawaqit.net/images/backend/mosque/a44538b4-b30c-4f00-8b6d-a1f307171483/mosque/1f00635c-a272-67aa-a9c1-0a2e1c0b5725.jpg",
    "address": "295 Route Départementale",
    "city": "HAMJAGO",
    "zipcode": "97630",
    "countryFullName": "Mayotte",
    "lng": 45.0758322,
    "lat": -12.6890431
  },
  {
    "slug": "mkiri-wa-oupie-dzaoudzi-97615-mayotte",
    "name": "M'Kiri Wa Oupie",
    "image1": "https://cdn.mawaqit.net/images/backend/mosque/ec6b4736-b8e4-4825-8ae9-b3a918320911/mosque/1f007d58-a249-6902-a8fb-06bdda781935.jpg",
    "address": "19 RUE OUPIE 2",
    "city": "DZAOUDZI",
    "zipcode": "97615",
    "countryFullName": "Mayotte",
    "lng": 45.2745566,
    "lat": -12.7823426
  },
  {
    "slug": "mkiri-wa-mtsangani-gnambotiti-mamoudzou-passamainty-mayotte",
    "name": "MKIRI WA MTSANGANI GNAMBOTITI",
    "image1": "https://cdn.mawaqit.net/images/backend/mosque/8d54e920-a253-499b-98c2-a7ebd8e6a6ed/mosque/1f009581-4e5d-6640-9daf-0a2e1c0b5725.jpg",
    "address": "MOSQUEE N°24",
    "city": "MAMOUDZOU",
    "zipcode": "PASSAMAINTY",
    "countryFullName": "Mayotte",
    "lng": 45.2079614,
    "lat": -12.802016
  },
  {
    "slug": "masjid-jumua-nyambadao-bandrele-97660-france",
    "name": "Masjid Jumu'a Nyambadao",
    "image1": "https://cdn.mawaqit.net/images/backend/mosque/7946fe2f-cecf-46db-8455-ad51c531311e/mosque/1f009f1d-74ec-6cd4-b12d-0e61b0058d45.jpg",
    "address": "8, chemin Mfenessijou, Nyambadao",
    "city": "BANDRELE",
    "zipcode": "97660",
    "countryFullName": "Mayotte",
    "lng": 45.2027107,
    "lat": -12.8936094
  },
  {
    "slug": "masdjidi-chaduli-poroani-97620-mayotte",
    "name": "MASDJID CHADHULI",
    "image1": "https://cdn.mawaqit.net/images/backend/mosque/26f573bc-5120-4853-bc6c-3fd5e813936b/mosque/1f00d525-e7d7-68b4-914e-0e4fa23cf9cb.jpg",
    "address": "3 ruelle goudrougnou",
    "city": "POROANI",
    "zipcode": "97620",
    "countryFullName": "Mayotte",
    "lng": 45.1402242,
    "lat": -12.8922643
  },
  {
    "slug": "mosquee-de-babamier-dzaoudzi-labattoir-97615-mayotte",
    "name": "Mosquée De Badamier",
    "image1": "https://cdn.mawaqit.net/images/backend/mosque/81b95894-a135-4606-98bd-1c1887290e15/mosque/1f00f160-0a73-6b92-b234-0e61b0058d45.jpg",
    "address": "Rue de la liberté",
    "city": "DZAOUDZI-LABATTOIR",
    "zipcode": "97615",
    "countryFullName": "Mayotte",
    "lng": 45.2762237,
    "lat": -12.7849694
  },
  {
    "slug": "mkirini-bandrajou-nymbadao-97660-mayotte",
    "name": "MKIRINI BANDRAJOU",
    "image1": "https://cdn.mawaqit.net/images/backend/mosque/4b86b28e-8755-410a-84bf-cca427c84f1f/mosque/1f014993-1942-6548-a21a-0ac73cfd41db.jpg",
    "address": "2 impasse Bandrajou",
    "city": "NYMBADAO",
    "zipcode": "97660",
    "countryFullName": "Mayotte",
    "lng": 45.1775265,
    "lat": -12.8814013
  },
  {
    "slug": "mkiri-wa-badjoni-combani-97680-mayotte",
    "name": "M'kiri Wa BADJONI",
    "image1": "https://cdn.mawaqit.net/images/backend/mosque/9b528ebe-365a-4fb2-8dbb-e56e7bfd43c6/mosque/1f016a65-83db-6bbe-aa79-0ac73cfd41db.jpg",
    "address": "rue de la mosquee",
    "city": "COMBANI",
    "zipcode": "97680",
    "countryFullName": "Mayotte",
    "lng": 45.1276917,
    "lat": -12.7887136
  },
  {
    "slug": "mosquee-de-bambao-dzaoudzi-labattoir-97615-mayotte",
    "name": "Mosquée De Bambao",
    "image1": "https://cdn.mawaqit.net/images/backend/mosque/392cfc8c-84b3-44c9-9fe5-ab56f4dbb595/mosque/1f0195be-1bda-65f4-9ea9-06bdda781935.jpg",
    "address": "12 Rue Abdou Rahim",
    "city": "DZAOUDZI-LABATTOIR",
    "zipcode": "97615",
    "countryFullName": "Mayotte",
    "lng": 45.2694834,
    "lat": -12.788712
  },
  {
    "slug": "msjd-lsmd-mtsnjmwjy-mtsangamouji-97650-mayotte",
    "name": "مسْجد الصمد متسانجاموجي",
    "image1": "https://cdn.mawaqit.net/images/backend/mosque/77b86854-8549-4256-9b7c-104c8895287d/mosque/1f01ea4b-013c-6a30-b693-0ac73cfd41db.jpg",
    "address": "12 rue M'colo gueni antanambao chembenyoumba",
    "city": "MTSANGAMOUJI",
    "zipcode": "97650",
    "countryFullName": "Mayotte",
    "lng": 45.0863119,
    "lat": -12.7583116
  },
  {
    "slug": "masjid-la-fiyjy2-mutsnjmwjy-mtsangamouji-97650-mayotte",
    "name": "مَسْجِد لاَ فِيجي2",
    "image1": "https://cdn.mawaqit.net/images/backend/mosque/dccdff75-f0ad-47c4-a2f7-4976ec90cc39/mosque/1f01eb72-61f8-65ea-81ed-0ac73cfd41db.jpg",
    "address": "quartier la vigie 2",
    "city": "MTSANGAMOUJI",
    "zipcode": "97650",
    "countryFullName": "Mayotte",
    "lng": 45.0863419,
    "lat": -12.7583087
  },
  {
    "slug": "mkiri-lotissement-bandraboua-97650-mayotte",
    "name": "MKIRI LOTISSEMENT",
    "image1": "https://cdn.mawaqit.net/images/backend/mosque/038aec55-88ae-4215-9aca-2865ba8880c7/mosque/1f01f7c4-d769-61b8-ace3-0e61b0058d45.jpg",
    "address": "296 RUE MADINDA",
    "city": "BANDRABOUA",
    "zipcode": "97650",
    "countryFullName": "Mayotte",
    "lng": 45.0840062,
    "lat": -12.755609
  },
  {
    "slug": "fangalatoro-manann-mtsangamouji-97650-mayotte",
    "name": "FANGALATORO Manann",
    "image1": "https://cdn.mawaqit.net/images/backend/mosque/f1d58d3b-71ef-42d3-ab1f-bd792c575c13/mosque/1f022db1-12b1-6b7c-8e35-06bdda781935.jpg",
    "address": "M'Tsangamouji, 16 Rue Antanambao, M'Tsangamouji, Mayotte",
    "city": "M'TSANGAMOUJI",
    "zipcode": "97650",
    "countryFullName": "Mayotte",
    "lng": 45.0848638,
    "lat": -12.7573216
  },
  {
    "slug": "mosquee-du-vendredi-bambo-ouest-bambo-ouest-97620-mayotte",
    "name": "Mosquée du vendredi Bambo-Ouest",
    "image1": "https://cdn.mawaqit.net/images/backend/mosque/497b2383-3e94-41d5-8049-037e06cb2d46/mosque/1f02e2ab-792d-67b6-b0e5-0e562460e637.jpg",
    "address": "Rue de la mosquée du vendredi",
    "city": "BAMBO-OUEST",
    "zipcode": "97620",
    "countryFullName": "Mayotte",
    "lng": 45.0966129,
    "lat": -12.8999716
  },
  {
    "slug": "mosquee-al-yachouroutuya-mtsangamouji-97650-mayotte",
    "name": "MOSQUEE AL YACHOUROUTUYA",
    "image1": "https://cdn.mawaqit.net/images/backend/mosque/94451ee8-28b6-4d71-8602-1b3e340882a6/mosque/1f037eaf-b243-6f0a-8280-06e62934e98f.jpg",
    "address": "102 Rue Vatoupefaka, M'Tsangamouji, Mayotte",
    "city": "M'TSANGAMOUJI",
    "zipcode": "97650",
    "countryFullName": "Mayotte",
    "lng": 45.0891105,
    "lat": -12.7581224
  }
]