[
  {
    "slug": "mesquita-central-de-lisboa-lisboa",
    "name": "Mesquita Central de Lisboa",
    "image1": "https://cdn.mawaqit.net/images/backend/mosque/a61023f7-b17d-4780-b647-d79b00f66269/mosque/1efb5467-ec94-6422-bbf6-0a21b15e7a1f.jpeg",
    "address": "Rua da Mesquita nº 2",
    "city": "Lisboa",
    "zipcode": "1070-238",
    "countryFullName": "Portugal",
    "lng": -9.1585153341293,
    "lat": 38.735452222369
  },
  {
    "slug": "aisha-odivelas",
    "name": "Mesquita Aisha Siddika (R.A.)",
    "image1": "https://cdn.mawaqit.net/images/backend/mosque/e1d598e6-6f82-46ad-9638-b1b28e458852/mosque/1eea8dc2-15a1-6f36-8c6e-066ed47a7584.JPG",
    "address": "Av. Prof. Dr. Augusto Abreu Lopes, 58",
    "city": "Odivelas",
    "zipcode": "2675-298",
    "countryFullName": "Portugal",
    "lng": -9.1817700862885,
    "lat": 38.79540317223
  },
  {
    "slug": "massjid-sayyiduna-ussman-r-a-amadora",
    "name": "Massjid Sayyiduna Ussmán (R.A.)",
    "image1": "https://cdn.mawaqit.net/images/backend/mosque/6ff87850-eabf-4552-a18e-c2029f0516dd/mosque/1eea8df0-1ee3-6364-9a85-066ed47a7584.jpg",
    "address": "Rua Narciso Leal, 21",
    "city": "Amadora",
    "zipcode": "2700-600",
    "countryFullName": "Portugal",
    "lng": -9.2398117482662,
    "lat": 38.761276247405
  },
  {
    "slug": "mesquita-de-amadora-lisboa-2700-329-portugal",
    "name": "Mesquita de Amadora",
    "image1": "https://cdn.mawaqit.net/images/backend/mosque/35ac9ddf-7c3b-4ff0-9513-9a0f8806a794/mosque/1eea8e01-fb6f-67a4-a1f1-066ed47a7584.jpg",
    "address": "Rua Luis Gomes 11",
    "city": "Lisboa",
    "zipcode": "2700-329",
    "countryFullName": "Portugal",
    "lng": -9.2375255,
    "lat": 38.761919
  },
  {
    "slug": "mesquita-de-coimbra-coimbra-3020-107-portugal",
    "name": "Mesquita de Coimbra",
    "image1": "https://cdn.mawaqit.net/images/backend/mosque/8ebd1665-0287-47b7-8458-2a756c5116c0/mosque/1eea8e26-b8f1-68da-81e5-066ed47a7584.jpg",
    "address": "R. Bernardo Santareno 201",
    "city": "Coimbra",
    "zipcode": "3020-107",
    "countryFullName": "Portugal",
    "lng": -8.3710719649458,
    "lat": 40.179022172132
  },
  {
    "slug": "mesquita-forte-da-casa-forte-da-casa-2625-408-portugal",
    "name": "Masjid Bilal - Forte da Casa",
    "image1": "https://cdn.mawaqit.net/images/backend/mosque/df4dc17b-0cdc-4605-8acd-1d57efd79d7c/mosque/1eea8e31-0ff2-6a80-b45d-066ed47a7584.jpg",
    "address": "rua dos combatentes nº24",
    "city": "Forte-Da-Casa",
    "zipcode": "2625-408",
    "countryFullName": "Portugal",
    "lng": -9.0557173,
    "lat": 38.8746221
  },
  {
    "slug": "baitul-falah-jam-e-masjid-amadora-2720-130-portugal",
    "name": "Baitul Falah Jam-E-Masjid-Reboleira",
    "image1": "https://cdn.mawaqit.net/images/backend/mosque/6e632fe9-47f2-4c90-bf91-7b3e2028d418/mosque/1eea8e5c-3598-6a48-9f7c-066ed47a7584.jpg",
    "address": "Praceta da Construção de 1976, 6 Cave",
    "city": "Amadora",
    "zipcode": "2720-130",
    "countryFullName": "Portugal",
    "lng": -9.2229491,
    "lat": 38.7494928
  },
  {
    "slug": "masjid-baitur-rahim-lisboa-1000-034-portugal",
    "name": "Masjid Baitur Rahim",
    "image1": "https://cdn.mawaqit.net/images/backend/mosque/e22c2a8a-83df-4e16-8892-d38ef4ffe141/mosque/1eea8e74-a541-6076-8594-066ed47a7584.jpg",
    "address": "Rua Alves Torgo nº 19B",
    "city": "Lisboa",
    "zipcode": "1000-034",
    "countryFullName": "Portugal",
    "lng": -9.1358241,
    "lat": 38.7330829
  },
  {
    "slug": "mesquita-da-colina-do-sol-alfornelos-2650-407-amadora-portugal",
    "name": "Mesquita da Colina do Sol",
    "image1": "https://cdn.mawaqit.net/images/backend/mosque/3ec878f6-be6d-4a90-b790-761753937bc9/mosque/1eea8e81-0c9d-68a8-856e-066ed47a7584.jpg",
    "address": "Rua Josefa de Óbidos 1A",
    "city": "Alfornelos",
    "zipcode": "2650-407 Amadora",
    "countryFullName": "Portugal",
    "lng": -9.2071491,
    "lat": 38.7610701
  },
  {
    "slug": "mesquita-faizan-e-bilal-amadora-2720-178-portugal",
    "name": "Mesquita Faizan E Bilal (Reboleira)",
    "image1": "https://cdn.mawaqit.net/images/backend/mosque/33a466f3-c5ba-47ef-8e1d-55fef7a2db80/mosque/1eea8ec8-578e-6e56-be95-066ed47a7584.jpg",
    "address": "Rua José Gomes Ferreira, 4B",
    "city": "AMADORA",
    "zipcode": "2720-178",
    "countryFullName": "Portugal",
    "lng": -9.2272839,
    "lat": 38.7507767
  },
  {
    "slug": "masjid-ghausia-darul-uloom-odivelas-odivelas-2675-300-portugal",
    "name": "Masjid Ghausia / Darul-Uloom Odivelas",
    "image1": "https://cdn.mawaqit.net/images/backend/mosque/2f2ecea4-b5f3-4be0-beb8-624a4ad4126f/mosque/1eea8ed6-7f76-687a-846f-066ed47a7584.jpg",
    "address": "R. 3 de Abril de 1964 12A",
    "city": "ODIVELAS",
    "zipcode": "2675-300",
    "countryFullName": "Portugal",
    "lng": -9.1789119,
    "lat": 38.793127
  },
  {
    "slug": "faizan-e-madina-caldas-da-rainha-caldas-da-rainha-2500-116-portugal",
    "name": "Faizan e Madina - Caldas Da Rainha",
    "image1": "https://cdn.mawaqit.net/images/backend/mosque/b7ae98d8-cd5c-47f5-8a5d-2915c6c28419/mosque/1eea8ed6-d470-690c-bce2-066ed47a7584.jpg",
    "address": "Rua Fonte do Pinheiro 62",
    "city": "CALDAS DA RAINHA",
    "zipcode": "2500-116",
    "countryFullName": "Portugal",
    "lng": -9.1394045,
    "lat": 39.4092957
  },
  {
    "slug": "mesquita-hazrat-hamza-r-porto-porto-4000-329-portugal",
    "name": "Mesquita Hazrat Hamza (R:)",
    "image1": "https://cdn.mawaqit.net/images/backend/mosque/7cec4f1f-fc7f-459d-bfd0-7fac706b1b3a/mosque/1eea8eda-44c7-66ee-8a92-066ed47a7584.jpg",
    "address": "Travessa do Loureiro No 19A",
    "city": "PORTO",
    "zipcode": "4000-329",
    "countryFullName": "Portugal",
    "lng": -8.6102975,
    "lat": 41.1447729
  },
  {
    "slug": "mesquita-armacao-de-pera-armacao-de-pera-8365-130-portugal",
    "name": "Mesquita Armação de Pêra",
    "image1": "https://cdn.mawaqit.net/images/backend/mosque/97f49a10-6158-49a0-814a-b21bd0e08d9b/mosque/1eea8ee3-a89f-6118-87e3-066ed47a7584.jpg",
    "address": "R Dom Joao II 2 RC",
    "city": "ARMAçãO DE PERA",
    "zipcode": "8365-130",
    "countryFullName": "Portugal",
    "lng": -8.3663456,
    "lat": 37.1031726
  },
  {
    "slug": "masjid-an-nur-moscavide-lisbon-1885-015-portugal",
    "name": "MASJID AN - NUR MOSCAVIDE",
    "image1": "https://cdn.mawaqit.net/images/backend/mosque/d9948e70-f0db-4a7d-818f-2fb1c53edf89/mosque/1eebdfca-9d3c-6d1e-a608-06acfcd1c88a.jpg",
    "address": "RUA BENTO DE JESUS CARACA 46A,",
    "city": "LISBON",
    "zipcode": "1885- 015",
    "countryFullName": "Portugal",
    "lng": -9.102884,
    "lat": 38.7780139
  },
  {
    "slug": "morada-al-masjid-alnoor-santarem-2000-074-portugal",
    "name": "Morada Al Masjid ALNOOR",
    "image1": "https://cdn.mawaqit.net/images/backend/mosque/197bcf27-5581-4102-a3c7-4fd4d4ca1999/mosque/1eed1618-1a54-67d2-9abf-0ede686d7942.jpg",
    "address": "Avenida Antonio Dos Santos Lote1 T/C DRT",
    "city": "SANTAREM",
    "zipcode": "2000-074",
    "countryFullName": "Portugal",
    "lng": -8.6826971,
    "lat": 39.2323077
  },
  {
    "slug": "alges-jam-e-mosque-lisboa-1495-040-portugal",
    "name": "Alges Jam-e Masjid",
    "image1": "https://cdn.mawaqit.net/images/backend/mosque/1f31e9b3-310b-449d-b948-80a613e5a4c5/mosque/1eedb1b8-21ed-6b06-a97c-0a7eba2dd6b3.jpg",
    "address": "Rua Luis de Camoes 41",
    "city": "LISBOA",
    "zipcode": "1495-040",
    "countryFullName": "Portugal",
    "lng": -9.1814551,
    "lat": 38.702772
  },
  {
    "slug": "mesquita-al-belal-sacavem-2685-105-portugal",
    "name": "Mesquita Al belal - Sacavem",
    "image1": "https://cdn.mawaqit.net/images/backend/mosque/353410bb-d94c-418a-8acf-0af67c4c085f/mosque/1eee89dc-e408-6ee6-af19-0a0c9324ab13.jpeg",
    "address": "Pça República 56a",
    "city": "SACAVéM",
    "zipcode": "2685-105",
    "countryFullName": "Portugal",
    "lng": -9.1052565,
    "lat": 38.7952521
  },
  {
    "slug": "at-taqwa-masjid-and-dawah-centre-agualva-cacem-2735-454-portugal",
    "name": "AT~TAQWA MASJID AND DAWAH CENTRE",
    "image1": "https://cdn.mawaqit.net/images/backend/mosque/46996f76-2436-4d6b-ad17-c7a67e5afb26/mosque/1ef2b4c5-b5f6-6734-9d59-0a16580c712d.jpeg",
    "address": "Travessa da Cabine 1 A",
    "city": "AGUALVA-CACéM",
    "zipcode": "2735-454",
    "countryFullName": "Portugal",
    "lng": -9.2994916,
    "lat": 38.7712058
  },
  {
    "slug": "mesquita-vale-da-amoreira-bairro-vale-da-amoreira-velho-2835-277-vale-da-amoreira-portugal",
    "name": "Mesquita Vale da Amoreira",
    "image1": "https://cdn.mawaqit.net/images/backend/mosque/1e2986d9-91ac-4299-ba79-c24e1caabaac/mosque/1ef501a7-cb2d-62de-9226-0eccd22c0f01.jpg",
    "address": "Rua São Jose Operário 21",
    "city": "BAIRRO VALE DA AMOREIRA VELHO",
    "zipcode": "2835-277 Vale da Amoreira",
    "countryFullName": "Portugal",
    "lng": -9.0390419,
    "lat": 38.6483752
  },
  {
    "slug": "masjid-sayyiduna-abu-bakr-siddiq-r-a-amadora-2720-034-portugal",
    "name": "Masjid Sayyiduna Abu Bakr Siddiq (R.A.)",
    "image1": "https://cdn.mawaqit.net/images/backend/mosque/e2604270-e87a-473c-9603-1ef52adb9d15/mosque/1ef69e3b-1732-6cb6-aaa9-0600dbafaeef.jpg",
    "address": "Av. Alves Redol 15,",
    "city": "AMADORA",
    "zipcode": "2720-034",
    "countryFullName": "Portugal",
    "lng": -9.2097444,
    "lat": 38.74738
  },
  {
    "slug": "barreiro-islamic-cultural-center-barreiro-2830-056-portugal-1",
    "name": "Barreiro Islamic Cultural Center",
    "image1": "https://cdn.mawaqit.net/images/backend/mosque/40adea4c-732c-413d-9400-2cb51dacd954/mosque/1ef6c450-7d80-69ce-8f4d-0600dbafaeef.jpg",
    "address": "Rua Voz Do Operário 53B",
    "city": "BARREIRO",
    "zipcode": "2830-056",
    "countryFullName": "Portugal",
    "lng": -9.0627045,
    "lat": 38.659229
  },
  {
    "slug": "darul-arqam-lisbon-1170-214-portugal",
    "name": "Darul Arqam",
    "image1": "https://cdn.mawaqit.net/images/backend/mosque/5e17df11-c446-4261-8cd8-1b3c63feda4b/mosque/1ef76bdc-1043-6602-b5b7-0ecd6770c589.jpg",
    "address": "Rua Maria Andrade 46A",
    "city": "LISBON",
    "zipcode": "1170-214",
    "countryFullName": "Portugal",
    "lng": -9.1336697,
    "lat": 38.7235454
  },
  {
    "slug": "msjd-mshk-lhrm-faro-8000-510-portugal",
    "name": "مسجد مشكاة الحرم",
    "image1": "https://cdn.mawaqit.net/images/backend/mosque/5e9ef3ec-7690-4764-b55f-24aa3794873e/mosque/1efcf7c5-eb86-6e42-87ba-0e61b0058d45.jpeg",
    "address": "ESTRADA NACIONAL 125, NO 144 PATACAO",
    "city": "FARO",
    "zipcode": "8000-510",
    "countryFullName": "Portugal",
    "lng": -7.9527712,
    "lat": 37.0505104
  },
  {
    "slug": "mesquita-da-portela-lisboa-2685-220-portugal",
    "name": "Masjid da Portela",
    "image1": "https://cdn.mawaqit.net/images/backend/mosque/cae4c458-6db2-49c0-a109-6a4597c92f28/mosque/1efee184-48c7-6440-b56c-0e61b0058d45.jpeg",
    "address": "Centro comercial, 2685-220 Portela",
    "city": "LISBOA",
    "zipcode": "2685-220",
    "countryFullName": "Portugal",
    "lng": -9.1117705054423,
    "lat": 38.78272015779
  },
  {
    "slug": "mesquita-de-faro-msjd-frw-faro-8000-505-portugal",
    "name": "Mesquita de Faro - مسجد فارو",
    "image1": "https://cdn.mawaqit.net/images/backend/mosque/c898ee39-1811-49b3-b9f1-653bf65500ce/mosque/1f02b655-84e4-669a-8d7d-0e31fcfe1275.jpg",
    "address": "RUA JOSE PEDRO DE ALMEIDA LJ B N 6B",
    "city": "FARO",
    "zipcode": "8000-505",
    "countryFullName": "Portugal",
    "lng": -7.9213248,
    "lat": 37.0149881
  }
]