[
  {
    "slug": "aicf-pompano-beach",
    "name": "AICF",
    "image1": "https://cdn.mawaqit.net/images/backend/mosque_default_picture.png",
    "address": "NE 5th Ave",
    "city": "Pompano-beach",
    "zipcode": "FL33060",
    "countryFullName": "UNITED STATES",
    "lng": -80.1191265,
    "lat": 26.2459072
  },
  {
    "slug": "islamic-house-of-wisdom-dearborn-heights",
    "name": "Islamic House of Wisdom",
    "image1": "https://cdn.mawaqit.net/images/backend/mosque_default_picture.png",
    "address": "22575 Ann Arbor Trail",
    "city": "Dearborn-heights",
    "zipcode": "48127",
    "countryFullName": "UNITED STATES",
    "lng": -83.2617235,
    "lat": 42.3397739
  },
  {
    "slug": "ma-alaziz-orlando-florida",
    "name": "Masjid Al-Aziz",
    "image1": "https://cdn.mawaqit.net/images/backend/mosque/9630420b-0386-47da-9a13-64d6031b9579/mosque/1eea8da2-44bb-6896-b67b-066ed47a7584.JPG",
    "address": "9501 Satellite blvd unit 110",
    "city": "Orlando-florida",
    "zipcode": "32837",
    "countryFullName": "United States",
    "lng": -81.400826,
    "lat": 28.420643
  },
  {
    "slug": "alrahman-orlando-florida",
    "name": "Masjid Al-Rahman",
    "image1": "https://cdn.mawaqit.net/images/backend/mosque/a085bc09-cda5-45d0-a18e-78976496715d/mosque/1eea8da5-37da-65a2-badc-066ed47a7584.jpg",
    "address": "1089 N. Goldenrod Road",
    "city": "Orlando---Florida",
    "zipcode": "32807",
    "countryFullName": "United States",
    "lng": -81.2834484,
    "lat": 28.5580639
  },
  {
    "slug": "arraheem-orlando-florida",
    "name": "Masjid Al-Raheem",
    "image1": "https://cdn.mawaqit.net/images/backend/mosque/3b07ee93-4082-4a00-bfb5-a1452c34db09/mosque/1eea8da5-4132-63fc-a9d5-066ed47a7584.jpg",
    "address": "4962 Old Winter Garden Road",
    "city": "Orlando---Florida",
    "zipcode": "32811",
    "countryFullName": "United States",
    "lng": -81.4460082,
    "lat": 28.5423395
  },
  {
    "slug": "assalam-sanford",
    "name": "Masjid Al-Salam",
    "image1": "https://cdn.mawaqit.net/images/backend/mosque/527b0da9-9699-493a-a606-381e311956c7/mosque/1eea8da5-45d4-6356-875e-066ed47a7584.JPG",
    "address": "2917 South Orlando Drive",
    "city": "Sanford",
    "zipcode": "32773",
    "countryFullName": "United States",
    "lng": -81.277873,
    "lat": 28.773369
  },
  {
    "slug": "alhaq-orlando-florida",
    "name": "Masjid Al-Haq",
    "image1": "https://cdn.mawaqit.net/images/backend/mosque/f26f6fd4-58d6-45fd-84c9-20c20c024299/mosque/1eea8da5-4a21-663e-ad1f-066ed47a7584.jpg",
    "address": "545 W. Central Road",
    "city": "Orlando---Florida",
    "zipcode": "32801",
    "countryFullName": "United States",
    "lng": -81.386837,
    "lat": 28.5422285
  },
  {
    "slug": "alquds-orlando-florida",
    "name": "Masjid Al-Quddus",
    "image1": "https://cdn.mawaqit.net/images/backend/mosque/cff70a3c-4b95-4dbe-a8c9-c60ab7bdd9d5/mosque/1eea8da5-4ea7-62da-b39d-066ed47a7584.jpg",
    "address": "312 S. Parramore Ave.",
    "city": "Orlando---florida",
    "zipcode": "32805",
    "countryFullName": "United States",
    "lng": -81.3891299,
    "lat": 28.5387281
  },
  {
    "slug": "almumin-titusville",
    "name": "Masjid Al-Mumin",
    "image1": "https://cdn.mawaqit.net/images/backend/mosque/d8913415-684a-4c83-a4c4-3f4fa78109ef/mosque/1eea8da5-52cd-6a30-b5ff-066ed47a7584.jpg",
    "address": "1011 S. Washington (US-1)",
    "city": "Titusville",
    "zipcode": "32780",
    "countryFullName": "United States",
    "lng": -80.8073755,
    "lat": 28.6048721
  },
  {
    "slug": "almalik-orlando-florida",
    "name": "Masjid Al-Malik",
    "image1": "https://cdn.mawaqit.net/images/backend/mosque/6a58560a-e6f2-406c-a016-ce5a6c568742/mosque/1eea8da5-5714-66d4-b8f0-066ed47a7584.jpg",
    "address": "2018 Rouse Road",
    "city": "Orlando---florida",
    "zipcode": "32817",
    "countryFullName": "United States",
    "lng": -81.2247321,
    "lat": 28.5732199
  },
  {
    "slug": "aljabbar-sebring-florida",
    "name": "Masjid Al-Jabbar",
    "image1": "https://cdn.mawaqit.net/images/backend/mosque/ff7a1b91-e3ec-47e6-8c04-69cca343064f/mosque/1eea8da5-6ecb-619c-b97f-066ed47a7584.JPG",
    "address": "5188 Shumacher Road",
    "city": "Sebring---Florida",
    "zipcode": "33872",
    "countryFullName": "United States",
    "lng": -81.518575,
    "lat": 27.515206
  },
  {
    "slug": "alihsaan-orlando",
    "name": "Masjid al-Ihsaan",
    "image1": "https://cdn.mawaqit.net/images/backend/mosque/98e7da8e-f84a-4be9-9149-0c19fcbab420/mosque/1eea8da5-cbe2-64a2-9fc4-066ed47a7584.jpeg",
    "address": "6630 Pershing Ave",
    "city": "Orlando",
    "zipcode": "32822",
    "countryFullName": "United States",
    "lng": -81.2954305,
    "lat": 28.4986378
  },
  {
    "slug": "maryam-debary",
    "name": "مسجد مريم",
    "image1": "https://cdn.mawaqit.net/images/backend/mosque/8b3ec790-6754-4161-ba2d-05ec802b6419/mosque/1eea8daa-4e1f-6542-b0ab-066ed47a7584.jpg",
    "address": "410 Summerhaven Drive",
    "city": "Debary",
    "zipcode": "32713",
    "countryFullName": "United States",
    "lng": -81.2844806,
    "lat": 28.8990202
  },
  {
    "slug": "al-bukhari-islamic-center-orlando-florida",
    "name": "Al-Bukhari Islamic Center",
    "image1": "https://cdn.mawaqit.net/images/backend/mosque/37320348-c37b-4b4d-b5f9-c77348348d60/mosque/1eea8dab-3b7f-6508-ade6-066ed47a7584.JPG",
    "address": "8009 S Orange Avenue",
    "city": "Orlando---Florida",
    "zipcode": "32809",
    "countryFullName": "United States",
    "lng": -81.3638177,
    "lat": 28.4535715
  },
  {
    "slug": "noor-dublin",
    "name": "Noor Islamic Cultural Center",
    "image1": "https://cdn.mawaqit.net/images/backend/mosque/83351633-4329-41d7-9aaa-d77fd417ed95/mosque/1eea8dab-5786-6ec2-898b-066ed47a7584.png",
    "address": "5001 Wilcox Rd",
    "city": "Dublin",
    "zipcode": "43016",
    "countryFullName": "United States",
    "lng": -83.14937,
    "lat": 40.6702
  },
  {
    "slug": "as-sunnah-kissimmee",
    "name": "Masjid As-Sunnah",
    "image1": "https://cdn.mawaqit.net/images/backend/mosque/126b0787-b2b3-4021-ad65-75d9d466b0d0/mosque/1eea8dac-7bf8-6548-8181-066ed47a7584.JPG",
    "address": "1535 Pleasant Hill Road",
    "city": "Kissimmee",
    "zipcode": "34746",
    "countryFullName": "United States",
    "lng": -81.435667,
    "lat": 28.2639949
  },
  {
    "slug": "jama-orlando",
    "name": "Islamic Center of Orlando",
    "image1": "https://cdn.mawaqit.net/images/backend/mosque/592d18f9-3268-425e-a00f-690c0cfed422/mosque/1eea8dac-8a25-6a94-b813-066ed47a7584.JPEG",
    "address": "11543 Ruby Lake Road",
    "city": "Orlando-Florida",
    "zipcode": "32836",
    "countryFullName": "United States",
    "lng": -81.5028103,
    "lat": 28.3984385
  },
  {
    "slug": "dalton-georgia",
    "name": "Dalton Islamic Center",
    "image1": "https://cdn.mawaqit.net/images/backend/mosque/99a459c0-4b34-43ab-b769-c1d89c7efb02/mosque/1eea8dae-9053-6b62-b142-066ed47a7584.JPG",
    "address": "2054 Dug Gap Road",
    "city": "Dalton---Georgia",
    "zipcode": "30720",
    "countryFullName": "United States",
    "lng": -84.9988305,
    "lat": 34.7313308
  },
  {
    "slug": "almustafa-pompton",
    "name": "Almustafa Islamic Center",
    "image1": "https://cdn.mawaqit.net/images/backend/mosque/cbfca467-23f9-468f-a7bd-dad9610f9942/mosque/1eea8db0-02f1-622c-85c2-066ed47a7584.jpg",
    "address": "21 passaic avenue",
    "city": "Pompton-Lakes",
    "zipcode": "07442",
    "countryFullName": "United States",
    "lng": -74.2878952,
    "lat": 41.0001028
  },
  {
    "slug": "isgc",
    "name": "ISGC",
    "image1": "https://cdn.mawaqit.net/images/backend/mosque/fb656e6e-db30-47f9-ac7f-0b62d22f3fa7/mosque/1eea8db0-99ea-64a8-abf6-066ed47a7584.jpg",
    "address": "2533 Gumbarell rd",
    "city": "Chattanooga",
    "zipcode": "37421",
    "countryFullName": "United States",
    "lng": -85.146509,
    "lat": 35.048553
  },
  {
    "slug": "alhedaya",
    "name": "Al-Hedaya Islamic Center Of ICNA",
    "image1": "https://cdn.mawaqit.net/images/backend/mosque/47246998-5963-4603-a875-d17227be45a6/mosque/1eea8db1-3347-6e2a-b047-066ed47a7584.jpg",
    "address": "968 Powder Springs Rd",
    "city": "Marietta",
    "zipcode": "30064",
    "countryFullName": "United States",
    "lng": -84.567892,
    "lat": 33.9293114
  },
  {
    "slug": "altazkiah-ocoee",
    "name": "Masjid Tazkiah",
    "image1": "https://cdn.mawaqit.net/images/backend/mosque/fe6685d8-873f-4cc9-8cfe-d3cae3d92fb5/mosque/1eea8db1-4f8e-6412-bbe3-066ed47a7584.PNG",
    "address": "120 Floral St",
    "city": "Ocoee",
    "zipcode": "34761",
    "countryFullName": "United States",
    "lng": -81.5461657,
    "lat": 28.5679115
  },
  {
    "slug": "ibad-ur-rahman",
    "name": "مسجد عباد الرحمان Masjid Ibad-ur-Rahman",
    "image1": "https://cdn.mawaqit.net/images/backend/mosque/a6f9ecbf-7c39-45e4-b541-85c8dda446e1/mosque/1eea8db3-99be-6238-a207-066ed47a7584.jpg",
    "address": "2440 Sandy Plains Rd, GA",
    "city": "Marietta",
    "zipcode": "30066",
    "countryFullName": "United States",
    "lng": -84.495978,
    "lat": 34.0093092
  },
  {
    "slug": "fic-minneola",
    "name": "Florida Islamic Center",
    "image1": "https://cdn.mawaqit.net/images/backend/mosque/09358703-9f26-4641-95c7-94ab011e04c9/mosque/1eea8db5-2720-645e-816d-066ed47a7584.jpg",
    "address": "60 w center st",
    "city": "Minneola",
    "zipcode": "34715",
    "countryFullName": "United States",
    "lng": -81.748295,
    "lat": 28.571994
  },
  {
    "slug": "maryam-duluth",
    "name": "Masjid Maryam",
    "image1": "https://cdn.mawaqit.net/images/backend/mosque/062aa1bb-85ab-4d76-8666-c0a3a5a8bf31/mosque/1eea8db8-690a-6db2-9a13-066ed47a7584.jpg",
    "address": "3650 Savannah Place Drive",
    "city": "Duluth",
    "zipcode": "30096",
    "countryFullName": "United States",
    "lng": -84.1666767,
    "lat": 34.00203
  },
  {
    "slug": "rcm-roswell",
    "name": "Roswell Community Masjid",
    "image1": "https://cdn.mawaqit.net/images/backend/mosque/7767b455-3e7a-4a69-b196-be74fe369f15/mosque/1eea8dba-94a9-6728-b783-066ed47a7584.jpg",
    "address": "345 Market Pl",
    "city": "Roswell",
    "zipcode": "30075",
    "countryFullName": "United States",
    "lng": -84.3401958,
    "lat": 34.0304729
  },
  {
    "slug": "icc",
    "name": "Masjid Muhammad",
    "image1": "https://cdn.mawaqit.net/images/backend/mosque/389e9a96-c812-4b32-ada1-62fbd12219f0/mosque/1eea8dbf-75ac-60f0-8aed-066ed47a7584.jpg",
    "address": "1410 Cemetery ave",
    "city": "Chattanooga",
    "zipcode": "37408",
    "countryFullName": "United States",
    "lng": -85.2957432,
    "lat": 35.032272
  },
  {
    "slug": "masjidnoor",
    "name": "مسجد نور Masjid Noor",
    "image1": "https://cdn.mawaqit.net/images/backend/mosque/47df9f98-3195-4755-b334-ed1f0e1ee05b/mosque/1eea8dc4-847f-6654-8436-066ed47a7584.jpg",
    "address": "8608 Pohick Road",
    "city": "Springfield",
    "zipcode": "VA 22153",
    "countryFullName": "United States",
    "lng": -77.2423871,
    "lat": 38.7434195
  },
  {
    "slug": "isow",
    "name": "Islamic Society of Winchester",
    "image1": "https://cdn.mawaqit.net/images/backend/mosque/64b46285-e1c1-4f12-bef7-0f093dc1ce4c/mosque/1eea8dc6-0bb5-6834-9cbc-066ed47a7584.jpg",
    "address": "601 Woodstock Ln",
    "city": "Winchester",
    "zipcode": "22601",
    "countryFullName": "United States",
    "lng": -78.1534369,
    "lat": 39.182447
  },
  {
    "slug": "abubakar-columbus",
    "name": "ABUBAKAR ASIDDIQ ISLAMIC CENTER",
    "image1": "https://cdn.mawaqit.net/images/backend/mosque/fa70f17f-06eb-4e47-8cde-ee74d64878db/mosque/1eea8dc7-775e-61a2-a4d0-066ed47a7584.jpeg",
    "address": "591 Industrial Mile Rd",
    "city": "Columbus",
    "zipcode": "43228",
    "countryFullName": "United States",
    "lng": -83.1194095,
    "lat": 39.9404176
  },
  {
    "slug": "assalaamah-columbus",
    "name": "Masjid Assalaamah",
    "image1": "https://cdn.mawaqit.net/images/backend/mosque/30af6c93-9bc8-41c4-86fa-be3b70185e39/mosque/1eea8dc8-3709-6e84-8ff5-066ed47a7584.png",
    "address": "5255 Cleveland Ave",
    "city": "Columbus",
    "zipcode": "43231",
    "countryFullName": "United States",
    "lng": -82.9519722,
    "lat": 40.077401
  },
  {
    "slug": "ibnutaymiyah-columbus",
    "name": "Ibnu Taymiyah Masjid and Islamic Center",
    "image1": "https://cdn.mawaqit.net/images/backend/mosque/bc39f70e-62a6-40e1-8e9b-28140d98d5d9/mosque/1eea8dc9-489c-68e4-92b8-066ed47a7584.JPG",
    "address": "2334 mock rd,",
    "city": "Columbus",
    "zipcode": "43219",
    "countryFullName": "United States",
    "lng": -82.9467108,
    "lat": 40.0120953
  },
  {
    "slug": "al-rahmah-alpharetta",
    "name": "مسجد جعفر",
    "image1": "https://cdn.mawaqit.net/images/backend/mosque/f5af014b-9264-40bc-a99f-ab88695ef1fa/mosque/1eea8dca-5490-608c-91ee-066ed47a7584.jpg",
    "address": "11005 Jones Bridge Road Ste 112",
    "city": "Alpharetta",
    "zipcode": "30022",
    "countryFullName": "United States",
    "lng": -84.220387,
    "lat": 34.0496717
  },
  {
    "slug": "isbc-melbourne",
    "name": "isbc",
    "image1": "https://cdn.mawaqit.net/images/backend/mosque/4b31dd5a-ad8e-4abd-b9f9-3cb871de4414/mosque/1eea8dce-a16d-65fe-ab4b-066ed47a7584.jpg",
    "address": "550 E Florida Ave",
    "city": "Melbourne",
    "zipcode": "32901",
    "countryFullName": "United States",
    "lng": -80.6125273,
    "lat": 28.0573539
  },
  {
    "slug": "arrahmane-dayton-oh",
    "name": "مسجد الرحمن",
    "image1": "https://cdn.mawaqit.net/images/backend/mosque/c1e7187e-6843-414e-9245-ca14a3c002ec/mosque/1eea8dd0-25a8-63fe-ab10-066ed47a7584.jpg",
    "address": "26 Josie Street",
    "city": "Dayton,-Oh",
    "zipcode": "45403",
    "countryFullName": "United States",
    "lng": -84.1758557,
    "lat": 39.7555842
  },
  {
    "slug": "ibn-sina-queens",
    "name": "MAS IBN SINA",
    "image1": "https://cdn.mawaqit.net/images/backend/mosque/353a4fea-e501-4ce8-a94e-587f344d5445/mosque/1eea8dd1-43e1-6662-be94-066ed47a7584.jpg",
    "address": "46-01 20th Ave",
    "city": "Queens",
    "zipcode": "11105",
    "countryFullName": "United States",
    "lng": -73.8974937,
    "lat": 40.7738666
  },
  {
    "slug": "astoria-queens",
    "name": "Astoria Islamic Center",
    "image1": "https://cdn.mawaqit.net/images/backend/mosque/506eb8e7-7c1e-48b0-aece-fc75869643b8/mosque/1eea8dd1-521a-6170-82b8-066ed47a7584.jpg",
    "address": "18-22 Astoria Boulevard",
    "city": "Queens",
    "zipcode": "11102",
    "countryFullName": "United States",
    "lng": -73.9260599,
    "lat": 40.7722611
  },
  {
    "slug": "aic-anniston",
    "name": "ANNISTON ISLAMIC CENTER",
    "image1": "https://cdn.mawaqit.net/images/backend/mosque/01d0eaa9-b332-4e24-8dcf-07a0124eaf7f/mosque/1eea8dd1-ef12-6ba8-a1ea-066ed47a7584.jpg",
    "address": "1821 MCCALL DRIVE",
    "city": "Anniston",
    "zipcode": "36207",
    "countryFullName": "United States",
    "lng": -85.8138,
    "lat": 33.6684391
  },
  {
    "slug": "islamic-center-brooklyn",
    "name": "Brooklyn Islamic Center",
    "image1": "https://cdn.mawaqit.net/images/backend/mosque/2d49e4d4-99f8-4a71-897a-22628c1fc6d0/mosque/1eea8dd3-ea0e-6f92-8c4d-066ed47a7584.jpeg",
    "address": "2015 64th St",
    "city": "Brooklyn",
    "zipcode": "11204",
    "countryFullName": "United States",
    "lng": -73.9845181,
    "lat": 40.6168677
  },
  {
    "slug": "madina-springfield",
    "name": "Madina Islamic Center",
    "image1": "https://cdn.mawaqit.net/images/backend/mosque/c656ef87-a526-484c-8837-229afb4b54e3/mosque/1eea8dd9-5f3b-6126-92b9-066ed47a7584.PNG",
    "address": "6805 Backlick Road",
    "city": "Springfield",
    "zipcode": "22150",
    "countryFullName": "United States",
    "lng": -77.1836352,
    "lat": 38.7707214
  },
  {
    "slug": "iqra",
    "name": "IQRA Learning Center",
    "image1": "https://cdn.mawaqit.net/images/backend/mosque/47bbfb92-5ed9-455f-9598-72ff4228a9f1/mosque/1eea8ddc-ff51-611c-ab9b-066ed47a7584.jpg",
    "address": "5703 S Pickett St.",
    "city": "Alexandria",
    "zipcode": "22304",
    "countryFullName": "United States",
    "lng": -77.1308727,
    "lat": 38.8079542
  },
  {
    "slug": "aaec-chicago",
    "name": "Masjid Almuhajireen /AAEC",
    "image1": "https://cdn.mawaqit.net/images/backend/mosque/ee9e119a-7fd8-4a20-9b0b-09a1a369dc3f/mosque/1eea8dde-e4e5-670e-aec7-066ed47a7584.JPG",
    "address": "3777 west columbus ave",
    "city": "Chicago",
    "zipcode": "60652",
    "countryFullName": "United States",
    "lng": -87.7155299,
    "lat": 41.7397655
  },
  {
    "slug": "al-iman",
    "name": "مركز الإيمان AL-IMAN Center",
    "image1": "https://cdn.mawaqit.net/images/backend/mosque/adada91d-f2bc-4c9e-87f8-fddb3a2ee193/mosque/1eea8ddf-13d1-6644-8379-066ed47a7584.JPG",
    "address": "9502 Richmond Hwy",
    "city": "Lorton",
    "zipcode": "22079",
    "countryFullName": "United States",
    "lng": -77.2114933,
    "lat": 38.7007485
  },
  {
    "slug": "islamic-society-of-saint-petersburg-saint-petersburg",
    "name": "Islamic Society of",
    "image1": "https://cdn.mawaqit.net/images/backend/mosque/54ec4225-d2c6-4d93-99df-4631bb2548d2/mosque/1eea8ddf-7312-6612-a35e-066ed47a7584.png",
    "address": "2401 5th St S",
    "city": "Saint-Petersburg",
    "zipcode": "33705",
    "countryFullName": "United States",
    "lng": -82.639701962471,
    "lat": 27.746295246973
  },
  {
    "slug": "mosque-al-furqan-columbus",
    "name": "MASJID AL-FURQAN ISLAMIC CENTER",
    "image1": "https://cdn.mawaqit.net/images/backend/mosque/ef43fc0a-010d-4767-affb-64a8226e1fa3/mosque/1eea8de0-406c-6cd4-b2e9-066ed47a7584.jpg",
    "address": "3437 Sullivant Ave",
    "city": "Columbus",
    "zipcode": "43204",
    "countryFullName": "United States",
    "lng": -83.090351138666,
    "lat": 39.948708161192
  },
  {
    "slug": "islamic-center-of-verona-ebadur-rahman-verona",
    "name": "Islamic Center of Verona-عباد الرحمن",
    "image1": "https://cdn.mawaqit.net/images/backend/mosque/e8f0a937-e211-46c5-a25e-79da24fe3803/mosque/1eea8de0-ab5e-661e-a678-066ed47a7584.jpg",
    "address": "56 Grove Ave",
    "city": "Verona",
    "zipcode": "07044-1611",
    "countryFullName": "United States",
    "lng": -74.246825873852,
    "lat": 40.83578332696
  },
  {
    "slug": "icf",
    "name": "Islamic Center of Fredericksburg",
    "image1": "https://cdn.mawaqit.net/images/backend/mosque/42768142-1c22-4c27-a4b1-ce265ad4222d/mosque/1eea8de0-c012-6664-a426-066ed47a7584.jpg",
    "address": "7020 Harrison Rd",
    "city": "Fredericksburg",
    "zipcode": "22407",
    "countryFullName": "United States",
    "lng": -77.569969,
    "lat": 38.289219
  },
  {
    "slug": "icnvt",
    "name": "Islamic Center of Northern Virginia",
    "image1": "https://cdn.mawaqit.net/images/backend/mosque/14b71652-748b-493d-836d-2474c2a12bf5/mosque/1eea8de4-02eb-69f6-b189-066ed47a7584.PNG",
    "address": "4420 Shirley Gate Rd",
    "city": "Fairfax",
    "zipcode": "22030",
    "countryFullName": "United States",
    "lng": -77.3412813,
    "lat": 38.8459356
  },
  {
    "slug": "sabireenmasjid",
    "name": "MASJID SABIREEN - POMONA",
    "image1": "https://cdn.mawaqit.net/images/backend/mosque/3382bc7c-b1fb-49ab-8ab2-78fd65f2ff13/mosque/1eea8de8-e5d1-64ba-8f3b-066ed47a7584.JPG",
    "address": "805 S Garey",
    "city": "Pomona",
    "zipcode": "91766",
    "countryFullName": "United States",
    "lng": -117.7503941,
    "lat": 34.0521852
  },
  {
    "slug": "mma",
    "name": "Manassas Muslim Association",
    "image1": "https://cdn.mawaqit.net/images/backend/mosque/a1c992bd-843d-4996-86bb-d4739afcaa6e/mosque/1eea8de9-74ed-6de2-b27e-066ed47a7584.JPG",
    "address": "9059 Euclid Avenue",
    "city": "Manassas",
    "zipcode": "20110",
    "countryFullName": "United States",
    "lng": -77.4524416,
    "lat": 38.7610124
  },
  {
    "slug": "foundation-for-islamic-education-exton-pa",
    "name": "Foundation for Islamic Education",
    "image1": "https://cdn.mawaqit.net/images/backend/mosque/8ae50698-d52c-422c-bbba-c82693da4e37/mosque/1eea8deb-4fa1-6ea6-a041-066ed47a7584.jpeg",
    "address": "201 Sharp Ln",
    "city": "Exton,pa",
    "zipcode": "19341",
    "countryFullName": "United States",
    "lng": -75.6414478,
    "lat": 40.0578131
  },
  {
    "slug": "masjid-ar-rahmah-owatonna-mn",
    "name": "MASJID AR-RAHMAH",
    "image1": "https://cdn.mawaqit.net/images/backend/mosque/4e194980-0dbb-45fb-b837-16a2e1899387/mosque/1eea8df1-c600-6ef2-af96-066ed47a7584.jpg",
    "address": "509 12th St NE",
    "city": "Owatonna,-Mn",
    "zipcode": "55060",
    "countryFullName": "United States",
    "lng": -93.21565747261,
    "lat": 44.096906962122
  },
  {
    "slug": "tawheed-center-detroit",
    "name": "Tawheed Center",
    "image1": "https://cdn.mawaqit.net/images/backend/mosque/d4819bf6-0827-4602-9d33-8c4c14912adf/mosque/1eea8dfa-a086-62ea-9102-066ed47a7584.jpg",
    "address": "18640 W Warren Ave.",
    "city": "Detroit",
    "zipcode": "48228-3445",
    "countryFullName": "United States",
    "lng": -83.222724,
    "lat": 42.34358
  },
  {
    "slug": "masjid-abu-qasim-cleveland",
    "name": "Masjid Abu Qasim",
    "image1": "https://cdn.mawaqit.net/images/backend/mosque/9337467b-2d95-4403-9c89-a7e9ae9ead86/mosque/1eea8dfa-d46a-68cc-97df-066ed47a7584.jpeg",
    "address": "12808 Bellaire Rd",
    "city": "Cleveland",
    "zipcode": "44135",
    "countryFullName": "United States",
    "lng": -81.7783148,
    "lat": 41.4390282
  },
  {
    "slug": "al-beshara-islamic-center",
    "name": "Ash-Shurah Islamic Center",
    "image1": "https://cdn.mawaqit.net/images/backend/mosque/a630111d-d520-45bf-a170-cdb2eee0cf3f/mosque/1eea8dfe-38a9-6330-9691-066ed47a7584.jpg",
    "address": "9220 Overlook Drive",
    "city": "Temple-Terrace",
    "zipcode": "33617",
    "countryFullName": "United States",
    "lng": -82.3973935,
    "lat": 28.0341572
  },
  {
    "slug": "amcc-longwood",
    "name": "AMCC",
    "image1": "https://cdn.mawaqit.net/images/backend/mosque/490a76fe-4466-4554-b1a5-7cf94477468d/mosque/1eea8dfe-6e4d-6e32-9930-066ed47a7584.jpg",
    "address": "811 Wilma Street",
    "city": "Longwood",
    "zipcode": "32750",
    "countryFullName": "United States",
    "lng": -81.3496096,
    "lat": 28.6950793
  },
  {
    "slug": "masjid-oumar-al-foutiyou",
    "name": "Masjid Oumar Al Foutiyou",
    "image1": "https://cdn.mawaqit.net/images/backend/mosque/0e6ccbe9-b6dd-4f8e-a009-cf88fd6d510a/mosque/1efce87c-a314-6eaa-b099-0e61b0058d45.jpeg",
    "address": "4500 Eastland Dr",
    "city": "Columbus-Ohio",
    "zipcode": "43232",
    "countryFullName": "United States",
    "lng": -82.8776229,
    "lat": 39.9214709
  },
  {
    "slug": "masjid-namrah",
    "name": "Masjid Namrah",
    "image1": "https://cdn.mawaqit.net/images/backend/mosque/ea7222ac-c3b2-4564-b9ec-eeedcaa73b18/mosque/1eea8e00-a987-6f32-9ad1-066ed47a7584.jpeg",
    "address": "4501 Refugee Rd",
    "city": "Columbus-Ohio",
    "zipcode": "43232",
    "countryFullName": "United States",
    "lng": -82.8762601,
    "lat": 39.9146937
  },
  {
    "slug": "masjid-al-mutakaber-winter-haven-florida-33884-united-states",
    "name": "Masjid Al Mutakaber",
    "image1": "https://cdn.mawaqit.net/images/backend/mosque/4db906ee-0d38-4e5a-a85c-db0c22b022ac/mosque/1eea8e03-0906-6902-9da1-066ed47a7584.jpeg",
    "address": "1011 FL-540 Winter-Haven",
    "city": "Florida",
    "zipcode": "33884",
    "countryFullName": "United States",
    "lng": -81.7105631,
    "lat": 28.0042825
  },
  {
    "slug": "islamic-center-of-millvalley-millvalley-94941-united-states",
    "name": "Islamic Center of Mill Valley",
    "image1": "https://cdn.mawaqit.net/images/backend/mosque/6b8440e5-ddf8-4984-93c1-c804de15ed7f/mosque/1eea8e05-2113-605c-81b1-066ed47a7584.jpeg",
    "address": "62 shell Rd",
    "city": "Millvalley",
    "zipcode": "94941",
    "countryFullName": "United States",
    "lng": -122.5221102,
    "lat": 37.906536
  },
  {
    "slug": "islamic-center-of-new-rochelle-new-rochelle-10801-united-states",
    "name": "ISLAMIC CENTER OF NEW ROCHELLE",
    "image1": "https://cdn.mawaqit.net/images/backend/mosque/7dc22b1e-5f79-4f83-9251-cfe6efe2fc15/mosque/1eea8e05-59bf-6a4a-a8d2-066ed47a7584.jpg",
    "address": "470 North avenue",
    "city": "New-Rochelle",
    "zipcode": "10801",
    "countryFullName": "United States",
    "lng": -73.78638446331,
    "lat": 40.918273693229
  },
  {
    "slug": "al-tawheed-jc",
    "name": "Al Tawheed Center",
    "image1": "https://cdn.mawaqit.net/images/backend/mosque/8660a16f-c562-48a4-b823-011a5f565ebe/mosque/1efe5722-4ec8-6d0e-ac09-0a7d06691847.jpg",
    "address": "984 Westside Ave",
    "city": "Jersey-City",
    "zipcode": "07306",
    "countryFullName": "United States",
    "lng": -74.0717784,
    "lat": 40.7331487
  },
  {
    "slug": "mlcmd",
    "name": "Makkah Learning Center",
    "image1": "https://cdn.mawaqit.net/images/backend/mosque/ce8ec428-2394-4483-9720-827b0d4b6806/mosque/1eea8e07-897c-6b00-be37-066ed47a7584.JPG",
    "address": "814 Brandy Farms Ln",
    "city": "Gambrills",
    "zipcode": "21054",
    "countryFullName": "United States",
    "lng": -76.663896963591,
    "lat": 39.044914457464
  },
  {
    "slug": "islamic-center-of-new-orleans-new-orleans-70116-1541-united-states",
    "name": "Islamic Center of New Orleans",
    "image1": "https://cdn.mawaqit.net/images/backend/mosque/d156e9bd-f8fb-41ee-b00d-1489459108da/mosque/1eea8e0a-9386-6f80-9fbd-066ed47a7584.jpg",
    "address": "1911 Saint Claude Ave",
    "city": "New-Orleans",
    "zipcode": "70116-1541",
    "countryFullName": "United States",
    "lng": -90.060007,
    "lat": 29.9685294
  },
  {
    "slug": "mav",
    "name": "Dar Alnoor Islamic Community Center",
    "image1": "https://cdn.mawaqit.net/images/backend/mosque/f98d2abf-e66d-4cd3-bb89-e99b982f8ce5/mosque/1eea8e0a-af59-6168-82f5-066ed47a7584.jpg",
    "address": "5404 Hoadly Rd",
    "city": "Manassas",
    "zipcode": "20112",
    "countryFullName": "United States",
    "lng": -77.3702631,
    "lat": 38.6766802
  },
  {
    "slug": "haskay",
    "name": "Haskay Community Masjid",
    "image1": "https://cdn.mawaqit.net/images/backend/mosque/cbd2073f-7f86-43f0-a8f5-ba562c29fb29/mosque/1eea8e0c-44dc-6360-b710-066ed47a7584.jpg",
    "address": "4229 Dale Blvd",
    "city": "Woodbridge",
    "zipcode": "22193",
    "countryFullName": "United States",
    "lng": -77.337821,
    "lat": 38.643918
  },
  {
    "slug": "isamd",
    "name": "Masjid Al-Ansar",
    "image1": "https://cdn.mawaqit.net/images/backend/mosque/0c95a326-9647-47b3-9588-065db46b0b5a/mosque/1eea8e0c-a6ed-696e-9497-066ed47a7584.jpg",
    "address": "15 Old Solomons Island Rd",
    "city": "Annapolis",
    "zipcode": "21401",
    "countryFullName": "United States",
    "lng": -76.5339882,
    "lat": 38.9810433
  },
  {
    "slug": "alrahma-mosque-columbus-43224-united-states",
    "name": "ALRAHMA MOSQUEمسجد الرحمة",
    "image1": "https://cdn.mawaqit.net/images/backend/mosque/92454c15-6226-433e-95e6-d4291be426b6/mosque/1eea8e0e-5aaa-6820-be40-066ed47a7584.jpg",
    "address": "2205 Albert Ave",
    "city": "Columbus",
    "zipcode": "43224",
    "countryFullName": "United States",
    "lng": -82.9554069,
    "lat": 40.0300533
  },
  {
    "slug": "masjid-salahuddin-plainfield-07060-united-states",
    "name": "ALBASEERAH Academy Of Excellence.",
    "image1": "https://cdn.mawaqit.net/images/backend/mosque/3d8da7af-b1e5-4270-b5dd-25a7248cff0b/mosque/1eea8e10-a163-618e-800f-066ed47a7584.jpg",
    "address": "232 E Front St.",
    "city": "Plainfield",
    "zipcode": "07060",
    "countryFullName": "United States",
    "lng": -74.4208231,
    "lat": 40.6209633
  },
  {
    "slug": "stcloudmasjid",
    "name": "Masjid Al Huda",
    "image1": "https://cdn.mawaqit.net/images/backend/mosque/58a80443-2a8e-4301-81d6-095ef39a7f5c/mosque/1eea8e12-24a4-6ff6-8e8f-066ed47a7584.jpg",
    "address": "3720 5th Street",
    "city": "St-Cloud",
    "zipcode": "34769",
    "countryFullName": "United States",
    "lng": -81.3106931,
    "lat": 28.2534818
  },
  {
    "slug": "culpeper-islamic-center-culpeper-22701-united-states",
    "name": "Islamic Center of Culpeper",
    "image1": "https://cdn.mawaqit.net/images/backend/mosque/1bb72859-ee8f-4a56-af19-ef41b28772b0/mosque/1eea8e16-8751-6e0c-b7f7-066ed47a7584.jpg",
    "address": "14434 Rixeyville Rd,",
    "city": "Culpeper",
    "zipcode": "22701",
    "countryFullName": "United States",
    "lng": -77.9915748,
    "lat": 38.5008216
  },
  {
    "slug": "al-huda-islamic-center",
    "name": "AL-HUDA ISLAMIC CENTER",
    "image1": "https://cdn.mawaqit.net/images/backend/mosque/c7d4756b-fc22-4843-95c0-9af37aa75cb0/mosque/1eea8e16-9607-6de8-9588-066ed47a7584.jpg",
    "address": "2100 COURTRIGHT RD",
    "city": "Columbus",
    "zipcode": "43232",
    "countryFullName": "United States",
    "lng": -82.8977689,
    "lat": 39.929336
  },
  {
    "slug": "isra-masjid",
    "name": "ISRA Masjid",
    "image1": "https://cdn.mawaqit.net/images/backend/mosque/65046f6e-0593-40fc-93b3-644842fd09a2/mosque/1eea8e17-f787-6b58-8abd-066ed47a7584.jpg",
    "address": "8527 RICHMOND ST",
    "city": "Gibsonton",
    "zipcode": "33534",
    "countryFullName": "United States",
    "lng": -82.3582467,
    "lat": 27.8422944
  },
  {
    "slug": "icorpa",
    "name": "Islamic Center",
    "image1": "https://cdn.mawaqit.net/images/backend/mosque/7803ef12-7369-461c-8d53-84de261d753c/mosque/1eea8e1b-f8a2-6610-8e00-066ed47a7584.jpg",
    "address": "18 S Noble St",
    "city": "Reading",
    "zipcode": "19611",
    "countryFullName": "United States",
    "lng": -75.9364124,
    "lat": 40.3181267
  },
  {
    "slug": "masjid-ar-rahman-coatesville-19320-united-states",
    "name": "Masjid Ar Rahman",
    "image1": "https://cdn.mawaqit.net/images/backend/mosque/03511ca3-679b-48d7-8125-5b95b6b152c6/mosque/1eea8e1c-2770-6a46-a638-066ed47a7584.jpg",
    "address": "723 Merchant Street",
    "city": "Coatesville",
    "zipcode": "19320",
    "countryFullName": "United States",
    "lng": -75.8107449,
    "lat": 39.9876427
  },
  {
    "slug": "abricc-acton-01720-united-states",
    "name": "ABRICC",
    "image1": "https://cdn.mawaqit.net/images/backend/mosque/13932676-4e0a-4b53-b428-73d6a4ab117d/mosque/1eea8e1d-9f97-658c-bbdd-066ed47a7584.jpg",
    "address": "30 Nagog Park Rd, Unit 105",
    "city": "ACTON",
    "zipcode": "01720",
    "countryFullName": "United States",
    "lng": -71.4307713,
    "lat": 42.5248697
  },
  {
    "slug": "nona-masjid-saint-cloud-34771-united-states",
    "name": "Lake Nona Masjid",
    "image1": "https://cdn.mawaqit.net/images/backend/mosque/9208e9bc-c5bc-4829-8e1f-751e72bd3d8b/mosque/1eea8e1e-39bf-606a-b604-066ed47a7584.jpg",
    "address": "5800 Cyrils Drive",
    "city": "Saint-Cloud",
    "zipcode": "34771",
    "countryFullName": "United States",
    "lng": -81.206482,
    "lat": 28.3327602
  },
  {
    "slug": "bccd",
    "name": "Badr Community Center of Dumfries",
    "image1": "https://cdn.mawaqit.net/images/backend/mosque/26265b30-057c-4d99-935e-2c6bdbcb981b/mosque/1eea8e1e-fed5-6f2a-aa29-066ed47a7584.jpg",
    "address": "17794 Main Street",
    "city": "Dumfries",
    "zipcode": "22026",
    "countryFullName": "United States",
    "lng": -77.3295035,
    "lat": 38.5662753
  },
  {
    "slug": "uyghur-islamic-center-fairfax-22030-united-states",
    "name": "Uyghur Islamic Center - Fairfax",
    "image1": "https://cdn.mawaqit.net/images/backend/mosque/9213d854-c084-434e-b977-bd75fafec744/mosque/1eea8e21-4311-6052-8895-066ed47a7584.jpg",
    "address": "10355 A Democracy Ln",
    "city": "Fairfax",
    "zipcode": "VA 22030",
    "countryFullName": "United States",
    "lng": -77.3019264,
    "lat": 38.8493677
  },
  {
    "slug": "masjid-omar-ga",
    "name": "Masjid Omar Bin Abdul Aziz",
    "image1": "https://cdn.mawaqit.net/images/backend/mosque/bd13251b-0ed4-4235-b1a6-b28ef50d0f24/mosque/1eea8e21-822c-611a-8549-066ed47a7584.jpg",
    "address": "955 Harbins Road",
    "city": "Lilburn",
    "zipcode": "30047",
    "countryFullName": "United States",
    "lng": -84.1700144,
    "lat": 33.8990934
  },
  {
    "slug": "masjid-al-noor-kissimmee-34746-united-states",
    "name": "MASJID ALNOOR Kissimmee مسجد النور",
    "image1": "https://cdn.mawaqit.net/images/backend/mosque/7bce945c-9377-4a86-82dc-d1574f0ce493/mosque/1eea8e23-7797-6c8e-8d55-066ed47a7584.jpg",
    "address": "3496 Polynesian Blvd",
    "city": "Kissimmee",
    "zipcode": "34746",
    "countryFullName": "United States",
    "lng": -81.4883604,
    "lat": 28.3460122
  },
  {
    "slug": "islamic-center-of-mississippi-and-alabam-meridian-39301-united-states",
    "name": "Islamic Center of Mississippi & Alabama",
    "image1": "https://cdn.mawaqit.net/images/backend/mosque/b1930e60-8915-46cf-a16b-e458a20521fd/mosque/1eea8e25-7fc3-6b0e-95c7-066ed47a7584.jpg",
    "address": "4329, Old Hwy 45 N",
    "city": "Meridian",
    "zipcode": "39301",
    "countryFullName": "United States",
    "lng": -88.6660278,
    "lat": 32.4007988
  },
  {
    "slug": "aml",
    "name": "MASJID AL SAMAD",
    "image1": "https://cdn.mawaqit.net/images/backend/mosque/55498c75-96de-4e7a-9233-17ec90d35092/mosque/1efed25f-78da-6472-b8d1-0a7d06691847.jpg",
    "address": "4990 W Irlo Brownson Memorial Hwy",
    "city": "Kissimmee",
    "zipcode": "34746",
    "countryFullName": "United States",
    "lng": -81.4825624,
    "lat": 28.332241
  },
  {
    "slug": "uuqcenter",
    "name": "Umm Ul Qura Center",
    "image1": "https://cdn.mawaqit.net/images/backend/mosque/74922139-6c12-4cde-b352-4e4286da99d0/mosque/1eea8e28-710b-6834-82cb-066ed47a7584.jpg",
    "address": "6287 Franconia Rd",
    "city": "Alexandria",
    "zipcode": "22310",
    "countryFullName": "United States",
    "lng": -77.155406828936,
    "lat": 38.779805114456
  },
  {
    "slug": "islamic-center-of-augusta-martinez-30907-united-states",
    "name": "Islamic Society of Augusta",
    "image1": "https://cdn.mawaqit.net/images/backend/mosque/8c86f3ff-8233-44fb-a5d6-59734bf32c10/mosque/1eea8e29-f1bc-6482-a53a-066ed47a7584.jpg",
    "address": "1 Islamic Center Dr",
    "city": "Martinez",
    "zipcode": "30907",
    "countryFullName": "United States",
    "lng": -82.1115978,
    "lat": 33.5257125
  },
  {
    "slug": "baitul-mamur-islamic-alexandria-22309-united-states",
    "name": "BAITUL MA’MUR ISLAMIC CENTER",
    "image1": "https://cdn.mawaqit.net/images/backend/mosque/27b8d1be-7b67-4e19-ac97-a88f7ca9df37/mosque/1eea8e2b-0888-6e08-8b61-066ed47a7584.jpg",
    "address": "8629 Engleside Office Park",
    "city": "Alexandria",
    "zipcode": "22309",
    "countryFullName": "United States",
    "lng": -77.118098,
    "lat": 38.7234445
  },
  {
    "slug": "mtu",
    "name": "Madinatul Uloom",
    "image1": "https://cdn.mawaqit.net/images/backend/mosque/16e6b30a-8fff-4e04-b264-022e4815f53e/mosque/1eea8e30-508c-6c72-a2df-066ed47a7584.jpg",
    "address": "12750 Vantage View Lane",
    "city": "Woodbridge",
    "zipcode": "22192",
    "countryFullName": "United States",
    "lng": -77.2688376,
    "lat": 38.6773488
  },
  {
    "slug": "ric20190",
    "name": "Masjid al Istiqamah",
    "image1": "https://cdn.mawaqit.net/images/backend/mosque/6a0e06ac-0cef-4dc6-8a03-c47af57890c9/mosque/1eea8e32-bc1f-6dd4-b968-066ed47a7584.jpg",
    "address": "11701 Bowman Green Dr",
    "city": "Reston",
    "zipcode": "20190",
    "countryFullName": "United States",
    "lng": -77.352255,
    "lat": 38.962107
  },
  {
    "slug": "islamic-center-of-palm-coast-bunnell-32110-united-states",
    "name": "Islamic Center of Palm Coast",
    "image1": "https://cdn.mawaqit.net/images/backend/mosque/96c04e9f-370e-441f-85f1-412beccb897b/mosque/1eea8e34-58fa-6f04-84c7-066ed47a7584.jpg",
    "address": "4721 E Moody BLVD",
    "city": "Bunnell",
    "zipcode": "32110",
    "countryFullName": "United States",
    "lng": -81.2244768,
    "lat": 29.4743716
  },
  {
    "slug": "masjid-tawheed",
    "name": "Masjid Tawheed",
    "image1": "https://cdn.mawaqit.net/images/backend/mosque/fd8fc24e-6c31-453c-8a22-8ed5e327682c/mosque/1eea8e34-da02-6aca-af7f-066ed47a7584.jpg",
    "address": "6180 W Viking Rd",
    "city": "Las-Vegas",
    "zipcode": "89103",
    "countryFullName": "United States",
    "lng": -115.2268008,
    "lat": 36.1183936
  },
  {
    "slug": "islamic-center-of-fort-wayne-fort-wayne-46803-united-states",
    "name": "Masjid Al Quds / ICFW",
    "image1": "https://cdn.mawaqit.net/images/backend/mosque/b2f04348-453f-41c5-a8ea-fb2e452f925c/mosque/1eea8e35-ba6a-654a-8c8f-066ed47a7584.jpg",
    "address": "1109 Chute St",
    "city": "Fort-Wayne",
    "zipcode": "46803",
    "countryFullName": "United States",
    "lng": -85.1223881,
    "lat": 41.0774892
  },
  {
    "slug": "masjid-as-salam-inc-jersey-city-07306-united-states",
    "name": "Masjid AS-Salam Inc",
    "image1": "https://cdn.mawaqit.net/images/backend/mosque/3c4c3fe3-f3bb-4dc8-a709-4d06ce9da290/mosque/1eea8e3b-fd14-6d36-beca-066ed47a7584.jpg",
    "address": "2824 Kennedy Blvd",
    "city": "Jersey-City",
    "zipcode": "07306",
    "countryFullName": "United States",
    "lng": -74.0665716,
    "lat": 40.7316762
  },
  {
    "slug": "islamic-center-of-deer-park-deer-park-11729-united-states",
    "name": "Islamic Center of Deer Park",
    "image1": "https://cdn.mawaqit.net/images/backend/mosque/61cb8360-d729-46f9-b575-e56c939443c5/mosque/1eea8e3e-6923-6796-aaee-066ed47a7584.jpg",
    "address": "642 Grand Blvd",
    "city": "Deer-Park",
    "zipcode": "11729",
    "countryFullName": "United States",
    "lng": -73.3185721,
    "lat": 40.7590345
  },
  {
    "slug": "amco-masjid-lake-in-the-hills-60156-united-states",
    "name": "Lake in the Hills",
    "image1": "https://cdn.mawaqit.net/images/backend/mosque/393f5451-9caa-42f3-aecb-7879b9e04b1d/mosque/1eea8e42-9d31-6ca0-8429-066ed47a7584.jpg",
    "address": "108 S. Lakewood Rd",
    "city": "Lake-In-The-Hills",
    "zipcode": "60156",
    "countryFullName": "United States",
    "lng": -88.3826917,
    "lat": 42.1736498
  },
  {
    "slug": "islamic-society-of-chester-county-west-chester-19380-united-states",
    "name": "ISLAMIC SOCIETY OF CHESTER COUNTY",
    "image1": "https://cdn.mawaqit.net/images/backend/mosque/4b5e8aa8-cfeb-409b-bc51-a339d34b3df6/mosque/1eea8e43-690a-602a-9ee2-066ed47a7584.jpg",
    "address": "1001 Pottstown Pike",
    "city": "West-Chester",
    "zipcode": "19380",
    "countryFullName": "United States",
    "lng": -75.6149337,
    "lat": 39.9753944
  },
  {
    "slug": "american-moslem-society-kendallville-46755-united-states",
    "name": "American Moslem Society",
    "image1": "https://cdn.mawaqit.net/images/backend/mosque/dcc10f39-144d-461e-b79a-44813c7a3d45/mosque/1eea8e44-1f02-6850-8fd9-066ed47a7584.jpg",
    "address": "802 Sawyer Rd",
    "city": "Kendallville",
    "zipcode": "46755",
    "countryFullName": "United States",
    "lng": -85.2946758,
    "lat": 41.4545963
  },
  {
    "slug": "myc-brooklyn-brooklyn-11214-united-states",
    "name": "MAS Youth Center",
    "image1": "https://cdn.mawaqit.net/images/backend/mosque/20371aa8-c693-41ea-9514-ff4cb78eb1a5/mosque/1eea8e44-f07d-6916-b406-066ed47a7584.jpg",
    "address": "1933 Bath Avenue",
    "city": "Brooklyn",
    "zipcode": "11214",
    "countryFullName": "United States",
    "lng": -74.0026987,
    "lat": 40.6023433
  },
  {
    "slug": "masjid-al-bukhari-in-philadelphia-philadelphia-19116-united-states",
    "name": "Masjid Al Bukhari in Philadelphia",
    "image1": "https://cdn.mawaqit.net/images/backend/mosque/2e0865a1-0c0d-4316-8e39-379d9b8b9f18/mosque/1eea8e4f-c347-6fae-8c29-066ed47a7584.jpg",
    "address": "10663 Bustleton Ave",
    "city": "Philadelphia",
    "zipcode": "19116",
    "countryFullName": "United States",
    "lng": -75.0254504,
    "lat": 40.1088073
  },
  {
    "slug": "cmcc-colorado-80013-united-states",
    "name": "CMCC",
    "image1": "https://cdn.mawaqit.net/images/backend/mosque/a354a855-6d0d-493c-bf4f-af41a7a9da59/mosque/1eea8e51-26aa-6442-8357-066ed47a7584.jpg",
    "address": "15528 E Hampden Cir, Aurora",
    "city": "Colorado",
    "zipcode": "80013",
    "countryFullName": "United States",
    "lng": -104.8069134,
    "lat": 39.6517814
  },
  {
    "slug": "dar-al-salaam-woodbridge-22191-united-states",
    "name": "Dar Al Salaam",
    "image1": "https://cdn.mawaqit.net/images/backend/mosque/2c43a828-ee1f-4a90-a8c6-21717ed5caa1/mosque/1eea8e53-03f5-6c74-869e-066ed47a7584.jpg",
    "address": "14505 Richmond Hwy Suite 8",
    "city": "Woodbridge",
    "zipcode": "22191",
    "countryFullName": "United States",
    "lng": -77.268211,
    "lat": 38.637392
  },
  {
    "slug": "masjid-ibn-sina-center-queens-11105-united-states",
    "name": "Mas Queens Center -MQC",
    "image1": "https://cdn.mawaqit.net/images/backend/mosque/d6c5fffe-613c-4e65-8f84-05b9a85954b8/mosque/1eea8e56-2460-6a6a-9481-066ed47a7584.jpg",
    "address": "46-01 20th Ave",
    "city": "Queens",
    "zipcode": "11105",
    "countryFullName": "United States",
    "lng": -73.8974937,
    "lat": 40.7738666
  },
  {
    "slug": "darul-arqam-center-of-excellence-blaine-55434-united-states",
    "name": "Darul Arqam Center of Excellence",
    "image1": "https://cdn.mawaqit.net/images/backend/mosque/ad254d93-77f6-4260-bfd7-67a732dc38f6/mosque/1eea8e58-97d6-68c6-b6e3-066ed47a7584.jpg",
    "address": "8710 Central Ave NE",
    "city": "Blaine",
    "zipcode": "55434",
    "countryFullName": "United States",
    "lng": -93.2363038,
    "lat": 45.1285467
  },
  {
    "slug": "fullerton-masjid-fullerton-92833-united-states",
    "name": "Fullerton Muslim Community Center",
    "image1": "https://cdn.mawaqit.net/images/backend/mosque/c32d753b-391f-40ab-a5b9-d6cc863a730e/mosque/1eea8e5a-46c7-6abe-8397-066ed47a7584.jpg",
    "address": "515 w. Valencia Dr. Unit H",
    "city": "Fullerton",
    "zipcode": "92833",
    "countryFullName": "United States",
    "lng": -117.9335501,
    "lat": 33.867034
  },
  {
    "slug": "hometown-mercy-mosque-hometown-60456-united-states",
    "name": "Hometown Mercy Mosque",
    "image1": "https://cdn.mawaqit.net/images/backend/mosque/0ed1ae10-d309-43c3-97df-d0fb89b8906e/mosque/1eea8e5a-5a52-60a2-a7e9-066ed47a7584.jpg",
    "address": "8925 S Kostner Ave",
    "city": "Hometown",
    "zipcode": "60456",
    "countryFullName": "United States",
    "lng": -87.73296,
    "lat": 41.7299634
  },
  {
    "slug": "oviedo-musalla-oviedo-32765-united-states",
    "name": "Oviedo Musalla",
    "image1": "https://cdn.mawaqit.net/images/backend/mosque/c5369dd2-89bd-48e9-ba8a-29671054b368/mosque/1eea8e5b-07ab-660e-9137-066ed47a7584.jpg",
    "address": "100 Alexandria Blvd Suite 24",
    "city": "Oviedo",
    "zipcode": "32765",
    "countryFullName": "United States",
    "lng": -81.2059715,
    "lat": 28.6534244
  },
  {
    "slug": "isgw-worcester-01605-united-states",
    "name": "ISGW",
    "image1": "https://cdn.mawaqit.net/images/backend/mosque/42eef474-3505-413e-ae89-d61346ed3e4f/mosque/1eea8e5e-2f57-66c8-835e-066ed47a7584.jpg",
    "address": "57 Laurel St",
    "city": "Worcester",
    "zipcode": "01605",
    "countryFullName": "United States",
    "lng": -71.7916044,
    "lat": 42.2685094
  },
  {
    "slug": "icdb-msjd-lmwmnyn-daytona-beach-32114-united-states",
    "name": "ICDB - مسجد المؤمنين",
    "image1": "https://cdn.mawaqit.net/images/backend/mosque/616f5f69-48fc-4486-be9c-2f56b88c113e/mosque/1eea8e60-c211-648a-9cb3-066ed47a7584.jpg",
    "address": "825 Derbyshire Rd, Daytona Beach, FL 32117",
    "city": "Daytona-Beach",
    "zipcode": "32114",
    "countryFullName": "United States",
    "lng": -81.0561259,
    "lat": 29.2202126
  },
  {
    "slug": "islamic-center-of-columbus-ohio-columbus-43231-united-states",
    "name": "DAARUL_AHBAAB   دار الأحباب",
    "image1": "https://cdn.mawaqit.net/images/backend/mosque/8e162164-290c-49e3-9698-b9fbb1e56b75/mosque/1eea8e77-c832-6e10-83b0-066ed47a7584.jpg",
    "address": "5075 Westerville Rd Unit A",
    "city": "Columbus",
    "zipcode": "43231",
    "countryFullName": "United States",
    "lng": -82.930302,
    "lat": 40.075905
  },
  {
    "slug": "masjid-alamin-community-center-philadelphia-19143-united-states",
    "name": "Masjid AlAmin Community Center",
    "image1": "https://cdn.mawaqit.net/images/backend/mosque/ea7cad8d-2fea-4b00-ad46-667b7a1f817b/mosque/1eea8e7c-6b8a-6f64-9652-066ed47a7584.jpg",
    "address": "5722 Elmwood Ave",
    "city": "Philadelphia",
    "zipcode": "19143",
    "countryFullName": "United States",
    "lng": -75.2198514,
    "lat": 39.9291589
  },
  {
    "slug": "baitul-mukarram-masjid-arlington-22204-united-states",
    "name": "Baitul Mukarram Masjid",
    "image1": "https://cdn.mawaqit.net/images/backend/mosque/eb72c83c-7bdc-4698-8396-eaa1fb4c4f82/mosque/1eea8e7d-27a6-6e78-a6c3-066ed47a7584.jpg",
    "address": "2116 S Nelson St",
    "city": "Arlington",
    "zipcode": "22204",
    "countryFullName": "United States",
    "lng": -77.0905987,
    "lat": 38.8495916
  },
  {
    "slug": "hmcc-heathrow-muslim-community-center-lake-mary-32746-united-states",
    "name": "HMCC - Heathrow Muslim Community Center",
    "image1": "https://cdn.mawaqit.net/images/backend/mosque/0fdc8069-4f35-40d3-9709-c5e7fe339f80/mosque/1eea8e81-e02d-6e52-bd3f-066ed47a7584.jpg",
    "address": "1325 S International Pkwy, Suite 1241, 1231, 1221",
    "city": "Lake-Mary",
    "zipcode": "32746",
    "countryFullName": "United States",
    "lng": -81.3666271,
    "lat": 28.7542475
  },
  {
    "slug": "masjid-al-noor-vancouver-98665-united-states",
    "name": "Masjid Al Noor",
    "image1": "https://cdn.mawaqit.net/images/backend/mosque/63590089-2825-4b4f-ab1c-71c61a8d3173/mosque/1eea8e82-54c7-61e6-8054-066ed47a7584.jpg",
    "address": "1000 NE 66th Street",
    "city": "Vancouver",
    "zipcode": "98665",
    "countryFullName": "United States",
    "lng": -122.6617385,
    "lat": 45.6705537
  },
  {
    "slug": "masjid-abu-khadra-icm-columbia-heights-55421-united-states",
    "name": "Masjid Abu Khadra ICM",
    "image1": "https://cdn.mawaqit.net/images/backend/mosque/168f6f65-48d7-4b72-bb13-0ab0f5567cc8/mosque/1eea8e8b-5663-633e-8291-066ed47a7584.jpg",
    "address": "4056 7th ST NE",
    "city": "COLUMBIA HEIGHTS",
    "zipcode": "55421",
    "countryFullName": "United States",
    "lng": -93.2579558,
    "lat": 45.0426035
  },
  {
    "slug": "arden-arcade-community-center-sacramento-95825-united-states",
    "name": "Arden Arcade Community Center",
    "image1": "https://cdn.mawaqit.net/images/backend/mosque/fd20ccb6-6c10-4ea6-862e-9899f9c37502/mosque/1eea8e8c-2fd3-6cf4-a175-066ed47a7584.jpg",
    "address": "3421 Arden way",
    "city": "SACRAMENTO",
    "zipcode": "95825",
    "countryFullName": "United States",
    "lng": -121.3838828,
    "lat": 38.5968155
  },
  {
    "slug": "islamic-society-of-greater-dayton-sugarcreek-township-45305-united-states",
    "name": "Islamic Society of Greater Dayton",
    "image1": "https://cdn.mawaqit.net/images/backend/mosque/c7589ca9-8c61-44c4-a11e-86a9affe269f/mosque/1eea8e8d-6b6f-6276-9d6d-066ed47a7584.jpg",
    "address": "730 S Alpha Bellbrook Rd",
    "city": "SUGARCREEK TOWNSHIP",
    "zipcode": "45305",
    "countryFullName": "United States",
    "lng": -84.0602428,
    "lat": 39.6704046
  },
  {
    "slug": "muslim-community-center-of-apopka-mcca-apopka-32703-united-states",
    "name": "Muslim Community Center of Apopka (MCCA)",
    "image1": "https://cdn.mawaqit.net/images/backend/mosque/d3ef941a-7b31-4049-8de5-6510e5bffff2/mosque/1eea8e90-adb1-6c30-9f5f-066ed47a7584.jpg",
    "address": "458 Oakland Ave",
    "city": "APOPKA",
    "zipcode": "32703",
    "countryFullName": "United States",
    "lng": -81.5033787,
    "lat": 28.6716718
  },
  {
    "slug": "islamic-center-of-manhattan-manhattan-66502-united-states",
    "name": "Islamic Center of Manhattan KS",
    "image1": "https://cdn.mawaqit.net/images/backend/mosque/4dbe7680-aecd-49e4-8701-2399d65c8387/mosque/1eea8e91-e7e4-6fdc-8621-066ed47a7584.jpg",
    "address": "1224 Hylton Height Rd",
    "city": "MANHATTAN",
    "zipcode": "KS 66502",
    "countryFullName": "United States",
    "lng": -96.6042238,
    "lat": 39.1926601
  },
  {
    "slug": "salaam-cultural-center-minneapolis-55418-united-states",
    "name": "MASJID SALAAM",
    "image1": "https://cdn.mawaqit.net/images/backend/mosque/23a8bdc0-0a91-4f0d-93f6-dfcf6b37cbd3/mosque/1eea8e93-fc2f-662a-9841-066ed47a7584.jpg",
    "address": "3141 CENTRAL AVE NE",
    "city": "MINNEAPOLIS",
    "zipcode": "55418",
    "countryFullName": "United States",
    "lng": -93.2469174,
    "lat": 45.0252538
  },
  {
    "slug": "noor-ul-yaqeen-islamic-center-kansas-city-missouri-64123-united-states",
    "name": "Noor Ul Yaqeen Islamic Center",
    "image1": "https://cdn.mawaqit.net/images/backend/mosque/5a1267dc-611d-4f13-bfcf-0b16d001e35d/mosque/1eea8e96-8edf-6e96-8123-066ed47a7584.jpg",
    "address": "134 N Hardesty Ave",
    "city": "KANSAS CITY, MISSOURI",
    "zipcode": "64123",
    "countryFullName": "United States",
    "lng": -94.5192205,
    "lat": 39.114017
  },
  {
    "slug": "worth-mosque-worth-60482-united-states",
    "name": "Islamic Center Of Worth",
    "image1": "https://cdn.mawaqit.net/images/backend/mosque/ecb0f35b-157d-4f60-a0ce-f7565e1a3c32/mosque/1eea8e97-4dc0-6018-ba1e-066ed47a7584.jpg",
    "address": "11512 S Normandy Ave",
    "city": "WORTH",
    "zipcode": "60482",
    "countryFullName": "United States",
    "lng": -87.78644,
    "lat": 41.6822669
  },
  {
    "slug": "darul-hikmah-islamic-center-alexandria-22311-united-states",
    "name": "Darul Hikmah Islamic Center",
    "image1": "https://cdn.mawaqit.net/images/backend/mosque/e5034815-3dd0-4989-9f20-aae9faa41149/mosque/1eea8e9d-04cc-6aa4-94b2-066ed47a7584.jpg",
    "address": "5220 Fillmore Ave",
    "city": "ALEXANDRIA",
    "zipcode": "22311",
    "countryFullName": "United States",
    "lng": -77.1187857,
    "lat": 38.8387235
  },
  {
    "slug": "alhoda-jc",
    "name": "Alhoda Islamic Center",
    "image1": "https://cdn.mawaqit.net/images/backend/mosque/de64104c-fc2f-4047-9d50-7300e761d803/mosque/1eea8e9e-0cae-6c94-9b97-066ed47a7584.jpg",
    "address": "3424 Kennedy Blvd",
    "city": "JERSEY CITY",
    "zipcode": "07307",
    "countryFullName": "United States",
    "lng": -74.0549124,
    "lat": 40.7491661
  },
  {
    "slug": "icna-va-masjid-alexandria-22306-united-states-2",
    "name": "ICNA VA Masjid",
    "image1": "https://cdn.mawaqit.net/images/backend/mosque/1362b502-79b5-4ef5-bcc8-1383b544b4d8/mosque/1eea8ea2-1c9b-6e1e-bf89-066ed47a7584.jpg",
    "address": "2913 Woodlawn Trai",
    "city": "ALEXANDRIA",
    "zipcode": "22306",
    "countryFullName": "United States",
    "lng": -77.0821009,
    "lat": 38.7507563
  },
  {
    "slug": "albir-center-kissimmee-34758-united-states",
    "name": "Albir Center",
    "image1": "https://cdn.mawaqit.net/images/backend/mosque/41af8f5e-c719-4cbb-9435-4c75c31bf9d6/mosque/1eea8ea6-c803-6eba-ae32-066ed47a7584.jpg",
    "address": "4870 Od Tampa Highway",
    "city": "KISSIMMEE",
    "zipcode": "34758",
    "countryFullName": "United States",
    "lng": -81.4779701,
    "lat": 28.25776
  },
  {
    "slug": "mohammad-rahman-sterling-heights-48312-united-states",
    "name": "SIC MASJID ZAKARIYA",
    "image1": "https://cdn.mawaqit.net/images/backend/mosque/6af27158-1028-4bd3-83e1-fe977a741d0b/mosque/1eea8eac-e168-654e-be0f-066ed47a7584.jpg",
    "address": "13237 14 Mile Rd",
    "city": "STERLING HEIGHTS",
    "zipcode": "48312",
    "countryFullName": "United States",
    "lng": -82.9930287,
    "lat": 42.5381974
  },
  {
    "slug": "worcester-islamic-center-worcester-01606-united-states",
    "name": "Worcester Islamic Center",
    "image1": "https://cdn.mawaqit.net/images/backend/mosque/c325b0cd-18ec-442a-8ccb-5654c5bc8f18/mosque/1eea8eb1-bdfe-6b12-a866-066ed47a7584.jpg",
    "address": "248 E Mountain St",
    "city": "WORCESTER",
    "zipcode": "01606",
    "countryFullName": "United States",
    "lng": -71.8078894,
    "lat": 42.327705
  },
  {
    "slug": "masjid-al-kareem-lutherville-21093-united-states",
    "name": "Masjid Al-Kareem",
    "image1": "https://cdn.mawaqit.net/images/backend/mosque/4c27cc58-835b-45a4-823f-6b6797d5aacf/mosque/1eea8eb8-90cb-6c4c-90e4-066ed47a7584.jpg",
    "address": "495 W Padonia Rd",
    "city": "LUTHERVILLE",
    "zipcode": "21093",
    "countryFullName": "United States",
    "lng": -76.6546249,
    "lat": 39.4520581
  },
  {
    "slug": "muslim-community-of-bethlehem-delmar-ny-12077-united-states",
    "name": "MCBNY",
    "image1": "https://cdn.mawaqit.net/images/backend/mosque/68865192-b720-41a1-bbd6-19f990e3282d/mosque/1eea8eb9-00dc-6a5e-b6b7-066ed47a7584.jpg",
    "address": "243 Delaware Ave",
    "city": "DELMAR, NY",
    "zipcode": "12077",
    "countryFullName": "United States",
    "lng": -73.819713,
    "lat": 42.6271719
  },
  {
    "slug": "islamic-center-of-osceola-inc-kissimmee-34741-united-states",
    "name": "Islamic Center of Osceola Inc",
    "image1": "https://cdn.mawaqit.net/images/backend/mosque/2e98271d-3c2a-47fd-b511-0c74065bc104/mosque/1eea8ec0-22e9-61a4-b0ac-066ed47a7584.jpg",
    "address": "2417 N Central Avenue",
    "city": "KISSIMMEE",
    "zipcode": "34741",
    "countryFullName": "United States",
    "lng": -81.4086336,
    "lat": 28.318038
  },
  {
    "slug": "mit-musallah-cambridge-02139-united-states-1",
    "name": "MIT Musallah",
    "image1": "https://cdn.mawaqit.net/images/backend/mosque/5b69f778-dcca-464f-a318-8fb6b8890d20/mosque/1eea8ec1-1737-6f26-a735-066ed47a7584.jpg",
    "address": "40 Massachusetts Ave",
    "city": "CAMBRIDGE",
    "zipcode": "02139",
    "countryFullName": "United States",
    "lng": -71.0935221,
    "lat": 42.3582747
  },
  {
    "slug": "masjid-ar-rahmah-elizebeth-city-27909-united-states",
    "name": "Masjid ar-Rahmah",
    "image1": "https://cdn.mawaqit.net/images/backend/mosque/367712ee-61f1-499b-a3f9-9a47928927c6/mosque/1eea8ece-15e8-6762-9729-066ed47a7584.jpg",
    "address": "304 E Ehringhaus St",
    "city": "ELIZEBETH CITY",
    "zipcode": "27909",
    "countryFullName": "United States",
    "lng": -76.22236,
    "lat": 36.2970232
  },
  {
    "slug": "the-islamic-cultural-institute-st-clair-shores-48082-united-states",
    "name": "ISLAMIC CULTURAL INSTITUTE",
    "image1": "https://cdn.mawaqit.net/images/backend/mosque/0577f39c-47be-4feb-bdb3-3d6d9fc195aa/mosque/1eea8ecf-8c5c-678a-bdc2-066ed47a7584.jpg",
    "address": "30115 Greater Mack Ave",
    "city": "ST CLAIR SHORES",
    "zipcode": "48082",
    "countryFullName": "United States",
    "lng": -82.888993,
    "lat": 42.5160625
  },
  {
    "slug": "islamic-center-of-northeast-florida-jacksonville-32246-united-states",
    "name": "Islamic Center Of Northeast Florida",
    "image1": "https://cdn.mawaqit.net/images/backend/mosque/014fd6cf-0bcb-4ef5-bc06-280355fe4023/mosque/1eea8edb-0398-6226-867b-066ed47a7584.jpg",
    "address": "2333 Saint Johns bluff rd s",
    "city": "JACKSONVILLE",
    "zipcode": "FL 32246",
    "countryFullName": "United States",
    "lng": -81.5251424,
    "lat": 30.3075845
  },
  {
    "slug": "islamic-center-of-orange-park-orange-park-32065-united-states",
    "name": "Islamic Center of Orange Park",
    "image1": "https://cdn.mawaqit.net/images/backend/mosque/4b26b7bd-5322-453d-9e3f-f22ae3d0848e/mosque/1eea8edd-b7fa-6d84-8b0e-066ed47a7584.jpg",
    "address": "158 College drive",
    "city": "ORANGE PARK",
    "zipcode": "32065",
    "countryFullName": "United States",
    "lng": -81.7757756,
    "lat": 30.1276717
  },
  {
    "slug": "islamic-center-of-boise-boise-83704-united-states",
    "name": "Islamic Center of Boise",
    "image1": "https://cdn.mawaqit.net/images/backend/mosque/61ad8fa7-4b7f-40ce-a2f2-cf9d9ed17aef/mosque/1eea8ee2-d2f9-6b30-8474-066ed47a7584.jpg",
    "address": "3077 N CHRISTINE ST",
    "city": "BOISE",
    "zipcode": "83704",
    "countryFullName": "United States",
    "lng": -116.2867643,
    "lat": 43.6329094
  },
  {
    "slug": "woodbridge-faith-center-woodbridge-22191-united-states",
    "name": "Woodbridge Faith Center",
    "image1": "https://cdn.mawaqit.net/images/backend/mosque/17f61d6b-74a7-4f7b-9681-26d076cb3c10/mosque/1eead5c8-23d1-611c-baf1-0aee8c47be3a.png",
    "address": "13195 Occoquan Rd",
    "city": "WOODBRIDGE",
    "zipcode": "22191",
    "countryFullName": "United States",
    "lng": -77.2543566,
    "lat": 38.6651679
  },
  {
    "slug": "icc-winooski",
    "name": "Islamic Community Center",
    "image1": "https://cdn.mawaqit.net/images/backend/mosque/8bdd5ef5-3de1-4274-9c3d-0ada6e450b4c/mosque/1eeae56d-8119-67ca-8b47-0ede686d7942.jpg",
    "address": "88 Malletts Bay Ave",
    "city": "WINOOSKI",
    "zipcode": "05404",
    "countryFullName": "United States",
    "lng": -73.1912084,
    "lat": 44.493375
  },
  {
    "slug": "masjid-al-imman-jacksonville-32211-united-states",
    "name": "Masjid Al Imman",
    "image1": "https://cdn.mawaqit.net/images/backend/mosque/77814bf0-554e-4267-8c33-d3802eea40ea/mosque/1eeb4d80-56eb-6aa4-821e-0ede686d7942.jpeg",
    "address": "1730 Rogero Rd",
    "city": "JACKSONVILLE",
    "zipcode": "FL 32211",
    "countryFullName": "United States",
    "lng": -81.5896523,
    "lat": 30.3394422
  },
  {
    "slug": "islamic-center-of-essex-county-caldwell-07006-united-states",
    "name": "Islamic Center of Essex County",
    "image1": "https://cdn.mawaqit.net/images/backend/mosque/e6eb3bf4-7f31-4e02-bc31-0cf8b3192413/mosque/1eecc1bf-72c8-698e-a7d3-0ede686d7942.png",
    "address": "266 Bloomfield Ave",
    "city": "CALDWELL",
    "zipcode": "07006",
    "countryFullName": "United States",
    "lng": -74.2741278,
    "lat": 40.8379983
  },
  {
    "slug": "islamic-center-of-western-pennsylvania-wexford-15090-united-states",
    "name": "Islamic Center of Western Pennsylvania",
    "image1": "https://cdn.mawaqit.net/images/backend/mosque/678443da-1aba-47e1-a4c0-5cb26ba0aa3c/mosque/1eed4f7e-6887-6c02-ad0f-0ede686d7942.jpg",
    "address": "550 Warrendale Bayne Rd",
    "city": "WEXFORD",
    "zipcode": "15090",
    "countryFullName": "United States",
    "lng": -80.1005869,
    "lat": 40.6474125
  },
  {
    "slug": "islamic-center-of-st-augustine-st-augustine-32086-united-states",
    "name": "Islamic Center Of St. Augustine",
    "image1": "https://cdn.mawaqit.net/images/backend/mosque/5df062dc-4809-4a60-a090-8014da39d3cb/mosque/1eed637f-1fb2-656c-8168-0ede686d7942.jpeg",
    "address": "1760 FL-207, St. Augustine, FL",
    "city": "ST. AUGUSTINE",
    "zipcode": "32086",
    "countryFullName": "United States",
    "lng": -81.3625631,
    "lat": 29.8444241
  },
  {
    "slug": "icop-islamic-center-of-preston-preston-06365-united-states",
    "name": "Islamic Center Of Preston",
    "image1": "https://cdn.mawaqit.net/images/backend/mosque/2cc1a28e-b80b-44c1-b836-fdb75c84c665/mosque/1eed9a90-3864-67de-9537-0a7eba2dd6b3.jpeg",
    "address": "128 CT-2",
    "city": "PRESTON",
    "zipcode": "06365",
    "countryFullName": "United States",
    "lng": -72.037931919844,
    "lat": 41.50208514502
  },
  {
    "slug": "islamic-center-of-poinciana-kissimmee-34746-united-states",
    "name": "Islamic Center of Poinciana",
    "image1": "https://cdn.mawaqit.net/images/backend/mosque/1673bee1-ce73-4c90-acc5-c39cc7cc561d/mosque/1eedb5ec-ea24-6074-9e69-06acfcd1c88a.jpeg",
    "address": "2934 pleasant hill rd",
    "city": "KISSIMMEE",
    "zipcode": "34746",
    "countryFullName": "United States",
    "lng": -81.4411604,
    "lat": 28.2121145
  },
  {
    "slug": "dar-al-barakah-manassas-20112-united-states",
    "name": "Dar Al Barakah",
    "image1": "https://cdn.mawaqit.net/images/backend/mosque/a0fe71f3-a9cf-4853-b15e-1d92b3a69037/mosque/1eedbf91-ff75-69ec-ad40-06acfcd1c88a.jpeg",
    "address": "15200 Dumfries Rd",
    "city": "MANASSAS",
    "zipcode": "20112",
    "countryFullName": "United States",
    "lng": -77.404681,
    "lat": 38.6234392
  },
  {
    "slug": "fredericksburg-muslim-community-fredericksburg-22401-united-states",
    "name": "Fredericksburg Muslim Community",
    "image1": "https://cdn.mawaqit.net/images/backend/mosque/c23f92c1-d65c-4402-bdeb-c9885e372294/mosque/1eedfca9-6c34-6520-94f2-060fae49e61d.jpg",
    "address": "215 Chatham Heights Rd, Fredericksburg, VA 22405",
    "city": "FREDERICKSBURG",
    "zipcode": "22401",
    "countryFullName": "United States",
    "lng": -77.4496027,
    "lat": 38.309427
  },
  {
    "slug": "islamic-center-of-marietta-marietta-45750-united-states",
    "name": "Islamic Center of Marietta",
    "image1": "https://cdn.mawaqit.net/images/backend/mosque/36245dea-a84c-4d16-a72a-613aebdf6161/mosque/1eedff79-eded-66de-9717-06af76768fe3.jpg",
    "address": "607 Putnam Street",
    "city": "MARIETTA",
    "zipcode": "45750",
    "countryFullName": "United States",
    "lng": -81.4490349,
    "lat": 39.4190432
  },
  {
    "slug": "hoda-center-gainesville-42608-united-states",
    "name": "Hoda Center",
    "image1": "https://cdn.mawaqit.net/images/backend/mosque/f665a683-85ed-4a16-864b-adc3c955807b/mosque/1eee06ec-e637-6e92-b275-0e8794b75c13.jpeg",
    "address": "5220 SW 13th St",
    "city": "GAINESVILLE",
    "zipcode": "32608",
    "countryFullName": "United States",
    "lng": -82.342879,
    "lat": 29.6047666
  },
  {
    "slug": "iccm",
    "name": "Islamic Culture Center of Medford",
    "image1": "https://cdn.mawaqit.net/images/backend/mosque/42ff8aa8-e370-4966-b1e8-4efed32f6505/mosque/1eee5589-2518-61f8-8140-0a0c9324ab13.jpg",
    "address": "43 High St",
    "city": "MEDFORD",
    "zipcode": "MA 02155",
    "countryFullName": "United States",
    "lng": -71.1108259,
    "lat": 42.418764
  },
  {
    "slug": "mosque-for-praising-allah-boston",
    "name": "Mosque for Praising Allah",
    "image1": "https://cdn.mawaqit.net/images/backend/mosque/5dc60c41-c72a-4174-818b-1abf915f9cd2/mosque/1eee55b0-0303-6af0-8c39-06a298c41fb3.jpg",
    "address": "724 Shawmut Ave",
    "city": "BOSTON",
    "zipcode": "MA 02119",
    "countryFullName": "United States",
    "lng": -71.0832945,
    "lat": 42.3327587
  },
  {
    "slug": "el-zahra-islamic-center-mp",
    "name": "El-Zahra Islamic Center",
    "image1": "https://cdn.mawaqit.net/images/backend/mosque/45c62286-1cb8-48fd-8a11-7dc23a5b380e/mosque/1eee5601-7f6b-6d3a-a5f9-06a298c41fb3.jpg",
    "address": "218 Irving St",
    "city": "MIDLAND PARK",
    "zipcode": "NJ 07432",
    "countryFullName": "United States",
    "lng": -74.1436071,
    "lat": 41.0012454
  },
  {
    "slug": "dar-ul-islah",
    "name": "Darul Islah - دار الإصلاح",
    "image1": "https://cdn.mawaqit.net/images/backend/mosque/5bc103ae-c73b-474a-880b-aecfbbebfb5e/mosque/1efdbdae-26de-6414-a190-0e61b0058d45.jpg",
    "address": "320 Fabry Terrace",
    "city": "TEANECK",
    "zipcode": "NJ 07666s",
    "countryFullName": "United States",
    "lng": -74.0015095,
    "lat": 40.8715879
  },
  {
    "slug": "masjid-umar-kingston",
    "name": "Masjid Umar",
    "image1": "https://cdn.mawaqit.net/images/backend/mosque/e0faf488-6c67-44a6-8df0-1bb8ead838be/mosque/1efe33de-1847-62ce-89eb-0e61b0058d45.jpg",
    "address": "15 Downs St",
    "city": "KINGSTON",
    "zipcode": "NY 12401",
    "countryFullName": "United States",
    "lng": -74.0074501,
    "lat": 41.9314919
  },
  {
    "slug": "islamic-society-of-schuylkill-county-pottsville-17901-united-states",
    "name": "Islamic Society of Schuylkill County",
    "image1": "https://cdn.mawaqit.net/images/backend/mosque/afe96244-de4b-4aba-abe6-61697b210702/mosque/1eee7a13-6c29-637c-961e-0a0c9324ab13.jpeg",
    "address": "1043 E Norwegian St",
    "city": "POTTSVILLE",
    "zipcode": "17901",
    "countryFullName": "United States",
    "lng": -76.1812508,
    "lat": 40.6917859
  },
  {
    "slug": "nhiec-nj",
    "name": "North Hudson Islamic Educational Center",
    "image1": "https://cdn.mawaqit.net/images/backend/mosque/7f5ffe5d-6eaf-49a8-b10a-68fada01bfd8/mosque/1eee8bae-f4da-625a-a624-0a9258a77f81.jpg",
    "address": "4613 Cottage Pl",
    "city": "UNION CITY",
    "zipcode": "NJ 07087",
    "countryFullName": "United States",
    "lng": -74.0234482,
    "lat": 40.7812446
  },
  {
    "slug": "american-islamic-institute-of-av-palmdale-93550-united-states",
    "name": "American Islamic Institute of AV",
    "image1": "https://cdn.mawaqit.net/images/backend/mosque/0ddc6cf6-6f8c-4d28-a21c-5b8d48ecd251/mosque/1eef2352-ce68-62c0-a044-0a9258a77f81.jpg",
    "address": "1125 E Palmdale Blvd",
    "city": "PALMDALE",
    "zipcode": "93550",
    "countryFullName": "United States",
    "lng": -118.1082673,
    "lat": 34.580277
  },
  {
    "slug": "masjid-darul-uloom-kissimmee-34746-united-states-1",
    "name": "Masjid Darul Uloom",
    "image1": "https://cdn.mawaqit.net/images/backend/mosque/a4056e25-493a-4e06-bcf8-39dfe9ebe5b3/mosque/1eef2d47-9581-6c6e-8d6f-0aca010661ff.jpg",
    "address": "2350 Old Vineland Rd",
    "city": "KISSIMMEE",
    "zipcode": "34746",
    "countryFullName": "United States",
    "lng": -81.4615805,
    "lat": 28.3138501
  },
  {
    "slug": "islamic-center-of-boulder-boulder-co-80303-united-states",
    "name": "Islamic Center of Boulder",
    "image1": "https://cdn.mawaqit.net/images/backend/mosque/eaa4e185-2bd1-4150-9998-f35952626469/mosque/1eeff736-d9d6-60ea-9a69-0a382b7256a1.jpg",
    "address": "5495 Baseline Road",
    "city": "BOULDER",
    "zipcode": "CO 80303",
    "countryFullName": "United States",
    "lng": -105.2260241,
    "lat": 40.0005608
  },
  {
    "slug": "hilal-islamic-center-fairfax-22031-united-states",
    "name": "Hilal Islamic Center",
    "image1": "https://cdn.mawaqit.net/images/backend/mosque/5b36519c-c65f-4a05-98a9-68b5a8f9106a/mosque/1ef004a8-36ab-6878-992a-0e8f4a8ce035.jpg",
    "address": "2810 Old Lee Hwy, Unit # 100",
    "city": "FAIRFAX",
    "zipcode": "22031",
    "countryFullName": "United States",
    "lng": -77.2406084,
    "lat": 38.8758224
  },
  {
    "slug": "aisha-cultural-center-orlando-32828-united-states-1",
    "name": "Aisha Center",
    "image1": "https://cdn.mawaqit.net/images/backend/mosque/7e4e2164-65d0-446f-acc7-ef299ce9b6cd/mosque/1ef044f2-9e56-6768-940e-0621eb7171ad.jpeg",
    "address": "1311 Hancock Lone Palm Rd",
    "city": "ORLANDO",
    "zipcode": "32828",
    "countryFullName": "United States",
    "lng": -81.1976,
    "lat": 28.5106
  },
  {
    "slug": "sheboygan-islamic-center-oostburg-53070-united-states",
    "name": "Sheboygan Islamic Center",
    "image1": "https://cdn.mawaqit.net/images/backend/mosque/806b69ee-0f07-4470-b673-db396fc62116/mosque/1ef04e31-612e-6fbe-8ed7-0621eb7171ad.jpg",
    "address": "9110 Sauk Trail Rd",
    "city": "OOSTBURG",
    "zipcode": "53070",
    "countryFullName": "United States",
    "lng": -87.7719133,
    "lat": 43.6445592
  },
  {
    "slug": "islamic-center-of-east-brunswick-east-brunswick-08816-united-states",
    "name": "Islamic Center of East Brunswick",
    "image1": "https://cdn.mawaqit.net/images/backend/mosque/02c91929-6ec5-4e7c-b78d-a329cf05e755/mosque/1ef07c5a-f19b-6cc6-9963-06724289ed6b.jpg",
    "address": "402 New Brunswick Ave",
    "city": "EAST BRUNSWICK",
    "zipcode": "08816",
    "countryFullName": "United States",
    "lng": -74.410366,
    "lat": 40.41532
  },
  {
    "slug": "clarendon-islamic-center-arlington-22201-united-states",
    "name": "Clarendon Islamic Center",
    "image1": "https://cdn.mawaqit.net/images/backend/mosque/cd96c444-bd80-4a09-b114-53641d4f2a95/mosque/1ef12f55-ae68-6d9c-a2aa-06724289ed6b.jpg",
    "address": "3260 Wilson Blvd 1st floor, Suite 10",
    "city": "ARLINGTON",
    "zipcode": "22201",
    "countryFullName": "United States",
    "lng": -77.0978311,
    "lat": 38.8850952
  },
  {
    "slug": "al-iman-mosque-astoria-11103-united-states",
    "name": "Al-Iman Mosque",
    "image1": "https://cdn.mawaqit.net/images/backend/mosque/35a8c5ac-4256-4579-9aae-06cbf72184de/mosque/1ef1885e-14d5-6934-90af-0e16b454dc53.png",
    "address": "24-30 Steinway St, Queens, NY 11103",
    "city": "ASTORIA",
    "zipcode": "11103",
    "countryFullName": "United States",
    "lng": -73.9115718,
    "lat": 40.7684117
  },
  {
    "slug": "86-st-islamic-center-msjd-lrhmn-byrydj-brooklyn-11209-united-states",
    "name": "86 ST Islamic Center مسجد الرحمن بايريدج",
    "image1": "https://cdn.mawaqit.net/images/backend/mosque/6242328e-109f-4138-9e5c-77327078cc87/mosque/1ef1e38d-4bbf-646a-b1aa-0ecb5e3f0f5f.jpg",
    "address": "333 86th St",
    "city": "BROOKLYN",
    "zipcode": "11209",
    "countryFullName": "United States",
    "lng": -74.0299049,
    "lat": 40.6235388
  },
  {
    "slug": "muslim-association-of-greater-pittsburgh-gibsonia-15044-united-states",
    "name": "Muslim Association of Greater Pittsburgh",
    "image1": "https://cdn.mawaqit.net/images/backend/mosque/f6ff28f5-1d26-4baf-b256-d09183b3404d/mosque/1ef36fbf-6b2d-6efe-b81d-0a67bcb0d635.png",
    "address": "5725 N Montour Rd",
    "city": "GIBSONIA",
    "zipcode": "15044",
    "countryFullName": "United States",
    "lng": -79.9860252,
    "lat": 40.6586874
  },
  {
    "slug": "noor-islamic-cultural-center-new-albany-westerville-43081-united-states-4",
    "name": "Noor Islamic Cultural Center-New Albany",
    "image1": "https://cdn.mawaqit.net/images/backend/mosque/75cc9d7c-351e-45e7-80ed-ae9993566509/mosque/1ef5022c-244b-6760-974a-0600dbafaeef.jpeg",
    "address": "6449 E Walnut St",
    "city": "WESTERVILLE",
    "zipcode": "43081",
    "countryFullName": "United States",
    "lng": -82.8148329,
    "lat": 40.1123648
  },
  {
    "slug": "masjid-tawheed-kissimmee-fl-kissimmee-34746-united-states",
    "name": "Masjid Tawheed",
    "image1": "https://cdn.mawaqit.net/images/backend/mosque/8edc1816-b528-4c02-848e-42da89891dcf/mosque/1ef6bec4-7540-6372-ba9c-0600dbafaeef.jpg",
    "address": "4636 W Irlo Bronson Memorial Hwy",
    "city": "KISSIMMEE",
    "zipcode": "34746",
    "countryFullName": "United States",
    "lng": -81.4684926,
    "lat": 28.3139593
  },
  {
    "slug": "polaris-masjid-lewis-center-43035-united-states",
    "name": "Polaris Masjid",
    "image1": "https://cdn.mawaqit.net/images/backend/mosque/c9494512-9d04-424f-b361-7ae7bdc1f035/mosque/1ef5c01b-16ea-6afa-8db3-0e4a41cdad45.jpg",
    "address": "8542 Cotter St.",
    "city": "LEWIS CENTER",
    "zipcode": "43035",
    "countryFullName": "United States",
    "lng": -83.0112863,
    "lat": 40.1594411
  },
  {
    "slug": "masjid-nurul-iman-minneapolis-55404-united-states",
    "name": "MASJID NUURULIIMAAN مسجد نور الايمان",
    "image1": "https://cdn.mawaqit.net/images/backend/mosque/501dba13-ec4c-44cf-8280-f003d33ca5ec/mosque/1ef61224-6261-61cc-bcf3-0600dbafaeef.jpg",
    "address": "2222 Park Ave S",
    "city": "MINNEAPOLIS",
    "zipcode": "55404",
    "countryFullName": "United States",
    "lng": -93.2657777,
    "lat": 44.9602511
  },
  {
    "slug": "masjid-ibadur-rahman-msjd-bd-lrhmn-springfield-22151-united-states",
    "name": "Masjid Ibadur-Rahman",
    "image1": "https://cdn.mawaqit.net/images/backend/mosque/4222fc4b-b243-4953-ab8b-932b94f80d77/mosque/1ef68986-2d39-6506-b600-0e4a41cdad45.png",
    "address": "5413 Backlick Rd",
    "city": "SPRINGFIELD",
    "zipcode": "VA 22151",
    "countryFullName": "United States",
    "lng": -77.1833837,
    "lat": 38.8028937
  },
  {
    "slug": "masjid-ibadur-rahman-brooklyn-park-55443-united-states",
    "name": "Masjid Ibadur Rahman",
    "image1": "https://cdn.mawaqit.net/images/backend/mosque/543bfb3f-ffe0-40f2-b240-acddc656b839/mosque/1ef70c28-f397-6368-b79f-0ecd6770c589.jpg",
    "address": "6001 78th Ave N",
    "city": "BROOKLYN PARK",
    "zipcode": "55443",
    "countryFullName": "United States",
    "lng": -93.3578963,
    "lat": 45.0959484
  },
  {
    "slug": "mankato-islamic-center-mankato-56001-united-states",
    "name": "Mankato Islamic Center",
    "image1": "https://cdn.mawaqit.net/images/backend/mosque/92f2b5fa-3636-4741-84aa-a2919128cd38/mosque/1ef725dd-932b-6604-903f-0600dbafaeef.jpg",
    "address": "329 N Broad St",
    "city": "MANKATO,",
    "zipcode": "56001",
    "countryFullName": "United States",
    "lng": -93.9972675,
    "lat": 44.1686721
  },
  {
    "slug": "islamic-center-of-north-valley-lancaster-93535-united-states",
    "name": "Islamic Center of North Valley",
    "image1": "https://cdn.mawaqit.net/images/backend/mosque/789baab6-5275-438c-a02a-6a68e389ea13/mosque/1ef7320d-cfc5-6eb6-82e6-0affcb0701ab.jpeg",
    "address": "42554 4th St E",
    "city": "LANCASTER",
    "zipcode": "93535",
    "countryFullName": "United States",
    "lng": -118.1229637,
    "lat": 34.6564907
  },
  {
    "slug": "masjid-ul-bayyinah-columbus-columbus-43211-united-states",
    "name": "Masjid ul Bayyinah columbus",
    "image1": "https://cdn.mawaqit.net/images/backend/mosque/50b0e96b-b596-4460-8d3d-187d87124928/mosque/1ef75781-be6d-6198-95ed-0ecd6770c589.jpg",
    "address": "2470 Cleveland Ave",
    "city": "COLUMBUS",
    "zipcode": "43211",
    "countryFullName": "United States",
    "lng": -82.9647318,
    "lat": 40.0176991
  },
  {
    "slug": "islamic-association-of-wv-beckley-beckley-25801-united-states",
    "name": "Beckley Masjid",
    "image1": "https://cdn.mawaqit.net/images/backend/mosque/f737a277-38f5-49c5-9dce-c67574030544/mosque/1ef7e0b6-479e-6ce2-8906-0ecd6770c589.jpg",
    "address": "307 Stanaford Rd",
    "city": "BECKLEY",
    "zipcode": "25801",
    "countryFullName": "United States",
    "lng": -81.1702291,
    "lat": 37.799293
  },
  {
    "slug": "uyghur-islamic-center-chantilly-chantilly-20151-united-states",
    "name": "Uyghur Islamic Center - Chantilly",
    "image1": "https://cdn.mawaqit.net/images/backend/mosque/1ed8646e-92f8-453a-8307-57dbce4b1c05/mosque/1ef81de0-7c2f-695e-b0a3-0ecd6770c589.jpg",
    "address": "14325 Willard Rd #102",
    "city": "CHANTILLY",
    "zipcode": "20151",
    "countryFullName": "United States",
    "lng": -77.4408843,
    "lat": 38.8854763
  },
  {
    "slug": "central-minnesota-islamic-center-st-cloud-56301-united-states",
    "name": "CENTRAL MN ISLAMIC CENTER",
    "image1": "https://cdn.mawaqit.net/images/backend/mosque/723984f3-9f03-4e40-897a-0fd88fc83bde/mosque/1ef85381-a0f9-6664-8709-0671c73660c5.jpg",
    "address": "390 4TH AVE S",
    "city": "ST CLOUD",
    "zipcode": "56301",
    "countryFullName": "United States",
    "lng": -94.1528531,
    "lat": 45.556166
  },
  {
    "slug": "islamic-center-of-northland-kansas-city-64155-united-states",
    "name": "Islamic Center Of Northland",
    "image1": "https://cdn.mawaqit.net/images/backend/mosque/21fa75cc-5e28-4667-a263-c1e6f2a473f3/mosque/1ef8985a-dd41-6054-ba12-0671c73660c5.jpg",
    "address": "8801 N Central St",
    "city": "KANSAS CITY",
    "zipcode": "64155",
    "countryFullName": "United States",
    "lng": -94.583189,
    "lat": 39.2540801
  },
  {
    "slug": "islamic-center-of-eastern-shore-georgetown-19947-united-states",
    "name": "Islamic Center of Eastern Shore",
    "image1": "https://cdn.mawaqit.net/images/backend/mosque/9efa7581-38c2-47c7-b951-a1670d95ef3b/mosque/1efa4fa4-f49f-6734-9b29-0671c73660c5.jpeg",
    "address": "25159 Lewes Georgetown Hwy",
    "city": "GEORGETOWN",
    "zipcode": "19947",
    "countryFullName": "United States",
    "lng": -75.2991306,
    "lat": 38.7214934
  },
  {
    "slug": "masjid-attaqwa-columbus-43228-united-states",
    "name": "Masjid At-Taqwa",
    "image1": "https://cdn.mawaqit.net/images/backend/mosque/d7cc2497-fede-49b5-aa6f-e8d396a6ab2e/mosque/1efb270a-bb54-664e-829e-0e9d077f5bb1.jpg",
    "address": "4501 Sullivant Ave, Columbus, OH",
    "city": "COLUMBUS",
    "zipcode": "43228",
    "countryFullName": "United States",
    "lng": -83.118555745914,
    "lat": 39.939038186794
  },
  {
    "slug": "dar-abi-bakr-mankato-56001-united-states-1",
    "name": "Dar Abi Bakr",
    "image1": "https://cdn.mawaqit.net/images/backend/mosque/dda3a3cd-c20b-48f0-a506-8c7e5034d232/mosque/1efbc097-e39a-6096-a350-0a21b15e7a1f.jpeg",
    "address": "329 E Plum street",
    "city": "MANKATO",
    "zipcode": "56001",
    "countryFullName": "United States",
    "lng": -93.9973528,
    "lat": 44.1673734
  },
  {
    "slug": "masjid-bilal-jc",
    "name": "Masjid Bilal - مسجد بلال",
    "image1": "https://cdn.mawaqit.net/images/backend/mosque/8fe0c0f2-cff3-410f-ae60-2efe9f6b0454/mosque/1efdc1dc-1e49-692a-bb96-0ac178b258e1.jpg",
    "address": "219 Old Bergen Rd",
    "city": "JERSEY CITY",
    "zipcode": "NJ 07305",
    "countryFullName": "United States",
    "lng": -74.0930867,
    "lat": 40.697251
  },
  {
    "slug": "mfnj",
    "name": "Muslim Federation of NJ",
    "image1": "https://cdn.mawaqit.net/images/backend/mosque/0c56d428-2f5b-413c-be57-84a1cc8ed66d/mosque/1efdca5a-4655-6046-b076-0ac178b258e1.jpg",
    "address": "530 Montgomery St",
    "city": "JERSEY CITY",
    "zipcode": "NJ 07302",
    "countryFullName": "United States",
    "lng": -74.0600877,
    "lat": 40.7227475
  },
  {
    "slug": "awliya-of-allah-nyc",
    "name": "Masjid Awliya of Allah",
    "image1": "https://cdn.mawaqit.net/images/backend/mosque/3c9d8c64-d040-4786-9710-77ab30fe370b/mosque/1efdcb5a-c747-60a4-9095-0ac178b258e1.jpg",
    "address": "327 W 36th St.",
    "city": "NEW YORK",
    "zipcode": "NY 10018",
    "countryFullName": "United States",
    "lng": -73.9937259,
    "lat": 40.75429
  },
  {
    "slug": "masjid-e-bilal-temple-hills-20748-united-states",
    "name": "MASJID-E-BILAL",
    "image1": "https://cdn.mawaqit.net/images/backend/mosque/4fa537e1-c865-456e-8a38-92268b01ce54/mosque/1efdddae-8e95-6934-a4ba-0ac178b258e1.jpg",
    "address": "4814 Saint Barnabas Rd",
    "city": "TEMPLE HILLS",
    "zipcode": "20748",
    "countryFullName": "United States",
    "lng": -76.9504366,
    "lat": 38.8228525
  },
  {
    "slug": "manhattan-nyc",
    "name": "Masjid Manhattan",
    "image1": "https://cdn.mawaqit.net/images/backend/mosque/c8b1f4f3-74ab-46b8-8d8d-27317beda2f8/mosque/1efde6ef-ed3a-6d00-b80f-0e61b0058d45.jpg",
    "address": "30 Cliff St",
    "city": "NEW YORK",
    "zipcode": "NY 10038",
    "countryFullName": "United States",
    "lng": -74.005017,
    "lat": 40.7080844
  },
  {
    "slug": "bayonne-muslims",
    "name": "Bayonne Muslims",
    "image1": "https://cdn.mawaqit.net/images/backend/mosque/20511e38-03fa-4dd7-b263-ef66667afc81/mosque/1efdf168-6a17-69ae-a978-0e61b0058d45.jpg",
    "address": "109 E 24th St",
    "city": "BAYONNE",
    "zipcode": "NJ 07002",
    "countryFullName": "United States",
    "lng": -74.1117459,
    "lat": 40.6625341
  },
  {
    "slug": "markaz-ussunnah-brooklyn-ny-11235-united-states",
    "name": "Markaz usSunnah NY",
    "image1": "https://cdn.mawaqit.net/images/backend/mosque/650307c1-5271-4f78-8fe9-9ef42ffe8206/mosque/1efdf3d7-eafb-6054-829d-0ac178b258e1.jpg",
    "address": "3043 Voorhies Ave",
    "city": "BROOKLYN",
    "zipcode": "NY 11235",
    "countryFullName": "United States",
    "lng": -73.9348889,
    "lat": 40.5879737
  },
  {
    "slug": "albanian-islamic-cultural-center-staten-island-ny-10301-united-states",
    "name": "Albanian Islamic Cultural Center",
    "image1": "https://cdn.mawaqit.net/images/backend/mosque/1bf37bcb-b7e2-4c9d-9ff4-2bba2b0b221b/mosque/1efe0bbc-fc5d-6246-a358-0ac178b258e1.jpg",
    "address": "307 Victory Blvd",
    "city": "STATEN ISLAND",
    "zipcode": "NY 10301",
    "countryFullName": "United States",
    "lng": -74.0859518,
    "lat": 40.6348296
  },
  {
    "slug": "is-brooklyn",
    "name": "Fort Hamilton Islamic Society",
    "image1": "https://cdn.mawaqit.net/images/backend/mosque/35fb1788-3b76-489f-9900-c1b3a34e9f8d/mosque/1efe1004-4ce6-6f32-b5a5-0ac178b258e1.jpg",
    "address": "9820 Fort Hamilton Pkwy",
    "city": "BROOKLYN",
    "zipcode": "NY 11209",
    "countryFullName": "United States",
    "lng": -74.031528,
    "lat": 40.6127899
  },
  {
    "slug": "baymeadows-islamic-center-bic-jacksonville-32256-united-states",
    "name": "Baymeadows Islamic Center (BIC)",
    "image1": "https://cdn.mawaqit.net/images/backend/mosque/2eb95e26-6cc7-4e3b-b8c7-6348547bab6f/mosque/1efe94b5-3e67-682c-8785-063aa5df5c67.png",
    "address": "8225 Dix Ellis Trail",
    "city": "JACKSONVILLE",
    "zipcode": "FL 32256",
    "countryFullName": "United States",
    "lng": -81.572506,
    "lat": 30.2200421
  },
  {
    "slug": "momin-community-center-st-johns-32259-united-states",
    "name": "Momin Community Center",
    "image1": "https://cdn.mawaqit.net/images/backend/mosque/2aa2f0d3-f646-4b69-b4b7-9055da692633/mosque/1efea50a-7717-64e6-a1e4-0e61b0058d45.jpg",
    "address": "6192 Race Track Rd.",
    "city": "ST. JOHNS",
    "zipcode": "32259",
    "countryFullName": "United States",
    "lng": -81.489112,
    "lat": 30.1018019
  },
  {
    "slug": "masjid-ar-rahman-columbia-29223-united-states",
    "name": "Masjid ar Rahman",
    "image1": "https://cdn.mawaqit.net/images/backend/mosque/6f6af9ee-0033-4ef7-87f5-0e88c6a31ac5/mosque/1efecd8d-08ac-619a-b472-0e61b0058d45.jpg",
    "address": "3307 Percival Rd.",
    "city": "COLUMBIA",
    "zipcode": "29223",
    "countryFullName": "United States",
    "lng": -80.8924917,
    "lat": 34.0742587
  },
  {
    "slug": "isvt",
    "name": "The Islamic Society of Vermont",
    "image1": "https://cdn.mawaqit.net/images/backend/mosque/46ef6436-dce1-4f8c-8027-7e9a656e48c6/mosque/1efed496-87ca-68fe-a239-0e61b0058d45.jpg",
    "address": "400 Swift St",
    "city": "SOUTH BURLINGTON",
    "zipcode": "VT 05403",
    "countryFullName": "United States",
    "lng": -73.1795338,
    "lat": 44.4434942
  },
  {
    "slug": "muna-center-of-south-jersey-pine-hill-08021-united-states",
    "name": "MCSJ - Masjid As-Salaam",
    "image1": "https://cdn.mawaqit.net/images/backend/mosque/5b7d971c-b776-437f-a550-9189e9c7352c/mosque/1efed778-1c23-6efe-a565-0e61b0058d45.jpg",
    "address": "400 Erial Rd",
    "city": "PINE HILL",
    "zipcode": "NJ 08021",
    "countryFullName": "United States",
    "lng": -74.9907895,
    "lat": 39.7894879
  },
  {
    "slug": "masjid-abu-bakr-paterson-07502-united-states",
    "name": "Masjid Abu Bakr",
    "image1": "https://cdn.mawaqit.net/images/backend/mosque/0ed4fd90-40b0-41a2-bbc2-8cda4e69e5ee/mosque/1efef05f-1e26-6cce-9416-0a7d06691847.jpeg",
    "address": "300-306 Preakness Ave",
    "city": "NJ PATERSON",
    "zipcode": "07502",
    "countryFullName": "United States",
    "lng": -74.192412,
    "lat": 40.9205066
  },
  {
    "slug": "islamic-center-of-chantilly-chantilly-20152-united-states",
    "name": "Islamic Center Of Chantilly",
    "image1": "https://cdn.mawaqit.net/images/backend/mosque/8460da6d-94ac-417b-9dd1-30f895ab5094/mosque/1eff4656-c3c0-6e8a-9a36-06ef9144e88f.jpg",
    "address": "43073 Little River Tpke",
    "city": "CHANTILLY",
    "zipcode": "20152",
    "countryFullName": "United States",
    "lng": -77.5128552,
    "lat": 38.9264565
  },
  {
    "slug": "muna-center-of-woodbridge-woodbridge-22192-united-states",
    "name": "MUNA Center of Woodbridge",
    "image1": "https://cdn.mawaqit.net/images/backend/mosque/c564b8fa-7804-4dcb-86ea-1ed9f8140404/mosque/1eff3bf1-30de-6352-8219-0adf9413746d.png",
    "address": "3166 Golansky Blvd",
    "city": "WOODBRIDGE",
    "zipcode": "22192",
    "countryFullName": "United States",
    "lng": -77.3070106,
    "lat": 38.6516423
  },
  {
    "slug": "al-asr-masjid-hungtingdon-valley-19006-united-states",
    "name": "Al Asr Masjid",
    "image1": "https://cdn.mawaqit.net/images/backend/mosque/5abd5d88-90b3-422f-a250-211a7dc065ee/mosque/1eff3db5-b297-67de-84ce-0adf9413746d.jpeg",
    "address": "77 Buck Rd",
    "city": "HUNGTINGDON VALLEY",
    "zipcode": "19006",
    "countryFullName": "United States",
    "lng": -75.0260049,
    "lat": 40.1483769
  },
  {
    "slug": "islamic-center-of-morgantown-icm-morgantown-26505-united-states",
    "name": "Islamic Center of Morgantown (ICM)",
    "image1": "https://cdn.mawaqit.net/images/backend/mosque/48ba4019-e782-4d2a-8966-27534da7ecce/mosque/1eff6277-48c7-6f0c-9e6a-0adf9413746d.jpeg",
    "address": "434 Harding Ave",
    "city": "MORGANTOWN",
    "zipcode": "26505",
    "countryFullName": "United States",
    "lng": -79.9433,
    "lat": 39.6456
  },
  {
    "slug": "islamic-society-of-south-shore-brockton-02301-united-states",
    "name": "Islamic Society of South Shore",
    "image1": "https://cdn.mawaqit.net/images/backend/mosque/4893f421-6034-4dc6-8882-edcb6158f051/mosque/1eff9edd-7666-6cfe-b782-0afdb4a7872f.jpg",
    "address": "500 forest Avenue",
    "city": "BROCKTON",
    "zipcode": "02301",
    "countryFullName": "United States",
    "lng": -71.0418846,
    "lat": 42.070579
  },
  {
    "slug": "al-bukhari-ic-elgin-60123-united-states",
    "name": "Al-Bukhari Islamic Center",
    "image1": "https://cdn.mawaqit.net/images/backend/mosque/ea39ac50-04ba-4b4e-8763-d3ae090a4a46/mosque/1effb1ed-2725-64ce-b32a-0a2e1c0b5725.png",
    "address": "1111 Van Street",
    "city": "ELGIN",
    "zipcode": "IL 60123",
    "countryFullName": "United States",
    "lng": -88.3061949,
    "lat": 42.033082
  },
  {
    "slug": "lebanon-valley-mosque-lebanon-17042-united-states",
    "name": "Lebanon Valley Mosque",
    "image1": "https://cdn.mawaqit.net/images/backend/mosque/8fb95b8d-5028-4f9e-bfa5-068b30b170b7/mosque/1effcf0c-137f-617c-9b31-0e61b0058d45.jpg",
    "address": "1300 Florence St",
    "city": "LEBANON",
    "zipcode": "PA 17042",
    "countryFullName": "United States",
    "lng": -76.4316581,
    "lat": 40.3303967
  },
  {
    "slug": "masjid-imam-e-azam-msjd-mm-zm-sacramento-95826-united-states",
    "name": "Masjid Imam-e-Azam  مسجد امام اعظم",
    "image1": "https://cdn.mawaqit.net/images/backend/mosque/84e661ed-d9f3-4914-808e-553bb963f30e/mosque/1f002635-13cb-6a60-ad00-0e4fa23cf9cb.png",
    "address": "9261 Folsom Blvd, Suite 300",
    "city": "SACRAMENTO",
    "zipcode": "CA 95826",
    "countryFullName": "United States",
    "lng": -121.3564414,
    "lat": 38.5638935
  },
  {
    "slug": "al-eman-center-mrkz-lymn-melbourne-32901-united-states",
    "name": "AL - Eman Center || مركز الإيمان",
    "image1": "https://cdn.mawaqit.net/images/backend/mosque/555ec16f-13c0-4e32-be26-a5f00960a7a6/mosque/1efff4b4-8639-6492-970e-06ef9144e88f.jpeg",
    "address": "1905 Martin Luther King Jr blvd",
    "city": "MELBOURNE",
    "zipcode": "FL 32901",
    "countryFullName": "United States",
    "lng": -80.621591,
    "lat": 28.0600145
  },
  {
    "slug": "muna-center-of-delaware-claymont-19703-united-states",
    "name": "MUNA Center of Delaware",
    "image1": "https://cdn.mawaqit.net/images/backend/mosque/a108801d-6c11-490a-b8a5-953cb4323e7e/mosque/1f001321-5350-6f5e-b0e5-0e4fa23cf9cb.jpg",
    "address": "301 Commonwealth Ave",
    "city": "CLAYMONT",
    "zipcode": "19703",
    "countryFullName": "United States",
    "lng": -75.4659797,
    "lat": 39.8013576
  },
  {
    "slug": "mas-sheepshead-bay-brooklyn-11235-united-states",
    "name": "MAS Sheepshead Bay",
    "image1": "https://cdn.mawaqit.net/images/backend/mosque/f235bde4-3d1b-4a0c-9c7a-23c3aa6c1544/mosque/1f006635-facd-6b8a-bfc6-0a2e1c0b5725.png",
    "address": "2812 Voorhies Ave, Brooklyn",
    "city": "BROOKLYN",
    "zipcode": "NY 11235",
    "countryFullName": "United States",
    "lng": -73.9408271,
    "lat": 40.5869242
  },
  {
    "slug": "icsva-stafford-masjid-aliya-stafford-22554-united-states",
    "name": "ICSVA (Masjid Aliya)",
    "image1": "https://cdn.mawaqit.net/images/backend/mosque/11ff9593-a9ec-4392-bd32-f87886b8177b/mosque/1f006936-85de-6ef6-9a6c-0e4fa23cf9cb.jpg",
    "address": "2604 Richmond Hwy",
    "city": "STAFFORD",
    "zipcode": "VA 22554",
    "countryFullName": "United States",
    "lng": -77.4012911,
    "lat": 38.4478303
  },
  {
    "slug": "masjid-e-bilal-baltimore-21225-united-states",
    "name": "Masjid E Bilal - Baltimore",
    "image1": "https://cdn.mawaqit.net/images/backend/mosque/2c77e724-242a-4206-9cd1-abefc78fa120/mosque/1f0093fc-1b08-6f82-9e0d-0e61b0058d45.png",
    "address": "3733 S Hanover Street",
    "city": "BALTIMORE",
    "zipcode": "MD 21225",
    "countryFullName": "United States",
    "lng": -76.6103599,
    "lat": 39.2366156
  },
  {
    "slug": "masjid-alnoor-melvindale-melvindale-48122-united-states",
    "name": "Masjid Alnoor Melvindale",
    "image1": "https://cdn.mawaqit.net/images/backend/mosque/ea4f658c-cbdd-438b-8193-8df5830f1091/mosque/1f00a78f-8871-6a82-8717-0e61b0058d45.jpg",
    "address": "2865 Oakwood",
    "city": "MELVINDALE",
    "zipcode": "MI 48122",
    "countryFullName": "United States",
    "lng": -83.1721578,
    "lat": 42.2828774
  },
  {
    "slug": "masjid-imaan-columbus-43229-united-states",
    "name": "MASJID IMAAN",
    "image1": "https://cdn.mawaqit.net/images/backend/mosque/ca7c9e68-06b3-49c4-9a50-23c6a864b5c1/mosque/1f00a938-f82d-6be6-8b03-06bdda781935.jpeg",
    "address": "5915 Karl, Road",
    "city": "COLUMBUS",
    "zipcode": "OH 43229",
    "countryFullName": "United States",
    "lng": -82.9756519,
    "lat": 40.0880332
  },
  {
    "slug": "islamic-center-of-santa-cruz-santa-cruz-95062-united-states",
    "name": "Islamic Center of Santa Cruz",
    "image1": "https://cdn.mawaqit.net/images/backend/mosque/fc1cad6e-05c9-43cd-8634-e797e2aebbfa/mosque/1f00ba45-c833-683c-92cf-0ac73cfd41db.jpg",
    "address": "900 17th Ave",
    "city": "SANTA CRUZ",
    "zipcode": "CA 95062",
    "countryFullName": "United States",
    "lng": -121.984846,
    "lat": 36.9675296
  },
  {
    "slug": "al-huda-islamic-center-lansing-14882-united-states",
    "name": "Al - Huda Islamic Center",
    "image1": "https://cdn.mawaqit.net/images/backend/mosque/cc7ce9af-d88e-4eec-afb1-36c64a2c683b/mosque/1f00f4be-d056-62b8-8ebb-06bdda781935.jpg",
    "address": "10 Cayuga vista dr",
    "city": "LANSING",
    "zipcode": "NY 14882",
    "countryFullName": "United States",
    "lng": -76.5011701,
    "lat": 42.5337343
  },
  {
    "slug": "masjid-al-hidayah-fort-wayne-46804-united-states",
    "name": "MASJID AL-HIDAYAH",
    "image1": "https://cdn.mawaqit.net/images/backend/mosque/7a7e6681-5170-457f-851a-5805cca31bd3/mosque/1f01f830-2168-650a-ba1a-06bdda781935.jpeg",
    "address": "836 Lagro Drive",
    "city": "FORT WAYNE",
    "zipcode": "IN 46804",
    "countryFullName": "United States",
    "lng": -85.2052815,
    "lat": 41.0780325
  },
  {
    "slug": "islamic-center-of-asheville-asheville-28803-united-states",
    "name": "Islamic Center of Asheville",
    "image1": "https://cdn.mawaqit.net/images/backend/mosque/20b61dec-f7bf-488f-812e-556112f00f24/mosque/1f01feaa-3daa-6da0-8100-0e61b0058d45.jpg",
    "address": "941 Old Fairview Road",
    "city": "ASHEVILLE",
    "zipcode": "NC 28803",
    "countryFullName": "United States",
    "lng": -82.5038379,
    "lat": 35.5645595
  },
  {
    "slug": "newark-central-masjid-newark-07107-united-states",
    "name": "Newark Central Masjid",
    "image1": "https://cdn.mawaqit.net/images/backend/mosque/27b4ce7e-8bd0-4b37-9aac-a9eb80069bba/mosque/1f027441-2f2c-6a50-ba80-0e31fcfe1275.png",
    "address": "151 12th Avenue",
    "city": "NEWARK",
    "zipcode": "NJ 07107",
    "countryFullName": "United States",
    "lng": -74.1944758,
    "lat": 40.7438082
  },
  {
    "slug": "icr-richmond",
    "name": "Masjid Yusuf - ICR",
    "image1": "https://cdn.mawaqit.net/images/backend/mosque/c8195cd4-8aff-46c3-975c-c214d88e3cba/mosque/1f026015-b08e-65c0-906f-06bdda781935.png",
    "address": "8481 Hungary Road",
    "city": "GLEN ALLEN",
    "zipcode": "VA 23060",
    "countryFullName": "United States",
    "lng": -77.5272763,
    "lat": 37.6466883
  },
  {
    "slug": "icna-va-masjid-alexandria-22306-united-states",
    "name": "ICNA VA Masjid",
    "image1": "https://cdn.mawaqit.net/images/backend/mosque/57217d5c-a520-4fcd-b80c-abf197534e22/mosque/1f0222b7-1f40-650a-90c4-0e61b0058d45.jpeg",
    "address": "2913 Woodlawn Trail, Alexandria, VA, USA",
    "city": "ALEXANDRIA",
    "zipcode": "22306",
    "countryFullName": "United States",
    "lng": -77.0821168,
    "lat": 38.7507459
  },
  {
    "slug": "central-mosque-of-charleston-charleston-29403-united-states",
    "name": "Central Mosque Of Charleston",
    "image1": "https://cdn.mawaqit.net/images/backend/mosque/6c81fd90-b629-4cf9-804c-e656e93f4ed3/mosque/1f025054-611a-6c30-af3e-0e61b0058d45.jpeg",
    "address": "1082 King Street, Charleston",
    "city": "CHARLESTON",
    "zipcode": "SC 29403",
    "countryFullName": "United States",
    "lng": -79.9504827,
    "lat": 32.8063939
  },
  {
    "slug": "islamic-center-of-northern-kentucky-florence-41042-united-states",
    "name": "Islamic center of northern Kentucky",
    "image1": "https://cdn.mawaqit.net/images/backend/mosque/b9860019-6a18-4e5b-84d0-64bcd2915928/mosque/1f028c4a-b80b-6030-bb5e-06df4152832f.jpeg",
    "address": "8024 Action Boulevard, Florence, KY, USA",
    "city": "FLORENCE",
    "zipcode": "41042",
    "countryFullName": "United States",
    "lng": -84.6491013,
    "lat": 38.9990843
  },
  {
    "slug": "mdlc-sterling-heights-48312-united-states-1",
    "name": "MDLC",
    "image1": "https://cdn.mawaqit.net/images/backend/mosque/d1072f8d-2cfc-465b-bc46-36c7583537b5/mosque/1f02c741-d2e6-6440-b54c-0ab233a5b545.jpg",
    "address": "34843 Schoenherr Road",
    "city": "STERLING HEIGHTS",
    "zipcode": "Mi 48312",
    "countryFullName": "United States",
    "lng": -82.9903435,
    "lat": 42.5511679
  },
  {
    "slug": "masjid-aisha-new-york-11234-united-states",
    "name": "Masjid Aisha",
    "image1": "https://cdn.mawaqit.net/images/backend/mosque/9d860652-ecb8-4198-a48d-6d504431ca38/mosque/1f0306cd-ed7a-633a-af6f-0e325d5c4035.jpeg",
    "address": "5804 Avenue N",
    "city": "BROOKLYN",
    "zipcode": "NY 11234",
    "countryFullName": "United States",
    "lng": -73.9189701,
    "lat": 40.6192056
  },
  {
    "slug": "masjudul-nuur-kansas-city-64127-united-states",
    "name": "MASJIDUNUUR ISLAMIC CENTER .مسجد النور",
    "image1": "https://cdn.mawaqit.net/images/backend/mosque/90636c9d-5ab0-45c0-8f06-226e99595b1a/mosque/1f035ff3-92c5-6ece-9996-0ef38cca20b9.jpg",
    "address": "2639 East 11th Street",
    "city": "KANSAS CITY",
    "zipcode": "MO 64127",
    "countryFullName": "United States",
    "lng": -94.5494882,
    "lat": 39.1002695
  }
]