[
  {
    "slug": "masjid-lhaja-bouchra-kirkuk-36001-iraq",
    "name": "مسجد الحاجة بشرى",
    "image1": "https://cdn.mawaqit.net/images/backend/mosque/8ccd6354-8657-4e4c-9036-9666c8d15a78/mosque/1eea8e96-c380-67ae-a259-066ed47a7584.jpg",
    "address": "کرکوک / حی اسری والمفقودین",
    "city": "KIRKUK",
    "zipcode": "36001",
    "countryFullName": "Iraq",
    "lng": 44.3798895,
    "lat": 35.4666329
  },
  {
    "slug": "masjid-al-miqdad-bin-al-aswad-al-kindi-abu-khanazir-32000-diyala-iraq",
    "name": "جامع المقداد بن الأسود الكندي",
    "image1": "https://cdn.mawaqit.net/images/backend/mosque/272c387d-d5c9-4f73-8be9-ca852e4ff72a/mosque/1f00f205-8053-657e-826a-0e61b0058d45.jpeg",
    "address": "قرية أبو خنازير",
    "city": "ديالى",
    "zipcode": "32000",
    "countryFullName": "Iraq",
    "lng": 44.75,
    "lat": 33.866667
  },
  {
    "slug": "baxtyary-halabja-62001-iraq",
    "name": "مزگەوتی بەختیاری",
    "image1": "https://cdn.mawaqit.net/images/backend/mosque/93293b94-913d-4f49-bd31-f15f1cf646b5/mosque/1eef0227-d5c0-617c-ae60-0621eb7171ad.jpeg",
    "address": "Halabja baxtyary",
    "city": "HALABJA",
    "zipcode": "62001",
    "countryFullName": "Iraq",
    "lng": 46.0043501,
    "lat": 35.1764822
  },
  {
    "slug": "lhaj-gharib-kirkuk-00964-iraq",
    "name": "الحاج غريب",
    "image1": "https://cdn.mawaqit.net/images/backend/mosque/32f3c96b-2d17-4aef-ad9e-f1df48f13197/mosque/1eef1527-3836-6e66-b9dd-0a9258a77f81.jpeg",
    "address": "Almas",
    "city": "KIRKUK",
    "zipcode": "00964",
    "countryFullName": "Iraq",
    "lng": 44.3839359,
    "lat": 35.4782874
  },
  {
    "slug": "jm-lkhl-iraq-11009-iraq",
    "name": "جامع الأخلاء",
    "image1": "https://cdn.mawaqit.net/images/backend/mosque/cbbca87a-f676-404b-b2a6-89b51f74ece5/mosque/1ef08b85-f43f-6844-ab56-0e8f4a8ce035.jpeg",
    "address": "Baghdad, Baghdad Governorate, Iraq",
    "city": "IRAQ",
    "zipcode": "11009",
    "countryFullName": "Iraq",
    "lng": 44.326373934746,
    "lat": 33.262971035323
  },
  {
    "slug": "jm-lbw-byd-lqym-31001-iraq-2",
    "name": "جامع البوعبيد",
    "image1": "https://cdn.mawaqit.net/images/backend/mosque/3010bd6d-628e-4054-89bc-2dd8c00d5b18/mosque/1ef0a082-eb8c-6e74-be5d-06724289ed6b.png",
    "address": "الانبار",
    "city": "القائم",
    "zipcode": "31001",
    "countryFullName": "Iraq",
    "lng": 41.069739,
    "lat": 34.4045119
  },
  {
    "slug": "mzgaewty-daerwzae-lae-zaeryaen-sulaimany-00964-iraq",
    "name": "مزگەوتی دەروازە لە زەڕایەن",
    "image1": "https://cdn.mawaqit.net/images/backend/mosque/f7cd0fe5-7f2b-43f3-9b73-deaf61f6fe86/mosque/1ef44702-3cf7-6542-bd33-0a67bcb0d635.png",
    "address": "عێراق/سلێمانی/شارەزوور/زەڕایەن",
    "city": "SULAIMANY",
    "zipcode": "00964",
    "countryFullName": "Iraq",
    "lng": 45.667035511971,
    "lat": 35.31857190519
  },
  {
    "slug": "jamii-lshhid-rkan-tawfiq-sliman-mosul-00964-iraq",
    "name": "جامع الشهيد راكان توفيق سليمان",
    "image1": "https://cdn.mawaqit.net/images/backend/mosque/bf502b89-1891-4cee-976b-f5bc18346805/mosque/1ef94b20-f7aa-6d5e-93c7-0a0389a4e0f5.jpg",
    "address": "العراق/ الموصل/ حي الكفاءات الاولى",
    "city": "MOSUL",
    "zipcode": "41003",
    "countryFullName": "Iraq",
    "lng": 43.1557947,
    "lat": 36.3810743
  },
  {
    "slug": "jamii-oum-lqora-krkouk-36001-iraq",
    "name": "جامع ام القرى",
    "image1": "https://cdn.mawaqit.net/images/backend/mosque/ff407b14-b54d-4162-b77b-b50884ac8e29/mosque/1ef990e7-6640-683e-a221-0a0389a4e0f5.jpg",
    "address": "حي الاسرى والمفقودين",
    "city": "كركوك",
    "zipcode": "36001",
    "countryFullName": "Iraq",
    "lng": 44.3839359,
    "lat": 35.4076185
  },
  {
    "slug": "mzgaewty-wsmny-khwry-fn-halabja-62001-iraq",
    "name": "مزگەوتی عثمان کوڕی عفان",
    "image1": "https://cdn.mawaqit.net/images/backend/mosque/a6c2a4ba-0c0f-44a0-b10f-e422200254c9/mosque/1efd5abc-76b0-624e-8150-06bada7b305f.jpeg",
    "address": "گەڕەکی شەهیدان",
    "city": "HALABJA",
    "zipcode": "62001",
    "countryFullName": "Iraq",
    "lng": 45.995488482667,
    "lat": 35.177848876219
  },
  {
    "slug": "at-tawheed-mosque-mzgaewty-ltwhyd-harir-44006-iraq",
    "name": "مزگەوتی تەوحید",
    "image1": "https://cdn.mawaqit.net/images/backend/mosque/5b7b5f0c-3266-49f6-bdde-d0a2151b0f7d/mosque/1effb9bf-3e18-6530-a767-0e61b0058d45.jpg",
    "address": "Harir, Iraq",
    "city": "هەریر",
    "zipcode": "44006",
    "countryFullName": "Iraq",
    "lng": 44.3467706,
    "lat": 36.552188
  },
  {
    "slug": "mzgaewty-yshty-slymny-00964-iraq-1",
    "name": "مزگەوتی ئاشتی- جامع السلام",
    "image1": "https://cdn.mawaqit.net/images/backend/mosque/af3c192f-b73a-434a-9667-d230cb174db0/mosque/1effc0f5-33f0-669c-8cbb-0e61b0058d45.jpg",
    "address": "قەزای کەلار - گەڕەکی جوتیاران",
    "city": "سلێمانی",
    "zipcode": "00964",
    "countryFullName": "Iraq",
    "lng": 45.3068538,
    "lat": 34.6417073
  },
  {
    "slug": "mzgaewty-taeqw-slymny-00964-iraq",
    "name": "مزگەوتی تەقوا - کەلار",
    "image1": "https://cdn.mawaqit.net/images/backend/mosque/e70b8622-e2bc-4ca9-918d-c845522539d7/mosque/1f002d88-104f-67f6-b586-0e61b0058d45.jpg",
    "address": "قەزای کەلار",
    "city": "سلیمانی",
    "zipcode": "00964",
    "countryFullName": "Iraq",
    "lng": 45.3275531,
    "lat": 34.6307795
  },
  {
    "slug": "mzgaewty-rwwnkhy-slymny-00964-iraq",
    "name": "مزگەوتی ڕووناکی",
    "image1": "https://cdn.mawaqit.net/images/backend/mosque/2c5896e5-bd77-4cdf-9e84-d7620ea295c3/mosque/1f003586-8f71-6196-8e65-0e6649200a97.jpg",
    "address": "قەزای کەلار",
    "city": "سلیمانی",
    "zipcode": "00964",
    "countryFullName": "Iraq",
    "lng": 45.3275531,
    "lat": 34.6307795
  },
  {
    "slug": "mzgaewty-khnaeqy-khfry-khfry-46022-iraq",
    "name": "مزگەوتی خانەقای کفری",
    "image1": "https://cdn.mawaqit.net/images/backend/mosque/bee37e8f-f514-4725-a713-80bc766f645f/mosque/1f0042a0-fbe0-6d00-866a-0e4fa23cf9cb.jpeg",
    "address": "گەڕەکی نەورۆز",
    "city": "کفری",
    "zipcode": "46022",
    "countryFullName": "Iraq",
    "lng": 44.967808127403,
    "lat": 34.696796371027
  },
  {
    "slug": "mzghwty-khyrkhwzn-koeyh-46017-iraq",
    "name": "مزگه‌وتی خێرخوازان",
    "image1": "https://cdn.mawaqit.net/images/backend/mosque/92a59fa4-f248-48c8-a087-94ae6d2312e8/mosque/1f0055c9-093b-6da2-97fd-0e4fa23cf9cb.png",
    "address": "جووت سایدی فیدراڵی",
    "city": "كۆیه",
    "zipcode": "46017",
    "countryFullName": "Iraq",
    "lng": 44.624735,
    "lat": 36.067392
  },
  {
    "slug": "jm-lhj-khlyl-shmm-lmwsl-41002-iraq",
    "name": "جامع الحاج خليل شمام",
    "image1": "https://cdn.mawaqit.net/images/backend/mosque/d0457f5d-4193-4722-a5a0-6ccbc735f533/mosque/1f0089ec-f5c1-6f76-8c41-0e61b0058d45.jpg",
    "address": "موصل - الرشيدية",
    "city": "الموصل",
    "zipcode": "41002",
    "countryFullName": "Iraq",
    "lng": 43.090449126992,
    "lat": 36.400344183208
  },
  {
    "slug": "mzgaewty-fyrdaews-halabja-62001-iraq",
    "name": "مزگەوتی فیردەوس",
    "image1": "https://cdn.mawaqit.net/images/backend/mosque/179996c8-3b6b-43cf-92e4-6cdafce08ef9/mosque/1f00d243-f1cc-6df4-8b32-0ac73cfd41db.jpg",
    "address": "گەڕەکی گوڵان",
    "city": "HALABJA",
    "zipcode": "62001",
    "countryFullName": "Iraq",
    "lng": 45.9934879,
    "lat": 35.1767595
  },
  {
    "slug": "mzgaewty-faekhry-laem-soern-44008-iraq",
    "name": "مزگەوتی فەخری عالەم",
    "image1": "https://cdn.mawaqit.net/images/backend/mosque/16bbe383-f1a5-4480-bb42-16b69a19de25/mosque/1f010a53-b08b-6fc8-9a74-0e61b0058d45.jpg",
    "address": "Soran, Bapshtyan",
    "city": "سۆران",
    "zipcode": "44008",
    "countryFullName": "Iraq",
    "lng": 44.5199687,
    "lat": 36.64916
  },
  {
    "slug": "mzgaeft-maezn-ykhry-qr-42004-iraq",
    "name": "مزگەفتا مەزن-ئاکرێ",
    "image1": "https://cdn.mawaqit.net/images/backend/mosque/c8948c06-695c-440e-8937-d4ce99c53598/mosque/1f01171a-6572-61da-ac9e-06bdda781935.jpg",
    "address": "عقرة،شارع عقرة القدیمة",
    "city": "عقرة",
    "zipcode": "42004",
    "countryFullName": "Iraq",
    "lng": 43.8803929,
    "lat": 36.7339805
  },
  {
    "slug": "mzgaewty-hjy-khlyl-khyrllae-haewlyr-44001-iraq",
    "name": "مزگەوتی حاجی خلیل خیراللە",
    "image1": "https://cdn.mawaqit.net/images/backend/mosque/e0e068b4-caef-458b-802a-8029d021d882/mosque/1f0153b0-fd98-68ba-8595-0e61b0058d45.jpg",
    "address": "هەولێر - گوندی کۆری",
    "city": "هەولێر",
    "zipcode": "44001",
    "countryFullName": "Iraq",
    "lng": 44.0106983,
    "lat": 36.1877383
  },
  {
    "slug": "masjid-musab-ibn-umayr-baghdad-964-iraq",
    "name": "جامع مصعب بن عمير-رضي الله عنه",
    "image1": "https://cdn.mawaqit.net/images/backend/mosque/cd76742f-5899-4fb0-8212-bedf9fbd8008/mosque/1f0242c5-5f3f-6722-b09a-0e61b0058d45.jpeg",
    "address": "العراق",
    "city": "بغداد",
    "zipcode": "964",
    "countryFullName": "Iraq",
    "lng": 44.399620807523,
    "lat": 33.399801779737
  },
  {
    "slug": "mzgaewty-khyrkhwzn-kalar-46021-iraq",
    "name": "مزگەوتی خێرخوازان",
    "image1": "https://cdn.mawaqit.net/images/backend/mosque/4cde2668-4f19-4b3b-a04c-6df311173317/mosque/1f01b825-f06e-687c-b11d-0ac73cfd41db.jpg",
    "address": "کەلار، Kalar, Iraq",
    "city": "KALAR",
    "zipcode": "46021",
    "countryFullName": "Iraq",
    "lng": 45.3275531,
    "lat": 34.6307795
  },
  {
    "slug": "mzgaewty-khny-myl-sulaymaniyah-46001-iraq",
    "name": "مزگەوتی کانی میل",
    "image1": "https://cdn.mawaqit.net/images/backend/mosque/36a906ca-ab8f-4522-88ac-5cc1a1efbc0a/mosque/1f024f81-8c77-6762-b428-06bdda781935.jpg",
    "address": "zarayan",
    "city": "SULAYMANIYAH",
    "zipcode": "46001",
    "countryFullName": "Iraq",
    "lng": 45.674726002412,
    "lat": 35.309927666833
  }
]