[
  {
    "slug": "masjid-alqady-hawally-12500-kuwait",
    "name": "مسجد القاضي - Masjid Alqady",
    "image1": "https://cdn.mawaqit.net/images/backend/mosque/cc2868d7-ac68-41d2-9e10-a8dbfcaea4a1/mosque/1eeedd49-f127-6170-b320-0621eb7171ad.jpeg",
    "address": "Bairuit st",
    "city": "HAWALLY",
    "zipcode": "12500",
    "countryFullName": "Kuwait",
    "lng": 48.0246084,
    "lat": 29.3395663
  },
  {
    "slug": "masjid-saqr-lqatan-jabriya-46308-kuwait",
    "name": "جامع صقر عبدالله القطان",
    "image1": "https://cdn.mawaqit.net/images/backend/mosque/7fa00219-060b-4ed2-b267-b92c569e032f/mosque/1ef65b1c-87d1-6d12-ad2f-0600dbafaeef.png",
    "address": "St 9",
    "city": "JABRIYA",
    "zipcode": "46308",
    "countryFullName": "Kuwait",
    "lng": 48.042295575142,
    "lat": 29.321446201246
  },
  {
    "slug": "masjid-noura-lghaith-surra-45406-kuwait",
    "name": "مسجد نوره الغيث",
    "image1": "https://cdn.mawaqit.net/images/backend/mosque/47450496-3e2d-42b3-ac3d-e3b038bccd37/mosque/1f00e2ae-e97e-6c12-ade8-0ac73cfd41db.png",
    "address": "Block 6 - Street 2",
    "city": "SURRA",
    "zipcode": "45406",
    "countryFullName": "Kuwait",
    "lng": 48.00252119253,
    "lat": 29.319809815169
  },
  {
    "slug": "abdllah-bn-abi-bakr-abdllah-lsalm-12345-kuwait",
    "name": "مسجد عبدالله بن ابي بكر",
    "image1": "https://cdn.mawaqit.net/images/backend/mosque/88218960-bdec-4f65-9df6-f51bb607acff/mosque/1ef36ec5-0382-611a-96c3-0600dbafaeef.jpeg",
    "address": "قطعه ١",
    "city": "عبدالله السالم",
    "zipcode": "12345",
    "countryFullName": "Kuwait",
    "lng": 47.981684166703,
    "lat": 29.356835941659
  },
  {
    "slug": "masjid-mbark-abdllah-sabah-11111-kuwait",
    "name": "مسجد مبارك عبدالله الصباح",
    "image1": "https://cdn.mawaqit.net/images/backend/mosque/22a58f7f-a75b-4591-97a6-691d32ae808c/mosque/1efebb2a-de74-6554-84da-0e61b0058d45.jpeg",
    "address": "قطعه 3",
    "city": "الصباح",
    "zipcode": "11111",
    "countryFullName": "Kuwait",
    "lng": 48.038658499718,
    "lat": 29.276994138042
  },
  {
    "slug": "masjid-lflij-qurtoba-2000-kuwait",
    "name": "مسجد الفليج",
    "image1": "https://cdn.mawaqit.net/images/backend/mosque/d0319f5c-8985-44eb-90c7-d627c23217cd/mosque/1ef89334-60c1-6f54-8766-0e9d077f5bb1.jpg",
    "address": "Block 1 Street 4",
    "city": "QURTOBA",
    "zipcode": "2000",
    "countryFullName": "Kuwait",
    "lng": 47.987916545598,
    "lat": 29.316516125933
  },
  {
    "slug": "masjid-ishaq-bn-rahwiha-saadl-bdllah-91110-kuwait",
    "name": "مسجد إسحاق بن راهويه",
    "image1": "https://cdn.mawaqit.net/images/backend/mosque/ef6b1683-661a-40dc-9853-58ffdcc833c8/mosque/1efa1e9e-ac8d-69c8-ba71-0671c73660c5.jpg",
    "address": "قطعة 10 ش78",
    "city": "سعدالعبدالله",
    "zipcode": "91110",
    "countryFullName": "Kuwait",
    "lng": 47.72944444,
    "lat": 29.31399167
  },
  {
    "slug": "masjid-abdlaltif-lothman-12345-kuwait",
    "name": "مسجد عبداللطيف العثمان",
    "image1": "https://cdn.mawaqit.net/images/backend/mosque/e90f0d52-74a7-4773-a1da-5e8c66eebd02/mosque/1efab455-8039-6db6-8d69-0e9d077f5bb1.jpeg",
    "address": "ضاحية عبدالله السالم",
    "city": "الكويت",
    "zipcode": "12345",
    "countryFullName": "Kuwait",
    "lng": 47.9836915,
    "lat": 29.3518587
  },
  {
    "slug": "masjid-fahd-soulaiman-ltakhim-houli-32003-kuwait",
    "name": "مسجد فهد سليمان الطخيم وإخوانه",
    "image1": "https://cdn.mawaqit.net/images/backend/mosque/977f7add-d131-4f6e-847b-d44740d6c952/mosque/1efbf293-8967-65b4-a2f9-0a21b15e7a1f.jpeg",
    "address": "حولي قطعه ١ شارع ١٨",
    "city": "حولي",
    "zipcode": "32003",
    "countryFullName": "Kuwait",
    "lng": 48.0071153,
    "lat": 29.3375105
  },
  {
    "slug": "msjd-hmd-lrf-y-lrwd-73301-kuwait",
    "name": "مسجد أحمد الرفاعي",
    "image1": "https://cdn.mawaqit.net/images/backend/mosque/18b3ad71-b9a4-4d9b-83ec-859791744f63/mosque/1efdbd33-529e-602a-ab2c-0ac178b258e1.png",
    "address": "الروضة ق2",
    "city": "الروضة",
    "zipcode": "73301",
    "countryFullName": "Kuwait",
    "lng": 47.9997896,
    "lat": 29.3259179
  },
  {
    "slug": "lkhyrn-q3-lhmdy-66300-kuwait",
    "name": "مسجد أحمد يوسف عبدالرحمن",
    "image1": "https://cdn.mawaqit.net/images/backend/mosque/0a08c207-f25f-4665-a494-9ccee15b1564/mosque/1eff427e-2c44-6d8a-9340-06ef9144e88f.jpeg",
    "address": "الخيران البحريه",
    "city": "الاحمدي",
    "zipcode": "66300",
    "countryFullName": "Kuwait",
    "lng": 48.355229972044,
    "lat": 28.663532346531
  },
  {
    "slug": "msjd-nsr-ljbry-kuwait-80000-kuwait",
    "name": "مسجد عبدالله وغازي الجويزي",
    "image1": "https://cdn.mawaqit.net/images/backend/mosque/2feed33c-d9e7-4978-a69d-37ff68b86020/mosque/1eff446d-8e0d-660c-ab36-0adf9413746d.jpeg",
    "address": "خيطان – ق 3 – شارع 114",
    "city": "KUWAIT",
    "zipcode": "80000",
    "countryFullName": "Kuwait",
    "lng": 48.0168894,
    "lat": 29.3451615
  },
  {
    "slug": "msjd-mhmd-slh-ltrkyt-l-sm-72302-kuwait",
    "name": "مسجد محمد صالح التركيت",
    "image1": "https://cdn.mawaqit.net/images/backend/mosque/d2b48752-412d-417a-9061-0eb09b96fc54/mosque/1eff6040-91f3-6188-a5ba-0ea49a9860dd.jpg",
    "address": "الخالدية - قطعة 2  - شارع عبدالله خلف السعيد",
    "city": "العاصمة",
    "zipcode": "72302",
    "countryFullName": "Kuwait",
    "lng": 47.9675981,
    "lat": 29.3301947
  },
  {
    "slug": "msjd-hmd-ly-lmwsh-jabriya-965-kuwait",
    "name": "مسجد أحمد علي المواش",
    "image1": "https://cdn.mawaqit.net/images/backend/mosque/793c7693-bb70-4623-8429-676c0ac9fc85/mosque/1f005c70-d991-6904-95f8-0e4fa23cf9cb.jpg",
    "address": "Street 6, block 7",
    "city": "JABRIYA",
    "zipcode": "965",
    "countryFullName": "Kuwait",
    "lng": 48.0369577,
    "lat": 29.3211495
  },
  {
    "slug": "masjid-rafi-bin-amr-al-ghifari-block-6-mubarak-al-kabeer-kuwait",
    "name": "مسجد رافع بن عمرو الغفاري",
    "image1": "https://cdn.mawaqit.net/images/backend/mosque/ccb733a9-d358-49d4-8d1c-843d781d619e/mosque/1f008248-4683-6d58-8285-0a2e1c0b5725.png",
    "address": "قطعه ٦",
    "city": "مبارك الكبير",
    "zipcode": "0",
    "countryFullName": "Kuwait",
    "lng": 48.086491711644,
    "lat": 29.184081054371
  },
  {
    "slug": "msjd-lrshyd-hwly-12500-kuwait",
    "name": "مسجد الرشيد - Masjid Al-Rasheed",
    "image1": "https://cdn.mawaqit.net/images/backend/mosque/5053b59f-d9df-491e-85d3-9af5ed18cd8b/mosque/1f009520-8f36-6fa6-849f-0e61b0058d45.png",
    "address": "حولي قطعة 4 ش بن رشد",
    "city": "حولي",
    "zipcode": "12500",
    "countryFullName": "Kuwait",
    "lng": 48.020395,
    "lat": 29.3433639
  },
  {
    "slug": "lshykh-slm-ly-mlk-lsbh-lslm-0-kuwait",
    "name": "مسجد الشيخ سالم علي مالك الصباح",
    "image1": "https://cdn.mawaqit.net/images/backend/mosque/9b197e12-4d13-44e2-80a3-3c29f1dbfc52/mosque/1f02a82c-f6b1-6c28-b8c1-063f15cb3ad3.jpeg",
    "address": "السلام - قطعه 2",
    "city": "السلام",
    "zipcode": "0",
    "countryFullName": "Kuwait",
    "lng": 48.022439181805,
    "lat": 29.290831928655
  },
  {
    "slug": "msjd-lhrth-bn-ws-lshhly-sbh-lhmd-11111-kuwait",
    "name": "مسجد الحارث بن أوس الأشهلي",
    "image1": "https://cdn.mawaqit.net/images/backend/mosque/94b7112d-80eb-442b-a3a0-731d43a6a7fc/mosque/1f022a98-253e-620c-b37a-0e61b0058d45.jpeg",
    "address": "قطعه ٣",
    "city": "صباح الاحمد",
    "zipcode": "11111",
    "countryFullName": "Kuwait",
    "lng": 48.057887256145,
    "lat": 28.785366590332
  },
  {
    "slug": "masjid-amr-bin-umayyah-al-damri-000000-sabah-al-ahmad-kuwait",
    "name": "مسجد عمرو بن أمية الضمري",
    "image1": "https://cdn.mawaqit.net/images/backend/mosque/9051a9fd-9ed5-48c5-9172-436f2bcdd493/mosque/1f03a0ac-39a7-6910-bb16-0abb1d73129d.jpeg",
    "address": "قطعه 2",
    "city": "صباح الاحمد",
    "zipcode": "000000",
    "countryFullName": "Kuwait",
    "lng": 48.061602115631,
    "lat": 28.792663117733
  },
  {
    "slug": "l-rbd-bn-sry-tym-00006-kuwait-1",
    "name": "العرباض بن سارية",
    "image1": "https://cdn.mawaqit.net/images/backend/mosque/fb68c56c-9dbd-4504-980d-d1312c3edaeb/mosque/1f027476-a956-6a44-ae8a-0e31fcfe1275.png",
    "address": "الجهراء",
    "city": "تيماء",
    "zipcode": "00006",
    "countryFullName": "Kuwait",
    "lng": 47.681595,
    "lat": 29.3288672
  },
  {
    "slug": "masjid-sbika-al-zaben-rawda-kuwait-kuwait",
    "name": "مسجد سبيكة الزبن",
    "image1": "https://cdn.mawaqit.net/images/backend/mosque/db039457-e86c-4b3b-8305-8c01b3fb35d5/mosque/1f020f7f-cd0b-6bc6-91ba-0e61b0058d45.jpg",
    "address": "قطعة 4، الروضة، Kuwait",
    "city": "KUWAIT",
    "zipcode": "لا يوجد",
    "countryFullName": "Kuwait",
    "lng": 47.9997896,
    "lat": 29.3354402
  },
  {
    "slug": "masjid-abdulrahman-al-zabin-surra-block5-street1-00965-kuwait",
    "name": "مسجد عبدالرحمن الزبن",
    "image1": "https://cdn.mawaqit.net/images/backend/mosque/09cbb4b4-664f-475a-ba1f-9a76c5707888/mosque/1f02910e-1858-6f92-ae72-0e31fcfe1275.jpeg",
    "address": "السرة ق5 شارع1",
    "city": "الكويت",
    "zipcode": "00965",
    "countryFullName": "Kuwait",
    "lng": 47.996842861176,
    "lat": 29.318985984815
  },
  {
    "slug": "frs-bdlrhmn-lwqyn-lkwyt-36203-kuwait",
    "name": "فارس عبد الرحمن الوقيان",
    "image1": "https://cdn.mawaqit.net/images/backend/mosque/97bb9881-a2c8-46f5-ac2f-a1c757818d00/mosque/1f0257e8-c28f-604c-940f-0e61b0058d45.jpeg",
    "address": "شارع 65، بنيد القار، مدينة الكويت، الكويت",
    "city": "الكويت",
    "zipcode": "36203",
    "countryFullName": "Kuwait",
    "lng": 47.9990935,
    "lat": 29.3781757
  },
  {
    "slug": "lsyb-bn-l-wm-sbh-lhmd-5852-kuwait",
    "name": "السائب بن العوام",
    "image1": "https://cdn.mawaqit.net/images/backend/mosque/408a0d90-467f-4623-b02b-121bcc35755f/mosque/1f025c70-3327-6a6c-83f7-0ac73cfd41db.jpg",
    "address": "صباح الأحمد3 street201",
    "city": "صباح الاحمد",
    "zipcode": "5852",
    "countryFullName": "Kuwait",
    "lng": 48.046978712082,
    "lat": 28.783666971493
  },
  {
    "slug": "fahad-abdulmohsen-al-husseini-sabahalahmad-00000-kuwait",
    "name": "مسجد فهد عبدالمحسن الحسيني",
    "image1": "https://cdn.mawaqit.net/images/backend/mosque/0741ca14-d746-452c-82f9-737347aa3aee/mosque/1f028d16-2c4f-695c-a889-0e31fcfe1275.jpeg",
    "address": "صباح الأحمد، Kuwait",
    "city": "SABAH AL AHMAD",
    "zipcode": "0",
    "countryFullName": "Kuwait",
    "lng": 48.078145980835,
    "lat": 28.777928496351
  },
  {
    "slug": "msjd-lmm-bn-lmndhr-jaber-al-ahmad-91711-kuwait",
    "name": "مسجد الإمام إبن المنذر",
    "image1": "https://cdn.mawaqit.net/images/backend/mosque/84a86815-31aa-4743-942b-5e8bd979fb8b/mosque/1f02c14e-5aaa-62e0-9423-0e48e721d61f.jpg",
    "address": "جابر الأحمد",
    "city": "جابر الأحمد",
    "zipcode": "91711",
    "countryFullName": "Kuwait",
    "lng": 47.776321,
    "lat": 29.3253
  },
  {
    "slug": "msjd-fwzy-mhmd-hmd-lwqyn-mubarak-al-abdullah-40251-kuwait",
    "name": "مسجد فوزية محمد حمد الوقيان",
    "image1": "https://cdn.mawaqit.net/images/backend/mosque/1f1a1480-9495-45a8-b4f4-90f1d0b759bb/mosque/1f02ea5b-3d14-62ea-aa32-06d617d5cc55.png",
    "address": "ضاحية مبارك العبدالله، Kuwait",
    "city": "MUBARAK AL-ABDULLAH",
    "zipcode": "40251",
    "countryFullName": "Kuwait",
    "lng": 48.051720352739,
    "lat": 29.278356533048
  },
  {
    "slug": "saqr-abdulhadi-al-saqran-70751-alqairwan-kuwait",
    "name": "صقر عبد الهادي الصقران",
    "image1": "https://cdn.mawaqit.net/images/backend/mosque/298ad1e1-6467-4259-8a6c-bdd64a92b3aa/mosque/1f0325d9-648e-6636-9b4f-0a17f0e78aa5.jpeg",
    "address": "14 street 143، الكويت",
    "city": "ALQAIRWAN",
    "zipcode": "70751",
    "countryFullName": "Kuwait",
    "lng": 47.807197944861,
    "lat": 29.300874744913
  },
  {
    "slug": "lml-syd-bd-lwhb-jbr-lhmd-91711-kuwait",
    "name": "الملا سيد عبد الوهاب الحنيان",
    "image1": "https://cdn.mawaqit.net/images/backend/mosque/91a71997-00bf-4344-8454-24cd0b6be051/mosque/1f030f69-7eb7-6d5e-82cd-0a17f0e78aa5.jpeg",
    "address": "جابر الأحمد قطعة واحد شارع 174",
    "city": "جابر الأحمد",
    "zipcode": "91711",
    "countryFullName": "Kuwait",
    "lng": 47.785830851894,
    "lat": 29.337251382822
  },
  {
    "slug": "mhmd-yd-l-ybn-fhd-lhmd-1234-kuwait",
    "name": "مسجد محمد عايض العيبان",
    "image1": "https://cdn.mawaqit.net/images/backend/mosque/9fc884af-c1f3-4ae9-a3e5-c35d2282cfa8/mosque/1f038a67-24ba-6a9e-bdab-0611a4e5dd55.jpeg",
    "address": "قطعة 3 شارع 324",
    "city": "فهد الاحمد",
    "zipcode": "1234",
    "countryFullName": "Kuwait",
    "lng": 48.104943931103,
    "lat": 29.126869067641
  }
]