[
  {
    "slug": "moskee-el-fath-gouda",
    "name": "Moskee EL FATH مسجد الفتح",
    "image1": "https://cdn.mawaqit.net/images/backend/mosque/3ede60ee-7398-4d07-8bac-c33e431febde/mosque/1eea8d9a-738a-6f58-8c74-066ed47a7584.jpg",
    "address": "Spieringstraat 36",
    "city": "Gouda",
    "zipcode": "2801ZM",
    "countryFullName": "Netherlands",
    "lng": 4.7136983,
    "lat": 52.0080822
  },
  {
    "slug": "miv-assalam-gouda",
    "name": "MIV Assalam",
    "image1": "https://cdn.mawaqit.net/images/backend/mosque_default_picture.png",
    "address": "Dunantsingel 92",
    "city": "Gouda",
    "zipcode": "2806 MJ",
    "countryFullName": "Netherlands",
    "lng": 4.7267358,
    "lat": 52.0120282
  },
  {
    "slug": "al-hoeda-rotterdam",
    "name": "AL Hoeda",
    "image1": "https://cdn.mawaqit.net/images/backend/mosque_default_picture.png",
    "address": null,
    "city": "Rotterdam",
    "zipcode": "3042LP",
    "countryFullName": "NETHERLANDS",
    "lng": 4.4272679,
    "lat": 51.9328706
  },
  {
    "slug": "ar-abou-bakr-rotterdam",
    "name": "Moskee Aboubakr  -  مسجد ابوبكر",
    "image1": "https://cdn.mawaqit.net/images/backend/mosque/01f33348-89e6-4245-83af-4614d13c4075/mosque/1eea8d9c-864e-6f52-a13b-066ed47a7584.jpg",
    "address": "snellemanstraat 7",
    "city": "Rotterdam",
    "zipcode": "3035 WJ",
    "countryFullName": "Netherlands",
    "lng": 4.4853475,
    "lat": 51.9327372
  },
  {
    "slug": "nl-al-hoeda-overschie-view-desktop",
    "name": "مسجد الهدى",
    "image1": "https://cdn.mawaqit.net/images/backend/mosque_default_picture.png",
    "address": "Van Noortwijckstraat 30",
    "city": "Overschie",
    "zipcode": "3042 LP",
    "countryFullName": "Netherlands",
    "lng": 4.4267725,
    "lat": 51.9337798
  },
  {
    "slug": "masjid-bilal-alkmaar",
    "name": "Moskee Bilal مسجد بلال",
    "image1": "https://cdn.mawaqit.net/images/backend/mosque_default_picture.png",
    "address": "Montalbaen 4",
    "city": "Alkmaar",
    "zipcode": "1813 EB",
    "countryFullName": "Netherlands",
    "lng": 4.7476077,
    "lat": 52.6142064
  },
  {
    "slug": "masjid-al-ihsaan-rotterdam-rotterdam",
    "name": "Masjid Al-ihsaan Rotterdam",
    "image1": "https://cdn.mawaqit.net/images/backend/mosque_default_picture.png",
    "address": "Dwerggras 3",
    "city": "Rotterdam",
    "zipcode": "3068 PC",
    "countryFullName": "Netherlands",
    "lng": 4.5470299,
    "lat": 51.9583983
  },
  {
    "slug": "masjidomar",
    "name": "Moskee Omar Ibn Al Khattab",
    "image1": "https://cdn.mawaqit.net/images/backend/mosque_default_picture.png",
    "address": "Bintangweg 3",
    "city": "Almere-buiten",
    "zipcode": "1336ND",
    "countryFullName": "Netherlands",
    "lng": 5.3126662,
    "lat": 52.4071532
  },
  {
    "slug": "markaz-arrahma-rotterdam",
    "name": "Centrum Arrahma",
    "image1": "https://cdn.mawaqit.net/images/backend/mosque_default_picture.png",
    "address": "Albregt-Engelmanstraat 43",
    "city": "Rotterdam",
    "zipcode": "3025 BC",
    "countryFullName": "Netherlands",
    "lng": 4.4437087,
    "lat": 51.9072522
  },
  {
    "slug": "moskee-sonat-amsterdam",
    "name": "مسجد السنة",
    "image1": "https://cdn.mawaqit.net/images/backend/mosque/ebbe0df8-0bb7-4d94-8025-b88152dd8f8a/mosque/1eea8d9f-237b-6de6-ab56-066ed47a7584.JPG",
    "address": "Frederik Hendrikstraat 11-15",
    "city": "Amsterdam",
    "zipcode": "1052 HH",
    "countryFullName": "Netherlands",
    "lng": 4.874653,
    "lat": 52.377182
  },
  {
    "slug": "isn-muradiye-moskee-schiedam-3111pl-netherlands",
    "name": "ISN Muradiye Moskee",
    "image1": "https://cdn.mawaqit.net/images/backend/mosque/7dc50ec0-2a11-4fe2-8236-247b26094f31/mosque/1eef1b30-d221-6b02-aef0-0aca010661ff.jpg",
    "address": "Raam 5-13",
    "city": "Schiedam",
    "zipcode": "3111PL",
    "countryFullName": "Netherlands",
    "lng": 4.3967495,
    "lat": 51.9188645
  },
  {
    "slug": "alhijra-leiden",
    "name": "Islamitisch Centrum Al-hijra",
    "image1": "https://cdn.mawaqit.net/images/backend/mosque/55a8d21f-dd30-4893-8700-5cdcc9e560a7/mosque/1eea8da2-0dbb-63d2-8ca0-066ed47a7584.jpg",
    "address": "Ter Haarplein 1-5",
    "city": "Leiden",
    "zipcode": "2321 AB",
    "countryFullName": "Netherlands",
    "lng": 4.473358,
    "lat": 52.156352
  },
  {
    "slug": "masjid-alfath-woerden",
    "name": "Islamitisch Cultureel Centrum Woerden",
    "image1": "https://cdn.mawaqit.net/images/backend/mosque/603da98c-d7d7-44eb-8ebf-7219b9f94fda/mosque/1eea8da2-c49d-6a3c-bd5c-066ed47a7584.jpg",
    "address": "Essenlaan 3",
    "city": "Woerden",
    "zipcode": "3442 JE",
    "countryFullName": "Netherlands",
    "lng": 4.8758871,
    "lat": 52.0802901
  },
  {
    "slug": "nasr-amsterdam",
    "name": "مسجد النصر امستردام",
    "image1": "https://cdn.mawaqit.net/images/backend/mosque/21608fb5-79ed-40d5-987d-d8ca069982df/mosque/1eea8da3-9946-6ef0-b4db-066ed47a7584.png",
    "address": "Celebesstraat 78/79",
    "city": "Amsterdam",
    "zipcode": "1094 ET",
    "countryFullName": "Netherlands",
    "lng": 4.9333398,
    "lat": 52.3603579
  },
  {
    "slug": "elmouhssinine-amsterdam",
    "name": "Elmouhssinine المحسنين",
    "image1": "https://cdn.mawaqit.net/images/backend/mosque/f0e0766e-5b9c-4bcf-98c6-7ee695ee7ab4/mosque/1eea8da3-a341-6fea-b5bd-066ed47a7584.png",
    "address": "Meeuwenlaan 31",
    "city": "Amsterdam",
    "zipcode": "1021 HS",
    "countryFullName": "Netherlands",
    "lng": 4.9130975,
    "lat": 52.3832582
  },
  {
    "slug": "elhassanimoskee-nl",
    "name": "المسجد الحسني",
    "image1": "https://cdn.mawaqit.net/images/backend/mosque/5596c009-7353-4d5b-a7f5-c45fedceabd8/mosque/1eea8da4-0adb-62d2-b760-066ed47a7584.jpg",
    "address": "info@elhassanimoskee.nl",
    "city": "Tiel",
    "zipcode": "4006 EW",
    "countryFullName": "Netherlands",
    "lng": 5.414579,
    "lat": 51.8815672
  },
  {
    "slug": "arrahmaan-dordrecht",
    "name": "Moskee Arrahmaan مسجد الرحمان",
    "image1": "https://cdn.mawaqit.net/images/backend/mosque_default_picture.png",
    "address": "Kasperspad 81",
    "city": "Dordrecht",
    "zipcode": "3311 ZE",
    "countryFullName": "Netherlands",
    "lng": 4.673179,
    "lat": 51.811767
  },
  {
    "slug": "tadamoun-amsterdam",
    "name": "مسجد  التضامن",
    "image1": "https://cdn.mawaqit.net/images/backend/mosque_default_picture.png",
    "address": "Houtrijkstraat 116",
    "city": "Amsterdam",
    "zipcode": "1013 VH",
    "countryFullName": "Netherlands",
    "lng": 4.8780158,
    "lat": 52.3902578
  },
  {
    "slug": "alfathalmoebien-amsterdam",
    "name": "مسجد الفتح المبين",
    "image1": "https://cdn.mawaqit.net/images/backend/mosque_default_picture.png",
    "address": "Joubertstraat 15 B",
    "city": "Amsterdam",
    "zipcode": "1091XN",
    "countryFullName": "Netherlands",
    "lng": 4.917266,
    "lat": 52.3533956
  },
  {
    "slug": "nidaulislam-den-helder",
    "name": "Nida ul Islam",
    "image1": "https://cdn.mawaqit.net/images/backend/mosque/f1da4d1d-41e4-455f-a6cb-0e58d38598f0/mosque/1eea8da5-69bc-6494-9d4c-066ed47a7584.jpg",
    "address": "Fresiastraat 11",
    "city": "Den-Helder",
    "zipcode": "1782 NS",
    "countryFullName": "NETHERLANDS",
    "lng": 4.7557288,
    "lat": 52.9507538
  },
  {
    "slug": "assalam-leeuwarden-leeuwarden",
    "name": "Moskee Assalaam",
    "image1": "https://cdn.mawaqit.net/images/backend/mosque/081f4da4-885f-47a3-b66f-3b737397ee84/mosque/1eea8da5-7495-63ca-abbd-066ed47a7584.jpg",
    "address": "Esdoornstraat 36",
    "city": "Leeuwarden",
    "zipcode": "8924 BK",
    "countryFullName": "Netherlands",
    "lng": 5.8231477,
    "lat": 53.2043059
  },
  {
    "slug": "nour-zwijndrecht",
    "name": "مسجد النور Moskee Nour Zwijndrecht",
    "image1": "https://cdn.mawaqit.net/images/backend/mosque/b82112c5-d1e6-423d-8923-4ee9813bef37/mosque/1eea8da6-01b6-622c-b4fa-066ed47a7584.jpg",
    "address": "Surinamestraat 7",
    "city": "Zwijndrecht",
    "zipcode": "3333AR",
    "countryFullName": "Netherlands",
    "lng": 4.634787,
    "lat": 51.8117948
  },
  {
    "slug": "almouahidine-amsterdam",
    "name": "مسجد الموحدين",
    "image1": "https://cdn.mawaqit.net/images/backend/mosque/9bc11361-2fb1-4557-b739-90404b399f45/mosque/1eea8da6-4c41-6bd4-9f7c-066ed47a7584.png",
    "address": "Borredammerhof 32",
    "city": "Amsterdam",
    "zipcode": "1069 ZH",
    "countryFullName": "Netherlands",
    "lng": 4.7948665,
    "lat": 52.3576744
  },
  {
    "slug": "almohsinien-zuid-scharwoude",
    "name": "مسجد المحسنين",
    "image1": "https://cdn.mawaqit.net/images/backend/mosque/39daa942-a7fa-49e5-ba0d-0e067af51ae8/mosque/1eea8da6-96ba-64c2-a42e-066ed47a7584.jpeg",
    "address": "Potjesdam 2A",
    "city": "Zuid-scharwoude",
    "zipcode": "1722 XN",
    "countryFullName": "Netherlands",
    "lng": 4.8211252,
    "lat": 52.7001462
  },
  {
    "slug": "arrahma-amsterdam",
    "name": "مسجد الرحمة - Moskee Arrahma",
    "image1": "https://cdn.mawaqit.net/images/backend/mosque/2fb0a6ad-4010-4736-9fc0-2351e002941d/mosque/1eea8da6-a49e-6e12-b010-066ed47a7584.jpg",
    "address": "Grootzeil 141",
    "city": "Amsterdam",
    "zipcode": "1034 LV",
    "countryFullName": "Netherlands",
    "lng": 4.9213266259076,
    "lat": 52.409284092739
  },
  {
    "slug": "assoenat-weesp",
    "name": "مسجد السنة",
    "image1": "https://cdn.mawaqit.net/images/backend/mosque_default_picture.png",
    "address": "M.Nijhoffstraat 1A",
    "city": "Weesp",
    "zipcode": "1382 Tr",
    "countryFullName": "Netherlands",
    "lng": 5.0342051,
    "lat": 52.3142063
  },
  {
    "slug": "alqibla-zoetermeer",
    "name": "Al Qibla - مسجد القبلة",
    "image1": "https://cdn.mawaqit.net/images/backend/mosque_default_picture.png",
    "address": "Kerkenbos 4",
    "city": "Zoetermeer",
    "zipcode": "2715 RP",
    "countryFullName": "Netherlands",
    "lng": 4.4731504,
    "lat": 52.0568522
  },
  {
    "slug": "alfath-dordrecht",
    "name": "مسجد الفتح",
    "image1": "https://cdn.mawaqit.net/images/backend/mosque/c33129d9-e57d-4f17-b2b1-147de55f3fdf/mosque/1eea8da6-ee6d-6b06-be1a-066ed47a7584.jpeg",
    "address": "Van der Steenhovenplein 2",
    "city": "Dordrecht",
    "zipcode": "3317 NM",
    "countryFullName": "Netherlands",
    "lng": 4.652029,
    "lat": 51.7837704
  },
  {
    "slug": "taaluf-purmerend",
    "name": "مسجد التآلف",
    "image1": "https://cdn.mawaqit.net/images/backend/mosque/2777fef9-d851-48c5-8c96-15cee9a0d1b2/mosque/1eea8da7-34bd-6fac-b797-066ed47a7584.jpeg",
    "address": "Sportlaan147",
    "city": "Purmerend",
    "zipcode": "1442EC",
    "countryFullName": "Netherlands",
    "lng": 4.965825,
    "lat": 52.5148012
  },
  {
    "slug": "othman-rotterdam",
    "name": "Moskee Othman",
    "image1": "https://cdn.mawaqit.net/images/backend/mosque_default_picture.png",
    "address": "Boezemdwarsstraat 1",
    "city": "Rotterdam",
    "zipcode": "3034EP",
    "countryFullName": "Netherlands",
    "lng": 4.4981877,
    "lat": 51.9303628
  },
  {
    "slug": "alwahda-rotterdam",
    "name": "Moskee Alwahda",
    "image1": "https://cdn.mawaqit.net/images/backend/mosque_default_picture.png",
    "address": "Van Eversdijckstraat 12",
    "city": "Rotterdam",
    "zipcode": "3083 MB",
    "countryFullName": "Netherlands",
    "lng": 4.4752328,
    "lat": 51.8913845
  },
  {
    "slug": "alnoor-rotterdam",
    "name": "مسجد النور    Masjid Al Noor",
    "image1": "https://cdn.mawaqit.net/images/backend/mosque/5771ef5f-5c61-4629-b4e6-6ae61dbced38/mosque/1eea8da8-1e65-69f2-a2d0-066ed47a7584.jpg",
    "address": "Wilgenlei 790",
    "city": "Rotterdam",
    "zipcode": "3053 CW",
    "countryFullName": "Netherlands",
    "lng": 4.4689505908073,
    "lat": 51.956924055321
  },
  {
    "slug": "ibrahim-maassluis",
    "name": "مسجد إبراهيم الخليل",
    "image1": "https://cdn.mawaqit.net/images/backend/mosque/e1da7726-b145-4454-a9d9-2ec23b6cf98d/mosque/1eea8da8-8529-6a76-8f4b-066ed47a7584.jpg",
    "address": "Burgemeester Zaneveldstraat 219",
    "city": "Maassluis",
    "zipcode": "3145 RE",
    "countryFullName": "Netherlands",
    "lng": 4.23145,
    "lat": 51.9372251
  },
  {
    "slug": "khalid-heerhugowaard",
    "name": "مسجد خالد بن الوليد",
    "image1": "https://cdn.mawaqit.net/images/backend/mosque/f248a99b-0d54-4806-b17b-da4498ba28c1/mosque/1eea8da9-01c5-6e86-aab8-066ed47a7584.jpg",
    "address": "Van Hellemondtstraat 64",
    "city": "Heerhugowaard",
    "zipcode": "1701 ER",
    "countryFullName": "Netherlands",
    "lng": 4.8474582,
    "lat": 52.6725593
  },
  {
    "slug": "ar-masjid-alhijra-vlaardingen",
    "name": "مسجد الهجرة",
    "image1": "https://cdn.mawaqit.net/images/backend/mosque/98633582-f44b-457d-850c-80b78e775b90/mosque/1eea8da9-0ee8-6474-8bf3-066ed47a7584.png",
    "address": "Dr. Abraham Kuyperstraat 4",
    "city": "Vlaardingen",
    "zipcode": "3131HA",
    "countryFullName": "Netherlands",
    "lng": 4.3401463,
    "lat": 51.9137626
  },
  {
    "slug": "ar-masjid-el-fath-lansingerland",
    "name": "مسجد الفتح",
    "image1": "https://cdn.mawaqit.net/images/backend/mosque/cc59efd6-aad8-45c6-9f1b-0d16b6bfe8ca/mosque/1eea8da9-26e0-6946-8cf9-066ed47a7584.jpeg",
    "address": "Zijde 7",
    "city": "Bergschenhoek",
    "zipcode": "2662 EB",
    "countryFullName": "Netherlands",
    "lng": 4.4786918,
    "lat": 51.9849982
  },
  {
    "slug": "islamitisch-centrum-el-hoeda",
    "name": "EL HOEDA SCHOONHOVEN مسجد الهدى",
    "image1": "https://cdn.mawaqit.net/images/backend/mosque/5789b7da-fe5c-44fe-92f8-2c4f0a62c002/mosque/1eea8da9-6505-6848-9076-066ed47a7584.jpg",
    "address": "Beneluxlaan 1",
    "city": "Schoonhoven",
    "zipcode": "2871 HA",
    "countryFullName": "Netherlands",
    "lng": 4.843942,
    "lat": 51.9513988
  },
  {
    "slug": "icclr",
    "name": "ICCLR",
    "image1": "https://cdn.mawaqit.net/images/backend/mosque/7daa70e1-1044-40aa-99c1-8c1d4e79bc69/mosque/1eea8da9-b840-658a-854c-066ed47a7584.jpeg",
    "address": "Pratumplaats 3",
    "city": "De-Meern",
    "zipcode": "3454 NA",
    "countryFullName": "Netherlands",
    "lng": 5.0461327,
    "lat": 52.0883723
  },
  {
    "slug": "arrahman-breda",
    "name": "مسجد الرحمانMoskee Arrahman",
    "image1": "https://cdn.mawaqit.net/images/backend/mosque/7d808e2e-bc19-4b9d-bea9-5e2ea96a26cb/mosque/1eea8da9-fa20-6afe-b724-066ed47a7584.jpg",
    "address": "Archimedesstraat 6",
    "city": "Breda",
    "zipcode": "4816 BB",
    "countryFullName": "Netherlands",
    "lng": 4.7835497,
    "lat": 51.5995169
  },
  {
    "slug": "smmib-al-hidaya",
    "name": "Stichting Al-Hidaya Breda",
    "image1": "https://cdn.mawaqit.net/images/backend/mosque/32ba0a6e-572f-4417-8d98-2073bffc4b99/mosque/1eea8daa-7378-6cbc-89b6-066ed47a7584.jpeg",
    "address": "Antiloopstraat 51",
    "city": "Breda",
    "zipcode": "4817LB",
    "countryFullName": "Netherlands",
    "lng": 4.7952650114894,
    "lat": 51.592617079061
  },
  {
    "slug": "abibakrissiddik",
    "name": "مسجد أبي بكر الصديق",
    "image1": "https://cdn.mawaqit.net/images/backend/mosque/1d149af6-2ee0-45af-8b67-b807ef71297a/mosque/1eea8daa-c142-68ee-bfae-066ed47a7584.jpg",
    "address": "Berlagestraat 400",
    "city": "Utrecht",
    "zipcode": "3555 CW",
    "countryFullName": "Netherlands",
    "lng": 5.0759807,
    "lat": 52.1154488
  },
  {
    "slug": "tawhied-roermond",
    "name": "Tawhied مسجد التوحيد",
    "image1": "https://cdn.mawaqit.net/images/backend/mosque/b2e7b05e-dee9-4eda-9c0d-140e01ad1793/mosque/1eea8dab-2cfb-6932-9371-066ed47a7584.jpg",
    "address": "Sint Wirosingel 50",
    "city": "Roermond",
    "zipcode": "6045 ET",
    "countryFullName": "Netherlands",
    "lng": 6.010176,
    "lat": 51.175479
  },
  {
    "slug": "arrayan-amsterdam",
    "name": "مسجد الريان",
    "image1": "https://cdn.mawaqit.net/images/backend/mosque/7b2190e9-1ab1-49ae-8b2d-dac371408ffe/mosque/1eea8dab-ac3c-6b56-a1fb-066ed47a7584.jpg",
    "address": "Ganzenveldstraat 2",
    "city": "Amsterdam",
    "zipcode": "1024 CN",
    "countryFullName": "Netherlands",
    "lng": 4.9555164,
    "lat": 52.396812
  },
  {
    "slug": "sic-venray",
    "name": "Stichting Islamitisch Centrum Venray",
    "image1": "https://cdn.mawaqit.net/images/backend/mosque/ab470314-fd51-469b-b2d6-b0813243128d/mosque/1eea8dab-c454-6ee6-b9c3-066ed47a7584.jpg",
    "address": "Kiosk 6 A",
    "city": "Venray",
    "zipcode": "5802 AP",
    "countryFullName": "Netherlands",
    "lng": 5.9844561,
    "lat": 51.5241475
  },
  {
    "slug": "taqwa-culemborg",
    "name": "مسجد التقوى",
    "image1": "https://cdn.mawaqit.net/images/backend/mosque/db21cc87-ccf4-4100-bab3-4842c45a18b6/mosque/1eea8dab-e0bf-631a-96c3-066ed47a7584.JPG",
    "address": "Ridderstraat 19",
    "city": "Culemborg",
    "zipcode": "4101BJ",
    "countryFullName": "Netherlands",
    "lng": 5.2257359,
    "lat": 51.9582261
  },
  {
    "slug": "essalam-rotterdam",
    "name": "Stichting Moskee Essalam",
    "image1": "https://cdn.mawaqit.net/images/backend/mosque_default_picture.png",
    "address": "Vredesplein 7",
    "city": "Rotterdam-Zuid",
    "zipcode": "3074 SN",
    "countryFullName": "Netherlands",
    "lng": 4.5137018,
    "lat": 51.8986578
  },
  {
    "slug": "stichting-moordrecht",
    "name": "Masjid Attawhied (St. CCM)",
    "image1": "https://cdn.mawaqit.net/images/backend/mosque/ed4d1e46-488d-4bf3-a25d-7cf91096b33a/mosque/1eea8dac-24ad-6360-afa5-066ed47a7584.jpg",
    "address": "Burgemeester Brandtstraat 2",
    "city": "Moordrecht",
    "zipcode": "2841XC",
    "countryFullName": "Netherlands",
    "lng": 4.6695005,
    "lat": 51.9886377
  },
  {
    "slug": "alfourkane-amsterdam",
    "name": "مسجد الفرقان",
    "image1": "https://cdn.mawaqit.net/images/backend/mosque_default_picture.png",
    "address": "Erich Salomonstraat 223",
    "city": "Amsterdam",
    "zipcode": "1087KR",
    "countryFullName": "Netherlands",
    "lng": 4.9949686,
    "lat": 52.3582484
  },
  {
    "slug": "arrahman-middelburg",
    "name": "مسجد الرحمن",
    "image1": "https://cdn.mawaqit.net/images/backend/mosque/c84fdf07-b0f3-44ba-8e7b-d80c59fe9509/mosque/1eea8dac-a278-6998-86c4-066ed47a7584.jpg",
    "address": "Schepenenhof 1",
    "city": "Middelburg",
    "zipcode": "4336BA",
    "countryFullName": "Netherlands",
    "lng": 3.6148748,
    "lat": 51.48925
  },
  {
    "slug": "almouwahidin-naaldwijk",
    "name": "مسجد الموحدين",
    "image1": "https://cdn.mawaqit.net/images/backend/mosque/c1d358b4-1ee9-42c4-b7ed-174b590c282c/mosque/1eea8dad-3cbf-65a6-8d63-066ed47a7584.jpg",
    "address": "Van der Doortogestraat 21",
    "city": "Naaldwijk",
    "zipcode": "2671BS",
    "countryFullName": "Netherlands",
    "lng": 4.2063175,
    "lat": 51.9962898
  },
  {
    "slug": "alfarouk-utrecht",
    "name": "المركز الثقافي الإسلامي عمر الفاروق",
    "image1": "https://cdn.mawaqit.net/images/backend/mosque/6a054433-8374-471c-9975-e2dcb18d407a/mosque/1eea8dae-798f-6c46-b81f-066ed47a7584.jpg",
    "address": "Winterboeidreef 4",
    "city": "Utrecht",
    "zipcode": "3561HX",
    "countryFullName": "Netherlands",
    "lng": 5.1232109,
    "lat": 52.1109079
  },
  {
    "slug": "alkarama-amsterdam",
    "name": "مسجد الكرامة",
    "image1": "https://cdn.mawaqit.net/images/backend/mosque_default_picture.png",
    "address": "Pontanusstraat 278A",
    "city": "Amsterdam",
    "zipcode": "1093 SH",
    "countryFullName": "Netherlands",
    "lng": 4.9298524,
    "lat": 52.3606859
  },
  {
    "slug": "elfath-maastricht",
    "name": "مسجد الفتح",
    "image1": "https://cdn.mawaqit.net/images/backend/mosque_default_picture.png",
    "address": "St Lucassingel 70",
    "city": "Maastricht",
    "zipcode": "6217 JC",
    "countryFullName": "Netherlands",
    "lng": 5.691,
    "lat": 50.8514
  },
  {
    "slug": "assonna-utrecht",
    "name": "Moskee Assoenna  /  مسجد السنة",
    "image1": "https://cdn.mawaqit.net/images/backend/mosque_default_picture.png",
    "address": "Justus van Maurikstraat 2",
    "city": "Utrecht",
    "zipcode": "3532BR",
    "countryFullName": "Netherlands",
    "lng": 5.0898773,
    "lat": 52.0964387
  },
  {
    "slug": "ettaouhid-rotterdam",
    "name": "مركز التوحيد - Centrum Ettaouhid",
    "image1": "https://cdn.mawaqit.net/images/backend/mosque_default_picture.png",
    "address": "Kogelvangerstraat 114-116",
    "city": "Rotterdam",
    "zipcode": "3014 zp",
    "countryFullName": "Netherlands",
    "lng": 4.4641674,
    "lat": 51.9182304
  },
  {
    "slug": "blauwe-amsterdam",
    "name": "De Blauwe Moskee",
    "image1": "https://cdn.mawaqit.net/images/backend/mosque_default_picture.png",
    "address": "Henri Dunanstraat",
    "city": "Amsterdam",
    "zipcode": "1066XX",
    "countryFullName": "Netherlands",
    "lng": 4.8314309120178,
    "lat": 52.348376509268
  },
  {
    "slug": "badr-amsterdam",
    "name": "Moskee Badr",
    "image1": "https://cdn.mawaqit.net/images/backend/mosque/19b90343-0f31-4b03-85d1-5a9967617155/mosque/1eea8db3-0e41-637c-aeb4-066ed47a7584.JPG",
    "address": "Willem Leevendstraat 7",
    "city": "Amsterdam",
    "zipcode": "1055 KB",
    "countryFullName": "Netherlands",
    "lng": 4.8468816,
    "lat": 52.3838764
  },
  {
    "slug": "elfath-alphen",
    "name": "مسجدالفتح",
    "image1": "https://cdn.mawaqit.net/images/backend/mosque/48f39ce9-6550-4aaf-916a-1e7b6329da16/mosque/1eea8db4-36fa-615a-8ecd-066ed47a7584.jpg",
    "address": "Sportlaan 2a",
    "city": "Alphen-Aan-Den-Rijn",
    "zipcode": "2406LD",
    "countryFullName": "Netherlands",
    "lng": 4.6726117,
    "lat": 52.136556
  },
  {
    "slug": "almouahidin-ede",
    "name": "Moskee Al Mouahidin",
    "image1": "https://cdn.mawaqit.net/images/backend/mosque/a30ec224-21a5-4dd6-ac65-ffbf3501d77b/mosque/1eea8db4-68b4-615a-b558-066ed47a7584.png",
    "address": "Peppelensteeg 1b",
    "city": "Ede",
    "zipcode": "6715 CV",
    "countryFullName": "Netherlands",
    "lng": 5.6434718,
    "lat": 52.0368354
  },
  {
    "slug": "omar-beverwijk",
    "name": "مسجد عمر ابن الخطاب  Beverwijk",
    "image1": "https://cdn.mawaqit.net/images/backend/mosque/1d5ff714-5b3c-4439-9447-4bddc43ec9d7/mosque/1eea8db5-d05f-6efc-916d-066ed47a7584.jpeg",
    "address": "Lingestraat 29",
    "city": "Beverwijk",
    "zipcode": "1946 AP",
    "countryFullName": "Netherlands",
    "lng": 4.6731557,
    "lat": 52.4888739
  },
  {
    "slug": "almuhsinin-haarlem",
    "name": "Moskee Almohsinin",
    "image1": "https://cdn.mawaqit.net/images/backend/mosque/8d485129-2a7b-4120-8e5e-4b4ecd0ce07a/mosque/1eea8db7-e570-6236-932f-066ed47a7584.jpg",
    "address": "Spijkerboorpad 8",
    "city": "Haarlem",
    "zipcode": "2037 EA",
    "countryFullName": "Netherlands",
    "lng": 4.6644291,
    "lat": 52.3592596
  },
  {
    "slug": "almohsinin-oosterhout",
    "name": "مسجد المحسنين",
    "image1": "https://cdn.mawaqit.net/images/backend/mosque/11e7469c-90f2-4b8f-8266-9fd1d7171e82/mosque/1eea8dba-2526-6982-9b4c-066ed47a7584.jpg",
    "address": "Beneluxweg 99",
    "city": "Oosterhout",
    "zipcode": "4904 SJ",
    "countryFullName": "Netherlands",
    "lng": 4.8632556,
    "lat": 51.6207738
  },
  {
    "slug": "assalam-amsterdam",
    "name": "Moskee Salaam",
    "image1": "https://cdn.mawaqit.net/images/backend/mosque_default_picture.png",
    "address": "legmeerstraat 79",
    "city": "Amsterdam",
    "zipcode": "Amsterdam 1058nc",
    "countryFullName": "Netherlands",
    "lng": 4.8511598,
    "lat": 52.3515225
  },
  {
    "slug": "elhilaal-hoogvliet-rotterdam",
    "name": "Moskee El Hilaal مسجد الهلال",
    "image1": "https://cdn.mawaqit.net/images/backend/mosque/e2368021-df73-428d-9051-8d8c88c9e36f/mosque/1eea8dbc-9143-612c-aad3-066ed47a7584.jpg",
    "address": "Saffraanstraat 105",
    "city": "Hoogvliet-Rotterdam",
    "zipcode": "3193 XJ",
    "countryFullName": "Netherlands",
    "lng": 4.3495762,
    "lat": 51.8653353
  },
  {
    "slug": "al-mohcinine-rotterdam",
    "name": "Moskee al-Mohcinine",
    "image1": "https://cdn.mawaqit.net/images/backend/mosque/cb437322-66e1-47fa-adbe-62aecf258f4b/mosque/1eea8dbc-ae01-6df4-9f96-066ed47a7584.JPG",
    "address": "Nassauhaven 40",
    "city": "Rotterdam",
    "zipcode": "3071JK",
    "countryFullName": "Netherlands",
    "lng": 4.5060343,
    "lat": 51.9137122
  },
  {
    "slug": "tawhid-amersfoort",
    "name": "Moskee Tawhid Amersfoort",
    "image1": "https://cdn.mawaqit.net/images/backend/mosque/73692bf7-f7ab-4458-89dd-f65c500399cc/mosque/1eea8dbd-0fd9-6e28-b139-066ed47a7584.jpg",
    "address": "Einsteinstraat 4",
    "city": "Amersfoort",
    "zipcode": "3817JS",
    "countryFullName": "Netherlands",
    "lng": 5.3815797,
    "lat": 52.138841
  },
  {
    "slug": "middenweg-rotterdam-1",
    "name": "Centrum de Middenweg",
    "image1": "https://cdn.mawaqit.net/images/backend/mosque/f1a90dea-bb1e-4e40-b5f0-5bd77de599a8/mosque/1eea8dbd-7f0f-6eaa-a9e8-066ed47a7584.jpg",
    "address": "Kerdijkstraat 16",
    "city": "Rotterdam",
    "zipcode": "3038XE",
    "countryFullName": "Netherlands",
    "lng": 4.462862,
    "lat": 51.9333134
  },
  {
    "slug": "taqwa-nieuw-vennep",
    "name": "مسجد التقوى",
    "image1": "https://cdn.mawaqit.net/images/backend/mosque/48e04a52-a3b6-45fd-8595-575794e70125/mosque/1eea8dbd-9079-6ed4-ad13-066ed47a7584.png",
    "address": "Staringstraat 30",
    "city": "Nieuw-Vennep",
    "zipcode": "2152 CX",
    "countryFullName": "Netherlands",
    "lng": 4.6286813914776,
    "lat": 52.272352651249
  },
  {
    "slug": "mutaqin-zeist",
    "name": "مسجد المتقين",
    "image1": "https://cdn.mawaqit.net/images/backend/mosque/bc659f46-5d5b-4ffd-b2f4-e13461c21fa6/mosque/1eea8dbd-a4a1-6538-905a-066ed47a7584.jpg",
    "address": "De Clomp 30-32",
    "city": "Zeist",
    "zipcode": "3704 KX",
    "countryFullName": "Netherlands",
    "lng": 5.2189147,
    "lat": 52.0825897
  },
  {
    "slug": "attaqwa-etten-leur",
    "name": "Moskee At-Taqwa - مسجد التقوى",
    "image1": "https://cdn.mawaqit.net/images/backend/mosque/7bc92d3c-807d-4fd1-9bea-2d5298ab0e93/mosque/1eea8dbe-0415-6780-aedc-066ed47a7584.jpg",
    "address": "Noordwiek 2",
    "city": "Etten-Leur",
    "zipcode": "4872 XX",
    "countryFullName": "Netherlands",
    "lng": 4.6392819,
    "lat": 51.5748292
  },
  {
    "slug": "m-almelo",
    "name": "Moskee Imam Malik Almelo",
    "image1": "https://cdn.mawaqit.net/images/backend/mosque/5edac668-4cf1-4d22-b6bd-ddda01d9b3ad/mosque/1eea8dc1-43cd-62d0-acda-066ed47a7584.jpg",
    "address": "Veldkampsweg 16",
    "city": "Almelo",
    "zipcode": "7605AR",
    "countryFullName": "Netherlands",
    "lng": 6.6577819797623,
    "lat": 52.351884753518
  },
  {
    "slug": "moutaquine-amsterdam",
    "name": "Moskee El Moutaquine",
    "image1": "https://cdn.mawaqit.net/images/backend/mosque/0ad4aafb-b42a-4c89-b09f-609d71f02c0d/mosque/1f039355-660c-6b9a-91cc-0611a4e5dd55.jpg",
    "address": "Nageljongenstraat 150, 1033 PZ Amsterdam, Pays-Bas",
    "city": "Amsterdam",
    "zipcode": "1033 PZ",
    "countryFullName": "Netherlands",
    "lng": 4.8986174,
    "lat": 52.4052307
  },
  {
    "slug": "nasr-driebergen",
    "name": "مسجد النصر",
    "image1": "https://cdn.mawaqit.net/images/backend/mosque/a331c123-fa74-4d7a-ac08-306014ceb3fe/mosque/1eea8dc3-dab6-6b0e-8c77-066ed47a7584.jpg",
    "address": "Akkerweg 3",
    "city": "Driebergen",
    "zipcode": "3972AA",
    "countryFullName": "Netherlands",
    "lng": 5.2928318,
    "lat": 52.046164
  },
  {
    "slug": "m-den-haag",
    "name": "social cultureel centrum",
    "image1": "https://cdn.mawaqit.net/images/backend/mosque/2d88fd92-6499-447d-8b04-c4d5bd478028/mosque/1eea8dc4-38ac-6d26-a0c4-066ed47a7584.jpg",
    "address": "de lareyweg 297",
    "city": "Den-Haag",
    "zipcode": "2571 EH",
    "countryFullName": "Netherlands",
    "lng": 4.2874039,
    "lat": 52.0661187
  },
  {
    "slug": "el-mohsinin-den-haag",
    "name": "Moskee El Mouhsinin",
    "image1": "https://cdn.mawaqit.net/images/backend/mosque/559d6549-0bb2-465e-bc5b-9d7c3a5c00f9/mosque/1eea8dc4-cf7b-63ec-956f-066ed47a7584.jpg",
    "address": "Stationsweg 89",
    "city": "Den-Haag",
    "zipcode": "2515BK",
    "countryFullName": "Netherlands",
    "lng": 4.3194691,
    "lat": 52.0724991
  },
  {
    "slug": "al-kabir-amsterdam",
    "name": "Moskee Al Kabir",
    "image1": "https://cdn.mawaqit.net/images/backend/mosque/ebec5933-6845-42ef-b963-14fb76fa23dc/mosque/1eea8dc5-b778-691a-a44d-066ed47a7584.jpg",
    "address": "Weesperzijde 76",
    "city": "Amsterdam",
    "zipcode": "1091EJ",
    "countryFullName": "Netherlands",
    "lng": 4.9099123,
    "lat": 52.3534499
  },
  {
    "slug": "arrahma-den-bosch",
    "name": "Moskee Arrahma",
    "image1": "https://cdn.mawaqit.net/images/backend/mosque/4f3f09fa-5b74-4155-9b56-d905382d7f29/mosque/1eea8dc8-54af-657e-ba67-066ed47a7584.jpg",
    "address": "Vogelstraat 24",
    "city": "Den-Bosch",
    "zipcode": "5212 VL",
    "countryFullName": "Netherlands",
    "lng": 5.3002976,
    "lat": 51.6983852
  },
  {
    "slug": "attakwa-den-bosch",
    "name": "مسجد التقوى",
    "image1": "https://cdn.mawaqit.net/images/backend/mosque/94c27969-2394-491c-a379-8ef5d1f53eea/mosque/1eea8dc8-67ad-6522-85a0-066ed47a7584.jpg",
    "address": "van Tulden straat 8 - 10",
    "city": "Den-Bosch",
    "zipcode": "5211 TG",
    "countryFullName": "Netherlands",
    "lng": 5.3021056,
    "lat": 51.6935196
  },
  {
    "slug": "itihad-alphen",
    "name": "Moskee Itihad مسجد إتحاد",
    "image1": "https://cdn.mawaqit.net/images/backend/mosque/37922f2f-bcb5-4fe9-9848-cec64d0541c2/mosque/1eea8dc9-6717-621a-95dc-066ed47a7584.jpeg",
    "address": "Troubadourweg 1-3",
    "city": "Alphen-Aan-Den-Rijn",
    "zipcode": "2402EP",
    "countryFullName": "Netherlands",
    "lng": 4.673298,
    "lat": 52.146029
  },
  {
    "slug": "touba-vlissingen",
    "name": "Touba Moskee - Vlissingen - مسجد التوبة",
    "image1": "https://cdn.mawaqit.net/images/backend/mosque/d12b0180-09d7-4b20-ac1c-8f24a7872bc1/mosque/1eea8dc9-7196-6a6a-a3a1-066ed47a7584.JPG",
    "address": "Schuitvaarstraat 14",
    "city": "Vlissingen",
    "zipcode": "4383 BW",
    "countryFullName": "Netherlands",
    "lng": 3.5678552,
    "lat": 51.4571854
  },
  {
    "slug": "eloumma-amsterdam",
    "name": "Moskee El Oumma",
    "image1": "https://cdn.mawaqit.net/images/backend/mosque/a4f346fc-63f7-4808-9821-7afcac4e9ac0/mosque/1eea8dc9-bd76-687c-a3b2-066ed47a7584.png",
    "address": "Postjesweg 179",
    "city": "Amsterdam",
    "zipcode": "1062 JN",
    "countryFullName": "Netherlands",
    "lng": 4.8387413,
    "lat": 52.363785
  },
  {
    "slug": "ennasser-zaltbommel",
    "name": "Moskee Ennasser مسجد النصر",
    "image1": "https://cdn.mawaqit.net/images/backend/mosque/27fb51f0-7218-4098-a954-8904ef7a257b/mosque/1eea8dca-45e4-6376-901c-066ed47a7584.png",
    "address": "Vergtweg 85",
    "city": "Zaltbommel",
    "zipcode": "5301 TE",
    "countryFullName": "Netherlands",
    "lng": 5.244807486404,
    "lat": 51.805035235974
  },
  {
    "slug": "nour-amsterdam",
    "name": "Moskee Nour  مسجد النور",
    "image1": "https://cdn.mawaqit.net/images/backend/mosque/f6b80e61-3d57-4713-b8c5-b0095105a8ef/mosque/1eea8dca-72cd-66a8-a393-066ed47a7584.jpg",
    "address": "Witte de Withstraat 96",
    "city": "Amsterdam",
    "zipcode": "1057ZG",
    "countryFullName": "Netherlands",
    "lng": 4.859433,
    "lat": 52.3685205
  },
  {
    "slug": "m-wageningen",
    "name": "Moskee",
    "image1": "https://cdn.mawaqit.net/images/backend/mosque/ed6800dc-77ff-411b-956e-755ca773811c/mosque/1eea8dca-9e36-6ede-b69b-066ed47a7584.jpg",
    "address": "Shaepmaanstraat 165",
    "city": "Wageningen",
    "zipcode": "6702AV",
    "countryFullName": "Netherlands",
    "lng": 5.652521,
    "lat": 51.9628516
  },
  {
    "slug": "al-imaan-amsterdam",
    "name": "Masjid al Imaan | مسجد الإيمان",
    "image1": "https://cdn.mawaqit.net/images/backend/mosque/3c23f3c9-0b49-40f2-aa0d-e94771430fb5/mosque/1eec7ef1-6655-65d2-8c7e-0a7eba2dd6b3.jpg",
    "address": "Jekerstraat 86",
    "city": "Amsterdam",
    "zipcode": "1078 MG",
    "countryFullName": "Netherlands",
    "lng": 4.8962256,
    "lat": 52.346236
  },
  {
    "slug": "attaouba-almere",
    "name": "مسجد التوبة",
    "image1": "https://cdn.mawaqit.net/images/backend/mosque/80afaec6-0798-4be1-b3c7-596bf4d5cca0/mosque/1eea8dcb-bc5f-60d6-bd42-066ed47a7584.png",
    "address": "schoolstraat 261",
    "city": "Almere-Haven",
    "zipcode": "1354HX",
    "countryFullName": "Netherlands",
    "lng": 5.221209526062,
    "lat": 52.336912420614
  },
  {
    "slug": "abu-bakr-almere",
    "name": "مسجد أبي بكر الصديق",
    "image1": "https://cdn.mawaqit.net/images/backend/mosque/594fd1c6-7a3c-4489-a693-b40cbb07510f/mosque/1eea8dcb-da67-6736-ae79-066ed47a7584.jpg",
    "address": "clemenceaustraat 1",
    "city": "Almere",
    "zipcode": "1314 RL",
    "countryFullName": "Netherlands",
    "lng": 5.2213903,
    "lat": 52.3805139
  },
  {
    "slug": "al-fath-boxtel",
    "name": "مسجد الفتح",
    "image1": "https://cdn.mawaqit.net/images/backend/mosque/4ab53188-6db4-4647-826a-2bdf38c378a6/mosque/1eea8dce-57c6-6586-b7a7-066ed47a7584.jpg",
    "address": "Hoogheem 483",
    "city": "Boxtel",
    "zipcode": "5282BH",
    "countryFullName": "Netherlands",
    "lng": 5.3325855731964,
    "lat": 51.590762636427
  },
  {
    "slug": "moskee-el-hijra-amsterdam-1064er-netherlands-1",
    "name": "Moskee El Hijra",
    "image1": "https://cdn.mawaqit.net/images/backend/mosque/1f804d26-762a-44e9-8824-60f1497f6af5/mosque/1eea8dd0-ae36-6752-b97b-066ed47a7584.jpeg",
    "address": "Burgemeester Rendorpstraat 60",
    "city": "Amsterdam",
    "zipcode": "1064ER",
    "countryFullName": "Netherlands",
    "lng": 4.8282483,
    "lat": 52.3760125
  },
  {
    "slug": "taoba-ijsselstein",
    "name": "Moskee Taoba",
    "image1": "https://cdn.mawaqit.net/images/backend/mosque/f411ba54-c523-4e99-aae1-e5b8305d0e42/mosque/1eea8dd1-7009-6550-a4d0-066ed47a7584.jpg",
    "address": "Finlandpad 2",
    "city": "Ijsselstein",
    "zipcode": "3402 TV",
    "countryFullName": "Netherlands",
    "lng": 5.0575396,
    "lat": 52.0232699
  },
  {
    "slug": "elmouahidin-den-haag",
    "name": "Moskee el Mouahidin",
    "image1": "https://cdn.mawaqit.net/images/backend/mosque/41c2f9a8-3a06-4025-8ef9-e8572172a265/mosque/1eea8dd2-3891-6860-8484-066ed47a7584.jpg",
    "address": "deimanstraat 7",
    "city": "Den-Haag",
    "zipcode": "2522BB",
    "countryFullName": "Netherlands",
    "lng": 4.3296627,
    "lat": 52.0639619
  },
  {
    "slug": "arrahman-goes",
    "name": "مسجد الرحمن",
    "image1": "https://cdn.mawaqit.net/images/backend/mosque/1da5baa1-09d9-42f8-8ed4-951dc3d6dbc2/mosque/1eea8dd4-06bb-6a00-a044-066ed47a7584.JPG",
    "address": "zuidvlietstraat 122",
    "city": "Goes",
    "zipcode": "4463HB",
    "countryFullName": "Netherlands",
    "lng": 3.8798846,
    "lat": 51.4998414
  },
  {
    "slug": "the-hague-african-den-haag",
    "name": "The Hague African",
    "image1": "https://cdn.mawaqit.net/images/backend/mosque/c83839ff-9596-41f7-bba1-1c1f946a001d/mosque/1eea8dd4-e59d-60d4-b3b0-066ed47a7584.jpg",
    "address": "Paul Krugerlaan 35",
    "city": "Den-Haag",
    "zipcode": "2571 HB",
    "countryFullName": "Netherlands",
    "lng": 4.2856673,
    "lat": 52.0703093
  },
  {
    "slug": "al-irchaad-uithoorn",
    "name": "مسجد الإرشاد",
    "image1": "https://cdn.mawaqit.net/images/backend/mosque/4a38c24b-51b6-439b-b188-eb0fe84c7adf/mosque/1eea8dd7-5d29-60f6-8d62-066ed47a7584.jpg",
    "address": "Industrieweg 19",
    "city": "Uithoorn",
    "zipcode": "1422AH",
    "countryFullName": "Netherlands",
    "lng": 4.8296537,
    "lat": 52.2396283
  },
  {
    "slug": "ichelmond",
    "name": "Islamitisch Centrum",
    "image1": "https://cdn.mawaqit.net/images/backend/mosque/942c2258-da59-417c-9d3d-f39682a3af78/mosque/1eea8dd7-eb9e-6cb4-a0f0-066ed47a7584.jpeg",
    "address": "Blinkertsestraat 6",
    "city": "Helmond",
    "zipcode": "5701ND",
    "countryFullName": "Netherlands",
    "lng": 5.6620676,
    "lat": 51.4827541
  },
  {
    "slug": "msjd-ltwb-taouba-moskee-wolvega-8471-zr-netherlands",
    "name": "مسجد التوبة-Taouba moskee",
    "image1": "https://cdn.mawaqit.net/images/backend/mosque/209284ad-419e-4782-a9b0-2a505cf16393/mosque/1eea8dd8-f366-6c34-bbc2-066ed47a7584.JPG",
    "address": "Pastoriestraat 4",
    "city": "Wolvega",
    "zipcode": "8471 ZR",
    "countryFullName": "Netherlands",
    "lng": 6.0011798,
    "lat": 52.8771201
  },
  {
    "slug": "m-vianen",
    "name": "Moskee Vianen",
    "image1": "https://cdn.mawaqit.net/images/backend/mosque/34944482-783b-4679-afa1-cae50254e372/mosque/1eea8dd9-069b-6930-bb1e-066ed47a7584.jpg",
    "address": "De Lafayettestraat 2",
    "city": "Vianen",
    "zipcode": "4131 GV",
    "countryFullName": "Netherlands",
    "lng": 5.0995879,
    "lat": 51.9933419
  },
  {
    "slug": "alfadjr",
    "name": "مسجد الفجر  Moskee AlFadjr",
    "image1": "https://cdn.mawaqit.net/images/backend/mosque/7b7b51f4-466a-46cc-84b8-ac28d840d4d9/mosque/1eea8ddb-534f-6f9a-9b7d-066ed47a7584.jpeg",
    "address": "Zuid Koninginnewal 6",
    "city": "Helmond",
    "zipcode": "5701NT",
    "countryFullName": "Netherlands",
    "lng": 5.6574925,
    "lat": 51.4771837
  },
  {
    "slug": "moskee-nour-cuijk",
    "name": "Moskee Nour",
    "image1": "https://cdn.mawaqit.net/images/backend/mosque/4b80ad10-a0fa-47ab-8fba-d4e270edc9bb/mosque/1eea8ddb-b0d4-6f3a-9fcb-066ed47a7584.jpg",
    "address": "Gildekamp 5",
    "city": "Cuijk",
    "zipcode": "5431 SP",
    "countryFullName": "Netherlands",
    "lng": 5.8676255,
    "lat": 51.7318115
  },
  {
    "slug": "amanah-emmen",
    "name": "Emmen مسجد الأمانة",
    "image1": "https://cdn.mawaqit.net/images/backend/mosque/fe41ae20-0214-4a07-8e26-44a5b1d62e1b/mosque/1eea8dde-7b05-623a-af06-066ed47a7584.jpeg",
    "address": "Peyserhof 61",
    "city": "Emmen",
    "zipcode": "7824CN",
    "countryFullName": "Netherlands",
    "lng": 6.9232047,
    "lat": 52.7811647
  },
  {
    "slug": "moskeeaiccdb",
    "name": "Moskee Qobaa",
    "image1": "https://cdn.mawaqit.net/images/backend/mosque/4f0c799b-6e6d-448f-a0f9-665797a21c68/mosque/1eea8dde-a986-62e4-8dd0-066ed47a7584.jpg",
    "address": "Anthony Fokkerstraat 1A",
    "city": "'s-Hertogenbosch",
    "zipcode": "5224 BA",
    "countryFullName": "Netherlands",
    "lng": 5.2635589,
    "lat": 51.6977051
  },
  {
    "slug": "al-moslimin-nijmegen",
    "name": "Moskee Al-moslimin",
    "image1": "https://cdn.mawaqit.net/images/backend/mosque/1b491dcd-4d3e-4a20-9e63-97bdf824f9c6/mosque/1eea8de1-f025-6f58-8262-066ed47a7584.jpg",
    "address": "klimopstraat 15",
    "city": "Nijmegen",
    "zipcode": "6543 SJ",
    "countryFullName": "Netherlands",
    "lng": 5.8356982,
    "lat": 51.8370188
  },
  {
    "slug": "abi-bakr-nijmegen",
    "name": "Moskee Abi Bakr",
    "image1": "https://cdn.mawaqit.net/images/backend/mosque/bc591218-d26b-4879-b009-d070e14c2e26/mosque/1eea8de4-479e-67c4-a696-066ed47a7584.jpg",
    "address": "Pastoor Zegersstraat 75",
    "city": "Nijmegen",
    "zipcode": "6542 VN",
    "countryFullName": "Netherlands",
    "lng": 5.8447491,
    "lat": 51.841931
  },
  {
    "slug": "alfath-hilversum",
    "name": "Moskee El Fath",
    "image1": "https://cdn.mawaqit.net/images/backend/mosque/16dd0f50-fb20-44a5-ad2c-bfd3a302ca68/mosque/1eea8de5-8e16-60e8-be49-066ed47a7584.jpeg",
    "address": "Simon Stevinweg 48-A",
    "city": "Hilversum",
    "zipcode": "1221 AE",
    "countryFullName": "Netherlands",
    "lng": 5.1802346,
    "lat": 52.2310616
  },
  {
    "slug": "el-feth-tilburg-1",
    "name": "مسجد الفتح - ElFeth Moskee",
    "image1": "https://cdn.mawaqit.net/images/backend/mosque/6a9d865e-aa98-4bb9-a701-a2f6bc56a868/mosque/1eea8de6-2b59-6850-b288-066ed47a7584.gif",
    "address": "Stedekestraat 27",
    "city": "Tilburg",
    "zipcode": "5041DM",
    "countryFullName": "Netherlands",
    "lng": 5.0801474,
    "lat": 51.5648586
  },
  {
    "slug": "moskee-al-himmah-zaandam",
    "name": "Moskee Al-Himmah",
    "image1": "https://cdn.mawaqit.net/images/backend/mosque/579301d5-9ef7-466c-bc88-c94e4fe6218a/mosque/1eea8de6-dee1-631e-b3d1-066ed47a7584.jpg",
    "address": "Smitsven 18-20",
    "city": "Zaandam",
    "zipcode": "1504 AM",
    "countryFullName": "Netherlands",
    "lng": 4.8434633,
    "lat": 52.4382331
  },
  {
    "slug": "alamal-hilversum",
    "name": "Moskee Al Amal",
    "image1": "https://cdn.mawaqit.net/images/backend/mosque/189235be-a9f7-4019-a612-a732ab66465e/mosque/1eea8de7-0622-6eb4-b0ea-066ed47a7584.jpeg",
    "address": "Minckelersstraat 161",
    "city": "Hilversum",
    "zipcode": "1223 LE",
    "countryFullName": "Netherlands",
    "lng": 5.2010404,
    "lat": 52.2239664
  },
  {
    "slug": "islamitisch-cultureel-centrum-wateringen-wateringen",
    "name": "المركز الاسلامي الثقافي",
    "image1": "https://cdn.mawaqit.net/images/backend/mosque/8b21bc9f-e7cd-4fcd-bf38-b77571742715/mosque/1eea8de8-438c-616e-904a-066ed47a7584.jpg",
    "address": "1 Julianastraat",
    "city": "Wateringen",
    "zipcode": "2291TP",
    "countryFullName": "Netherlands",
    "lng": 4.2711001,
    "lat": 52.0268029
  },
  {
    "slug": "moskee-arrahmaan-eindhoven-eindhoven-5612bt-netherlands",
    "name": "Moskee Arrahmaan Eindhoven",
    "image1": "https://cdn.mawaqit.net/images/backend/mosque/ab52acf6-dc6a-4bc6-b9f7-184b7f874bf1/mosque/1ef0a2b0-b9c2-6d8c-a4e2-0e8f4a8ce035.png",
    "address": "visserstraat 9",
    "city": "Eindhoven",
    "zipcode": "5612BS",
    "countryFullName": "Netherlands",
    "lng": 5.4753897,
    "lat": 51.4500409
  },
  {
    "slug": "moskee-al-mohsinine-weert",
    "name": "Moskee AL Mohsinine",
    "image1": "https://cdn.mawaqit.net/images/backend/mosque/96e6870b-73c6-4da7-9f71-d376f50373d5/mosque/1eea8de9-0833-6f08-ad23-066ed47a7584.jpg",
    "address": "Sutjensstraat 6",
    "city": "Weert",
    "zipcode": "6006 HW",
    "countryFullName": "Netherlands",
    "lng": 5.7011208,
    "lat": 51.2459712
  },
  {
    "slug": "islamitische-moskee-errahmane",
    "name": "Stg. Islamitische Moskee Errahmane",
    "image1": "https://cdn.mawaqit.net/images/backend/mosque/16693662-fe02-4ca1-9058-b32df9d43b9d/mosque/1eea8de9-51b3-666a-8be5-066ed47a7584.png",
    "address": "prinses irenestraat 3",
    "city": "Nieuwerkerk-Aan-Den-Ijssel",
    "zipcode": "2911 AN",
    "countryFullName": "Netherlands",
    "lng": 4.6159976,
    "lat": 51.9639406
  },
  {
    "slug": "moskee-sounnat",
    "name": "Moskee Sounnat",
    "image1": "https://cdn.mawaqit.net/images/backend/mosque/11f93a63-df6a-4078-a741-9d4d138e6a5f/mosque/1eea8deb-5ecb-69ea-8607-066ed47a7584.jpeg",
    "address": "Wezelstraat 19",
    "city": "Koog-Aan-De-Zaan",
    "zipcode": "1541 LZ",
    "countryFullName": "Netherlands",
    "lng": 4.8014745,
    "lat": 52.4698073
  },
  {
    "slug": "moskee-essalam-zaanstad-zaandam",
    "name": "Moskee Essalam",
    "image1": "https://cdn.mawaqit.net/images/backend/mosque/1b1fdb0e-1a21-47d1-99f0-95a726eabc46/mosque/1eea8dec-b8c2-636c-b4db-066ed47a7584.jpg",
    "address": "Madagaskar 17",
    "city": "Zaandam",
    "zipcode": "1505VH",
    "countryFullName": "Netherlands",
    "lng": 4.839184,
    "lat": 52.4298378
  },
  {
    "slug": "moskee-houten-houten",
    "name": "Moskee Houten - مسجد هاوتن",
    "image1": "https://cdn.mawaqit.net/images/backend/mosque/5878d116-a8fd-4a5f-bb49-512cad567423/mosque/1eea8ded-197b-6366-ba8e-066ed47a7584.jpeg",
    "address": "Handboog 3",
    "city": "Houten",
    "zipcode": "3994AE",
    "countryFullName": "Netherlands",
    "lng": 5.1813250780106,
    "lat": 52.03066859209
  },
  {
    "slug": "masjid-el-feth-bergen-op-zoom",
    "name": "Masjid El Feth",
    "image1": "https://cdn.mawaqit.net/images/backend/mosque/a4eae208-707e-4216-8433-a1d60b837bf9/mosque/1eea8def-b119-6ce8-b7e9-066ed47a7584.JPG",
    "address": "Wattweg 7",
    "city": "Bergen-Op-Zoom",
    "zipcode": "4622 RA",
    "countryFullName": "Netherlands",
    "lng": 4.2991866983619,
    "lat": 51.500451989083
  },
  {
    "slug": "moskee-imam-malik-amsterdam",
    "name": "Imam Malik",
    "image1": "https://cdn.mawaqit.net/images/backend/mosque/dd1329cd-01ab-4c01-a99c-fbaf5376be0c/mosque/1eea8def-e989-6ede-955a-066ed47a7584.jpeg",
    "address": "Johan Huizingalaan 48",
    "city": "Amsterdam",
    "zipcode": "1065JG",
    "countryFullName": "Netherlands",
    "lng": 4.8266727,
    "lat": 52.363566
  },
  {
    "slug": "masjid-al-ummah-mcco-utrecht-3564bk-netherlands",
    "name": "Masjid al-Ummah (MCCO)",
    "image1": "https://cdn.mawaqit.net/images/backend/mosque/f5e99749-565f-4c74-b98f-8e11ae477658/mosque/1eec5433-ca13-6d46-ba96-06acfcd1c88a.jpg",
    "address": "Grote Trekdreef 3",
    "city": "Utrecht",
    "zipcode": "3564BK",
    "countryFullName": "Netherlands",
    "lng": 5.1116983,
    "lat": 52.1201101
  },
  {
    "slug": "markaz-al-houda-geleen-6163-ae-netherlands",
    "name": "Markaz Al-Houda",
    "image1": "https://cdn.mawaqit.net/images/backend/mosque/e03524ac-e481-4ed8-9bb2-650a8e458728/mosque/1eea8e02-85e0-6d34-8cf8-066ed47a7584.JPG",
    "address": "Borrekuilstraat 50",
    "city": "Geleen",
    "zipcode": "6163 AE",
    "countryFullName": "Netherlands",
    "lng": 5.8248857,
    "lat": 50.9785021
  },
  {
    "slug": "moskee-annour-den-haag-2542-cb-netherlands",
    "name": "Moskee Annour",
    "image1": "https://cdn.mawaqit.net/images/backend/mosque/cb2ac19d-7d5f-4179-9c9f-fa55c8dcfa5f/mosque/1eea8e05-de21-66d0-833f-066ed47a7584.jpeg",
    "address": "De Gaarde 59",
    "city": "Den-Haag",
    "zipcode": "2542 CB",
    "countryFullName": "Netherlands",
    "lng": 4.2702384,
    "lat": 52.0384347
  },
  {
    "slug": "isn-mevlana-moskee-rotterdam-3022ep-netherlands",
    "name": "ISN Mevlana Moskee",
    "image1": "https://cdn.mawaqit.net/images/backend/mosque/993b0ee9-6d74-4bbc-83c6-08bdf6cb32c3/mosque/1eea8e07-754f-6952-a085-066ed47a7584.png",
    "address": "Mevlanaplein 1",
    "city": "Rotterdam",
    "zipcode": "3022EP",
    "countryFullName": "Netherlands",
    "lng": 4.4417417,
    "lat": 51.9213137
  },
  {
    "slug": "moskee-alhouda-venlo-venlo-5912-bb-netherlands",
    "name": "Moskee Al Houda Venlo",
    "image1": "https://cdn.mawaqit.net/images/backend/mosque/6bb5fc7f-4801-4ef4-91c3-863b9e495d09/mosque/1eea8e07-bbad-612e-9564-066ed47a7584.jpg",
    "address": "Tegelseweg 65",
    "city": "Venlo",
    "zipcode": "5912 BB",
    "countryFullName": "Netherlands",
    "lng": 6.1626664,
    "lat": 51.3633022
  },
  {
    "slug": "mijdrecht",
    "name": "Moskee Omar",
    "image1": "https://cdn.mawaqit.net/images/backend/mosque/172b5922-8ebf-4d90-aa00-c2257a438178/mosque/1eea8e0a-31c5-68a0-bd60-066ed47a7584.jpg",
    "address": "Diamant 8",
    "city": "Mijdrecht",
    "zipcode": "3641 XR",
    "countryFullName": "Netherlands",
    "lng": 4.860296,
    "lat": 52.2149171
  },
  {
    "slug": "hakyol-moskee-mijdrecht",
    "name": "ISN Hakyol",
    "image1": "https://cdn.mawaqit.net/images/backend/mosque/17cd32a7-b759-4a43-9d0e-eb4a101e095c/mosque/1eea8e0d-9e09-6220-b8c6-066ed47a7584.jpg",
    "address": "Grutto 2-B",
    "city": "Mijdrecht",
    "zipcode": "3641 TB",
    "countryFullName": "Netherlands",
    "lng": 4.8558340428871,
    "lat": 52.202873992654
  },
  {
    "slug": "moskee-nour-al-houda-arnhem-6835-hz-netherlands",
    "name": "مسجد نور الهدى آرنهم",
    "image1": "https://cdn.mawaqit.net/images/backend/mosque/5503919a-c50f-4bec-a198-716ca94fe562/mosque/1eea8e0f-f4e7-6f18-81f4-066ed47a7584.jpg",
    "address": "Groningensingel 1191",
    "city": "Arnhem",
    "zipcode": "6835 HZ",
    "countryFullName": "Netherlands",
    "lng": 5.8985816,
    "lat": 51.9509726
  },
  {
    "slug": "moskee-annasr-gorinchem-4205hv-netherlands",
    "name": "Moskee Annasr",
    "image1": "https://cdn.mawaqit.net/images/backend/mosque/ec2d1eac-70e0-45fd-9545-11d2f817a780/mosque/1eea8e12-4edb-69a0-9209-066ed47a7584.jpg",
    "address": "Sportlaan 2",
    "city": "Gorinchem",
    "zipcode": "4205HV",
    "countryFullName": "Netherlands",
    "lng": 4.9649198,
    "lat": 51.8455353
  },
  {
    "slug": "moskee-assalaam-panningen-5981be-netherlands",
    "name": "Moskee Assalaam",
    "image1": "https://cdn.mawaqit.net/images/backend/mosque/74b52b9e-e504-4f46-97f3-8eb227888424/mosque/1eea8e13-634e-6634-b71d-066ed47a7584.jpg",
    "address": "Raadhuisstraat 321",
    "city": "Panningen",
    "zipcode": "5981BE",
    "countryFullName": "Netherlands",
    "lng": 5.9751867,
    "lat": 51.3204082
  },
  {
    "slug": "moskee-bilthoven",
    "name": "ICCB - Moskee Arrahman",
    "image1": "https://cdn.mawaqit.net/images/backend/mosque/119eec95-878b-407c-9b05-924b720f44a2/mosque/1eea8e15-57b6-6388-8d77-066ed47a7584.jpg",
    "address": "Tweelingen 140A",
    "city": "Bilthoven",
    "zipcode": "3721WZ",
    "countryFullName": "Netherlands",
    "lng": 5.1811334,
    "lat": 52.1228107
  },
  {
    "slug": "at-tawba-aalsmeer-1431-vj-netherlands",
    "name": "At Tawba",
    "image1": "https://cdn.mawaqit.net/images/backend/mosque/cdb1f1f6-aa96-4d8a-a810-7f3d5dc48b37/mosque/1eea8e19-a5fe-6ca8-9768-066ed47a7584.jpg",
    "address": "Zwarteweg 77A",
    "city": "Aalsmeer",
    "zipcode": "1431 VJ",
    "countryFullName": "Netherlands",
    "lng": 4.7644626,
    "lat": 52.259256
  },
  {
    "slug": "al-fourqaan-moskee-eindhoven-eindhoven-5622-al-netherlands",
    "name": "Al-Fourqaan moskee",
    "image1": "https://cdn.mawaqit.net/images/backend/mosque/653f569e-f6f1-4931-b61b-a8bfce5faeb5/mosque/1eea8e1a-55cf-6a60-975b-066ed47a7584.jpg",
    "address": "Otterstraat 2",
    "city": "Eindhoven",
    "zipcode": "5622 AL",
    "countryFullName": "Netherlands",
    "lng": 5.4691445,
    "lat": 51.4534425
  },
  {
    "slug": "moskee-elimaan-lelystad-8223-da-netherlands",
    "name": "Moskee Elimaan",
    "image1": "https://cdn.mawaqit.net/images/backend/mosque/bde66ccc-592b-4964-b993-730df89f79ce/mosque/1eea8e1a-faa6-68cc-9aa0-066ed47a7584.jpg",
    "address": "Ijssellaan 2",
    "city": "Lelystad",
    "zipcode": "8223 DA",
    "countryFullName": "Netherlands",
    "lng": 5.4794092,
    "lat": 52.5248351
  },
  {
    "slug": "moskee-al-houda-amsterdam-1025bh-netherlands",
    "name": "Moskee Al Houda",
    "image1": "https://cdn.mawaqit.net/images/backend/mosque/39f94f6b-04dc-497c-93e3-fc72596f9e42/mosque/1eea8e1c-35cd-6b0c-a4e8-066ed47a7584.jpg",
    "address": "J. Drijverweg 5",
    "city": "Amsterdam",
    "zipcode": "1025BH",
    "countryFullName": "Netherlands",
    "lng": 4.9440086,
    "lat": 52.401538
  },
  {
    "slug": "moskee-el-fath-tegelen-5931pc-netherlands",
    "name": "Moskee El Fath",
    "image1": "https://cdn.mawaqit.net/images/backend/mosque/44ac1373-9595-485f-aa23-3bafc9fa7b60/mosque/1eea8e1c-7bd1-69fa-b5a6-066ed47a7584.jpg",
    "address": "Breuken 7",
    "city": "Tegelen",
    "zipcode": "5931PC",
    "countryFullName": "Netherlands",
    "lng": 6.1361790641143,
    "lat": 51.340380959887
  },
  {
    "slug": "moskee-nour-gouda",
    "name": "Moskee Nour Gouda مسجد النور",
    "image1": "https://cdn.mawaqit.net/images/backend/mosque/331fbf13-06fb-49ec-9b24-4b4d552a8f15/mosque/1eea8e1c-c9ca-62a6-9a18-066ed47a7584.jpg",
    "address": "Raam 238",
    "city": "Gouda",
    "zipcode": "2801VR",
    "countryFullName": "Netherlands",
    "lng": 4.7080026,
    "lat": 52.0083202
  },
  {
    "slug": "moskee-al-fath-arnhem-6828-zn-netherlands",
    "name": "Moskee Al Fath     مسجد الفتح",
    "image1": "https://cdn.mawaqit.net/images/backend/mosque/804ee2bf-0314-49e7-84ec-9d5f2f80ba1c/mosque/1eea8e1d-d8d4-6502-8edc-066ed47a7584.jpg",
    "address": "Van Oldenbarneveldtstraat 85",
    "city": "Arnhem",
    "zipcode": "6828 ZN",
    "countryFullName": "Netherlands",
    "lng": 5.92157,
    "lat": 51.9760113
  },
  {
    "slug": "stichting-al-hidayat-diemen-1111bg-netherlands",
    "name": "Stichting Al Hidayat | مؤسسة الهداية",
    "image1": "https://cdn.mawaqit.net/images/backend/mosque/16f8ed41-39b7-4ce3-8311-4970bb3ae337/mosque/1eea8e1e-c1d4-6b6c-975d-066ed47a7584.jpg",
    "address": "Hardveldseweg 35",
    "city": "Diemen",
    "zipcode": "1111BG",
    "countryFullName": "Netherlands",
    "lng": 4.957574,
    "lat": 52.3391275
  },
  {
    "slug": "moskee-arrahman-boskoop-boskoop-2771kj-netherlands",
    "name": "Moskee Arrahman Boskoop",
    "image1": "https://cdn.mawaqit.net/images/backend/mosque/6f254869-5dac-4cdf-b602-8a24ed5af748/mosque/1eea8e1f-7e8a-6c20-88e5-066ed47a7584.jpg",
    "address": "Vogellaan 89",
    "city": "Boskoop",
    "zipcode": "2771KJ",
    "countryFullName": "Netherlands",
    "lng": 4.640103,
    "lat": 52.0674308
  },
  {
    "slug": "taibah",
    "name": "Stichting Al-Firdaus",
    "image1": "https://cdn.mawaqit.net/images/backend/mosque/8849f719-2848-40f9-9048-a033febb86ed/mosque/1eea8e21-5078-63bc-a3fe-066ed47a7584.jpg",
    "address": "Kraaienest 125",
    "city": "Amsterdam",
    "zipcode": "1104 CH",
    "countryFullName": "Netherlands",
    "lng": 4.979819,
    "lat": 52.3157557
  },
  {
    "slug": "anwar-e-madinah",
    "name": "Stichting Alfirdaus - Eindhoven",
    "image1": "https://cdn.mawaqit.net/images/backend/mosque/bf0b35ce-f4a6-4f44-99e1-3db33e4cc89f/mosque/1eea8e23-c6f2-6d38-aadb-066ed47a7584.jpg",
    "address": "Kastelenplein 169a",
    "city": "Eindhoven",
    "zipcode": "5653 LX",
    "countryFullName": "Netherlands",
    "lng": 5.4434067,
    "lat": 51.4196735
  },
  {
    "slug": "hdv-islamitische-stichting-ihlas-geleen-6163-gd-netherlands",
    "name": "HDV islamitische stichting Ihlas",
    "image1": "https://cdn.mawaqit.net/images/backend/mosque/56a3b97c-69ee-428c-bbf1-b8732efc1011/mosque/1eea8e24-d27c-6cfc-9e93-066ed47a7584.jpg",
    "address": "Valderenstraat 111",
    "city": "Geleen",
    "zipcode": "6163 GD",
    "countryFullName": "Netherlands",
    "lng": 5.8114523,
    "lat": 50.9831561
  },
  {
    "slug": "moskee-el-oemma-den-haag-2524-cm-netherlands",
    "name": "Moskee el Oemma",
    "image1": "https://cdn.mawaqit.net/images/backend/mosque/bdc44539-b1cf-478f-b2de-c529ca8577fb/mosque/1eea8e25-3222-6b66-8200-066ed47a7584.jpg",
    "address": "Guido Gezellestraat 48",
    "city": "Den-Haag",
    "zipcode": "2524 CM",
    "countryFullName": "Netherlands",
    "lng": 4.3167082965374,
    "lat": 52.053739051116
  },
  {
    "slug": "stichting-moskee-nour-heerlen-6412-aw-netherlands",
    "name": "Stichting Moskee Nour",
    "image1": "https://cdn.mawaqit.net/images/backend/mosque/4786b1f4-bf0e-41e3-97ec-cf3c9160527b/mosque/1eea8e26-d4c9-60a8-9aec-066ed47a7584.jpg",
    "address": "Kempkensweg 10",
    "city": "Heerlen",
    "zipcode": "6412 AW",
    "countryFullName": "Netherlands",
    "lng": 5.9766014,
    "lat": 50.8925378
  },
  {
    "slug": "stichting-masjid-anour-lopik-3411xj-netherlands",
    "name": "Stichting Masjid Anour",
    "image1": "https://cdn.mawaqit.net/images/backend/mosque/a54c1fad-a4cc-404a-bb0d-673514167003/mosque/1eea8e2b-165d-67fe-87e7-066ed47a7584.jpg",
    "address": "Emmalaan 66",
    "city": "Lopik",
    "zipcode": "3411XJ",
    "countryFullName": "Netherlands",
    "lng": 4.9472625,
    "lat": 51.973571
  },
  {
    "slug": "moskee-ar-rahman",
    "name": "Moskee Ar-Rahman",
    "image1": "https://cdn.mawaqit.net/images/backend/mosque/5e449768-3ff2-4be3-8dc2-576772f80304/mosque/1eea8e2b-6b62-6948-8707-066ed47a7584.jpg",
    "address": "Graan voor Visch 16001",
    "city": "Hoofddorp",
    "zipcode": "2132 XA",
    "countryFullName": "Netherlands",
    "lng": 4.6887186,
    "lat": 52.2956844
  },
  {
    "slug": "stichting-al-kitaab-breukelen-3621zb-netherlands",
    "name": "Stichting Al-Kitaab",
    "image1": "https://cdn.mawaqit.net/images/backend/mosque/1f5417bd-5147-4a29-9ca3-d5989ff743d5/mosque/1eea8e2c-4736-6e42-8754-066ed47a7584.jpg",
    "address": "De Corridor 10F",
    "city": "Breukelen",
    "zipcode": "3621ZB",
    "countryFullName": "Netherlands",
    "lng": 4.9909726,
    "lat": 52.1776424
  },
  {
    "slug": "moskee-arrahman-noordwijk",
    "name": "Moskee Arrahman",
    "image1": "https://cdn.mawaqit.net/images/backend/mosque/b4a05920-0f7a-468d-a661-24af5a8f9e59/mosque/1eea8e30-5ecc-6d14-9362-066ed47a7584.jpg",
    "address": "Bronckhorststraat 61",
    "city": "Noordwijk",
    "zipcode": "2201 KV",
    "countryFullName": "Netherlands",
    "lng": 4.4447531,
    "lat": 52.2353572
  },
  {
    "slug": "djama-masjid-sunni-razvi-alkmaar-alkmaar-1816vg-netherlands",
    "name": "Djama Masjid Sunni-Razvi Alkmaar",
    "image1": "https://cdn.mawaqit.net/images/backend/mosque/70a6ae70-ca11-4f49-8c04-46a6857679ca/mosque/1eea8e31-ac20-69ca-8eb7-066ed47a7584.jpg",
    "address": "Mesdaglaan",
    "city": "Alkmaar",
    "zipcode": "1816VG",
    "countryFullName": "Netherlands",
    "lng": 4.7206775,
    "lat": 52.6271483
  },
  {
    "slug": "bilal-moskee-oss-5341at-netherlands",
    "name": "Masjid Bilal",
    "image1": "https://cdn.mawaqit.net/images/backend/mosque/232d2e1a-9666-47b6-bde1-fd3ffb593bdc/mosque/1eea8e31-e386-6d2e-b972-066ed47a7584.jpg",
    "address": "Verlengde Torenstraat 1a",
    "city": "Oss",
    "zipcode": "5341AT",
    "countryFullName": "Netherlands",
    "lng": 5.5197478,
    "lat": 51.7691892
  },
  {
    "slug": "moskee-essalaam-hoograven-utrecht-3525al-netherlands",
    "name": "Moskee Essalaam",
    "image1": "https://cdn.mawaqit.net/images/backend/mosque/5f9df7d1-f7aa-43fe-8662-5866ea7cdc2a/mosque/1ef2a5f4-b473-6482-b39d-0607740d0d3d.jpg",
    "address": "Camminghaplantsoen 50",
    "city": "Utrecht",
    "zipcode": "3525AL",
    "countryFullName": "Netherlands",
    "lng": 5.1214899,
    "lat": 52.0636018
  },
  {
    "slug": "iveo-enschede-7545mp-netherlands-view-desktop",
    "name": "IVEO",
    "image1": "https://cdn.mawaqit.net/images/backend/mosque/2a41d78a-b90e-4f68-b05b-445c11a93b5d/mosque/1eea8e35-4e59-62ac-9ed7-066ed47a7584.jpg",
    "address": "Tweede Emmastraat 50",
    "city": "Enschede",
    "zipcode": "7545MP",
    "countryFullName": "Netherlands",
    "lng": 6.8729027,
    "lat": 52.2169732
  },
  {
    "slug": "ulu-moskee-bergen-op-zoom-4624bl-netherlands",
    "name": "Ulu Moskee",
    "image1": "https://cdn.mawaqit.net/images/backend/mosque/caf9bf9f-d240-42e0-826c-284a80cc9266/mosque/1eea8e3c-61d4-6b40-8da2-066ed47a7584.jpg",
    "address": "Van Heelulaan 77",
    "city": "Bergen-Op-Zoom",
    "zipcode": "4624BL",
    "countryFullName": "Netherlands",
    "lng": 4.3049751,
    "lat": 51.4863183
  },
  {
    "slug": "hdv-gorinchem-suleyman-celebi-gorinchem-4205nk-netherlands",
    "name": "HDV Gorinchem Süleyman Çelebi",
    "image1": "https://cdn.mawaqit.net/images/backend/mosque/5766f4b0-a342-4074-8704-8355f759404b/mosque/1eea8e45-3c39-69ea-b522-066ed47a7584.jpg",
    "address": "Hoefslag 9",
    "city": "Gorinchem",
    "zipcode": "4205NK",
    "countryFullName": "Netherlands",
    "lng": 4.9697635329951,
    "lat": 51.847763768985
  },
  {
    "slug": "moskee-an-nour-veghel-5462hj-netherlands",
    "name": "Moskee An-Nour",
    "image1": "https://cdn.mawaqit.net/images/backend/mosque/b7c3b023-9b89-43f5-a453-35583ad7258d/mosque/1eea8e46-acef-6d28-9159-066ed47a7584.jpg",
    "address": "Beatrixsingel 1B",
    "city": "Veghel",
    "zipcode": "5462HJ",
    "countryFullName": "Netherlands",
    "lng": 5.5386777,
    "lat": 51.6166224
  },
  {
    "slug": "assalem-rhenen-rhenen-3911-pd-netherlands",
    "name": "Assalem Rhenen",
    "image1": "https://cdn.mawaqit.net/images/backend/mosque/b14e8a48-57b1-422c-91d0-e484f5eea6f8/mosque/1eea8e47-6b9f-6570-b5c7-066ed47a7584.jpg",
    "address": "groeneweg 19",
    "city": "Rhenen",
    "zipcode": "3911 PD",
    "countryFullName": "Netherlands",
    "lng": 5.565748,
    "lat": 51.9610477
  },
  {
    "slug": "igmg-hilversum-merkez-hilversum-1211cb-netherlands",
    "name": "IGMG Hilversum Merkez",
    "image1": "https://cdn.mawaqit.net/images/backend/mosque/45ad3e85-0341-4c92-8c62-7a25acae8165/mosque/1eea8e47-d5a2-6008-8736-066ed47a7584.jpg",
    "address": "Herenstraat 8",
    "city": "Hilversum",
    "zipcode": "1211CB",
    "countryFullName": "Netherlands",
    "lng": 5.1767768,
    "lat": 52.2241228
  },
  {
    "slug": "stichting-islamitische-moskee-weert-weert-6001-xt-netherlands",
    "name": "Stichting Islamitische Moskee",
    "image1": "https://cdn.mawaqit.net/images/backend/mosque/9a28c4af-723c-4fc1-9caa-276b236e83f6/mosque/1eea8e4c-0c1b-67c0-aab1-066ed47a7584.jpg",
    "address": "Charitasstraat 4",
    "city": "Weert",
    "zipcode": "6001 XT",
    "countryFullName": "Netherlands",
    "lng": 5.7160181,
    "lat": 51.2591957
  },
  {
    "slug": "selimiye-moskee-haarlem-2033wx-netherlands",
    "name": "Selimiye Moskee",
    "image1": "https://cdn.mawaqit.net/images/backend/mosque/46b21e2a-1d52-4dee-bf71-7be75e47270d/mosque/1eea8e4c-fb16-6744-a709-066ed47a7584.jpg",
    "address": "Minaretstraat 1",
    "city": "Haarlem",
    "zipcode": "2033WX",
    "countryFullName": "Netherlands",
    "lng": 4.6589,
    "lat": 52.373715
  },
  {
    "slug": "vereniging-arrahma-almere-1363-kb-netherlands",
    "name": "Vereniging Arrahma",
    "image1": "https://cdn.mawaqit.net/images/backend/mosque/c4cbdf68-6d69-4e62-99ab-21f4e9455520/mosque/1efbbd9c-5947-6270-8d3d-0a21b15e7a1f.jpg",
    "address": "Beneluxlaan 570",
    "city": "Almere-Poort",
    "zipcode": "1363 BJ",
    "countryFullName": "Netherlands",
    "lng": 5.1544079,
    "lat": 52.3482491
  },
  {
    "slug": "hdv-breda-yeni-camii-breda-4826ag-netherlands",
    "name": "HDV Breda Yeni Camii",
    "image1": "https://cdn.mawaqit.net/images/backend/mosque/53abe27a-5f9b-47aa-ba89-ea90c99750be/mosque/1eea8e50-fbdb-6964-aac3-066ed47a7584.jpg",
    "address": "Vlaanderenstraat 1",
    "city": "Breda",
    "zipcode": "4826AG",
    "countryFullName": "Netherlands",
    "lng": 4.7790713,
    "lat": 51.6111764
  },
  {
    "slug": "msjd-lnwr-vcc-hardenberg-hardenberg-7771cv-netherlands",
    "name": "مسجد النور  VCC Hardenberg",
    "image1": "https://cdn.mawaqit.net/images/backend/mosque/62ceaaa7-b3ed-48ff-bf04-205c577423d1/mosque/1eea8e52-f143-6e6e-878f-066ed47a7584.jpg",
    "address": "Scholtensdijk 22",
    "city": "Hardenberg",
    "zipcode": "7771CV",
    "countryFullName": "Netherlands",
    "lng": 6.6012668,
    "lat": 52.5697926
  },
  {
    "slug": "hdv-yildirim-beyazit-camii-emmen-7824cp-netherlands",
    "name": "Hdv Yildirim beyazit camii",
    "image1": "https://cdn.mawaqit.net/images/backend/mosque/f12b0bc1-976a-4943-a5c4-40284aece1e2/mosque/1eea8e53-680d-6bc6-8714-066ed47a7584.jpg",
    "address": "Peyserhof 20",
    "city": "Emmen",
    "zipcode": "7824cp",
    "countryFullName": "Netherlands",
    "lng": 6.9233698,
    "lat": 52.7806297
  },
  {
    "slug": "stichting-moskee-al-mohsinien-meppel-meppel-7942-cw-netherlands",
    "name": "Stichting Moskee Al-Mohsinien Meppel",
    "image1": "https://cdn.mawaqit.net/images/backend/mosque/4d6bd8cb-f23f-465c-bc24-b9b09610539e/mosque/1eea8e54-e938-6682-b950-066ed47a7584.jpg",
    "address": "Groen van Prinstererstraat 13",
    "city": "Meppel",
    "zipcode": "7942 CW",
    "countryFullName": "Netherlands",
    "lng": 6.1952441,
    "lat": 52.7050473
  },
  {
    "slug": "hdv-hilversum-mevlana-camii-moskee-hilversum-1221-bk-netherlands",
    "name": "HDV HILVERSUM MEVLANA CAMII",
    "image1": "https://cdn.mawaqit.net/images/backend/mosque/929f2b25-ca14-4b77-b5f4-061cff6c518e/mosque/1eea8e57-0b78-642a-8c39-066ed47a7584.jpg",
    "address": "GEUZENWEG 27",
    "city": "Hilversum",
    "zipcode": "1221 BK",
    "countryFullName": "Netherlands",
    "lng": 5.1818647,
    "lat": 52.2285599
  },
  {
    "slug": "moskee-essalaam-zoetermeer-zoetermeer-2729ea-netherlands",
    "name": "Moskee Assalam Zoetermeer",
    "image1": "https://cdn.mawaqit.net/images/backend/mosque/adaf3299-f258-4c2c-b3d4-cf0250d6e207/mosque/1eea8e57-20a2-622e-aa07-066ed47a7584.jpg",
    "address": "Hodenpijlstraat 10A",
    "city": "Zoetermeer",
    "zipcode": "2729EA",
    "countryFullName": "Netherlands",
    "lng": 4.5359131,
    "lat": 52.0664792
  },
  {
    "slug": "isn-yesil-moskee-roosendaal-4702-kz-netherlands",
    "name": "HDV Yeşil Cami",
    "image1": "https://cdn.mawaqit.net/images/backend/mosque/4f0053db-5f7c-4596-9ac5-9b9aec0c598e/mosque/1eea8e57-8c73-6e80-88da-066ed47a7584.jpg",
    "address": "Bartoklaan 2",
    "city": "Roosendaal",
    "zipcode": "4702 KZ",
    "countryFullName": "Netherlands",
    "lng": 4.484773,
    "lat": 51.5383593
  },
  {
    "slug": "masjid-al-ansaar-delft-2624-av-netherlands",
    "name": "Masjid Al Ansaar",
    "image1": "https://cdn.mawaqit.net/images/backend/mosque_default_picture.png",
    "address": "Vulcannusweg 265-A",
    "city": "Delft",
    "zipcode": "2624 AV",
    "countryFullName": "Netherlands",
    "lng": 4.3609284,
    "lat": 51.9953577
  },
  {
    "slug": "hdv-almere-sultan-ahmet-camii-almere-1312jz-netherlands",
    "name": "HDV Almere Sultan Ahmet Camii",
    "image1": "https://cdn.mawaqit.net/images/backend/mosque/f335f1d8-3551-4cd8-9338-c007dd25d709/mosque/1eea8e5c-8800-60ce-91f1-066ed47a7584.jpg",
    "address": "Lierstraat 9",
    "city": "Almere",
    "zipcode": "1312JZ",
    "countryFullName": "Netherlands",
    "lng": 5.1945396,
    "lat": 52.3715478
  },
  {
    "slug": "masjid-al-haq-dronten-8251-netherlands",
    "name": "Masjid El Hak",
    "image1": "https://cdn.mawaqit.net/images/backend/mosque/81375ea6-2297-42c7-8294-8d068acd457f/mosque/1eea8e5d-2b08-612c-af71-066ed47a7584.jpg",
    "address": "Educalaan 4",
    "city": "Dronten",
    "zipcode": "8251",
    "countryFullName": "Netherlands",
    "lng": 5.7134759,
    "lat": 52.5255505
  },
  {
    "slug": "masjid-anoual-zutphen-7204mb-netherlands",
    "name": "Masjid Anoual",
    "image1": "https://cdn.mawaqit.net/images/backend/mosque/cd035eb3-c704-42c2-8977-6725211fad5f/mosque/1eea8e5d-da3d-671e-b7a3-066ed47a7584.jpg",
    "address": "De Savornin Lohmanstraat 46",
    "city": "Zutphen",
    "zipcode": "7204MB",
    "countryFullName": "Netherlands",
    "lng": 6.2039386,
    "lat": 52.1305674
  },
  {
    "slug": "stichting-moskee-alfath-hoorn-hoorn-netherlands",
    "name": "Stichting Moskee Alfath",
    "image1": "https://cdn.mawaqit.net/images/backend/mosque/6dde1d72-e575-4c35-84e2-1a913766dee8/mosque/1eea8e5e-494d-6992-a6fd-066ed47a7584.jpg",
    "address": "Johannes Poststraat 69",
    "city": "Hoorn",
    "zipcode": "Hoorn",
    "countryFullName": "Netherlands",
    "lng": 5.0621651,
    "lat": 52.6483821
  },
  {
    "slug": "msjd-frdws-firdaus-arnhem-6833er-netherlands",
    "name": "مسجد فردوس FIRDAUS",
    "image1": "https://cdn.mawaqit.net/images/backend/mosque/19c60c7f-0995-4d99-9c14-532781b0bba2/mosque/1eea8e61-1490-610c-8250-066ed47a7584.jpg",
    "address": "Zuringstraat 6",
    "city": "Arnhem",
    "zipcode": "6833ER",
    "countryFullName": "Netherlands",
    "lng": 5.9178261,
    "lat": 51.966451
  },
  {
    "slug": "moskee-assalaam-ijmuiden-1973-rm-netherlands",
    "name": "Moskee Assalaam",
    "image1": "https://cdn.mawaqit.net/images/backend/mosque/e1dffd73-7629-43f1-99ad-465b7354581a/mosque/1eea8e61-d66d-6342-8ad2-066ed47a7584.jpg",
    "address": "Celsiusstraat 23",
    "city": "Ijmuiden",
    "zipcode": "1973 RM",
    "countryFullName": "Netherlands",
    "lng": 4.6017047,
    "lat": 52.4564798
  },
  {
    "slug": "moskee-eenheid-leidschendam-2261ej-netherlands",
    "name": "Moskee Eenheid",
    "image1": "https://cdn.mawaqit.net/images/backend/mosque/4ecce002-551d-456c-a0e3-5b127bb786a7/mosque/1eea8e65-82da-6bae-8551-066ed47a7584.jpg",
    "address": "Zilvermeeuwlaan 15",
    "city": "Leidschendam",
    "zipcode": "2261EJ",
    "countryFullName": "Netherlands",
    "lng": 4.3877976,
    "lat": 52.0948895
  },
  {
    "slug": "masjid-ennour-vereniging-nijkerk-gld-3862-wl-netherlands",
    "name": "Masjid Ennour",
    "image1": "https://cdn.mawaqit.net/images/backend/mosque/931a8422-29a8-477f-b764-3396dfe64261/mosque/1eea8e65-b44d-613c-858a-066ed47a7584.jpg",
    "address": "Tolhuislaan 22",
    "city": "Nijkerk-Gld",
    "zipcode": "3862 WL",
    "countryFullName": "Netherlands",
    "lng": 5.4967843,
    "lat": 52.2169308
  },
  {
    "slug": "mok-kerkrade-6464gg-netherlands",
    "name": "Masjid el Oumah Kerkrade",
    "image1": "https://cdn.mawaqit.net/images/backend/mosque/c85c19d6-9e83-44fb-95e3-df8c6404f47b/mosque/1eea8e66-aec8-6aee-8db4-066ed47a7584.jpg",
    "address": "Lambertistraat 10A, 6461 JK Kerkrade, Pays-Bas",
    "city": "Kerkrade",
    "zipcode": "6461 JK",
    "countryFullName": "Netherlands",
    "lng": 6.075963,
    "lat": 50.8632201
  },
  {
    "slug": "moskee-an-noer-barneveld-3772-cc-netherlands",
    "name": "Moskee An-noer",
    "image1": "https://cdn.mawaqit.net/images/backend/mosque/0ae8864d-bc45-45f8-bb8e-ad7b73f6dc32/mosque/1eea8e7f-4d29-6086-b7dc-066ed47a7584.jpg",
    "address": "Achterdorpstraat 5",
    "city": "Barneveld",
    "zipcode": "3772 cc",
    "countryFullName": "Netherlands",
    "lng": 5.5833656,
    "lat": 52.1382164
  },
  {
    "slug": "masjid-iqraa-hoensbroek-6433-gj-netherlands",
    "name": "Masjid Iqraa",
    "image1": "https://cdn.mawaqit.net/images/backend/mosque/60f8c3a2-e15d-4ae0-a236-2b17cad8a490/mosque/1eea8e8e-38bb-67ac-89d9-066ed47a7584.jpg",
    "address": "Prinsenstraat 14",
    "city": "HOENSBROEK",
    "zipcode": "6433 GJ",
    "countryFullName": "Netherlands",
    "lng": 5.9261321,
    "lat": 50.9098142
  },
  {
    "slug": "moskee-rozenburg-rozenburg-3181-vj-netherlands",
    "name": "Moskee Rozenburg",
    "image1": "https://cdn.mawaqit.net/images/backend/mosque/cf561779-db42-4f41-8d82-42d0144b3319/mosque/1eea8e9a-4921-6f86-96b7-066ed47a7584.jpg",
    "address": "Vincent van Goghstraat 1",
    "city": "ROZENBURG",
    "zipcode": "3181 VJ",
    "countryFullName": "Netherlands",
    "lng": 4.247046,
    "lat": 51.9044749
  },
  {
    "slug": "anadolu-moskee-rotterdam-3071-sp-netherlands",
    "name": "Anadolu Moskee",
    "image1": "https://cdn.mawaqit.net/images/backend/mosque/cce26a55-e5d0-4b50-8b96-b2c0d3343d94/mosque/1eea8ea1-7157-64b8-9232-066ed47a7584.jpg",
    "address": "Oranjeboomstraat 295",
    "city": "ROTTERDAM",
    "zipcode": "3071 SP",
    "countryFullName": "Netherlands",
    "lng": 4.5088418,
    "lat": 51.9065115
  },
  {
    "slug": "kuba-mescidi-den-haag-2525-cm-netherlands",
    "name": "KUBA CAMİİ",
    "image1": "https://cdn.mawaqit.net/images/backend/mosque/d0ef73b9-ab8c-4614-a3f2-99f52f2a8aa7/mosque/1eea8ea3-98f3-62cc-a85f-066ed47a7584.jpg",
    "address": "Guido gezellestraat 52",
    "city": "DEN HAAG",
    "zipcode": "2525 CM",
    "countryFullName": "Netherlands",
    "lng": 4.3168587,
    "lat": 52.0535721
  },
  {
    "slug": "masjid-ritaj-al-kabah-zaandam-1506-pe-netherlands",
    "name": "Masjid Ritaj Al-Kabah",
    "image1": "https://cdn.mawaqit.net/images/backend/mosque/46326c93-9776-4e26-a6ce-3b791781b7d4/mosque/1eea8ea5-c07f-6334-8a0f-066ed47a7584.jpg",
    "address": "Oud Zaenden 2B",
    "city": "ZAANDAM",
    "zipcode": "1506 PE",
    "countryFullName": "Netherlands",
    "lng": 4.8208794,
    "lat": 52.4317084
  },
  {
    "slug": "hicret-cami-den-haag-2572-ht-netherlands",
    "name": "Hicret Cami",
    "image1": "https://cdn.mawaqit.net/images/backend/mosque/56b6381e-1ec2-4ad9-830c-018057e0d5f5/mosque/1eea8ea7-d0a9-61e0-bf91-066ed47a7584.jpg",
    "address": "Boerenstraat 67",
    "city": "DEN HAAG",
    "zipcode": "2572 HT",
    "countryFullName": "Netherlands",
    "lng": 4.2950942,
    "lat": 52.0641869
  },
  {
    "slug": "hicret-moskee-den-haag-2572-ht-netherlands-1",
    "name": "Hicret Moskee",
    "image1": "https://cdn.mawaqit.net/images/backend/mosque/521a6d71-72aa-43a8-8dff-8ade3a8c69db/mosque/1eea8ea8-ba2d-6ad2-8364-066ed47a7584.jpg",
    "address": "Boerenstraat 67",
    "city": "DEN HAAG",
    "zipcode": "2572 HT",
    "countryFullName": "Netherlands",
    "lng": 4.2950942,
    "lat": 52.0641869
  },
  {
    "slug": "moskee-siraat-nieuwegein-3431-cd-netherlands",
    "name": "Moskee Siraat",
    "image1": "https://cdn.mawaqit.net/images/backend/mosque/a6326e60-a422-4d94-b1ae-2e5ba17623db/mosque/1eea8eb2-2df5-6f74-9be3-066ed47a7584.jpg",
    "address": "Professor Doctor Hesselaan 4,",
    "city": "NIEUWEGEIN",
    "zipcode": "3431 CD",
    "countryFullName": "Netherlands",
    "lng": 5.0861398902637,
    "lat": 52.032771770768
  },
  {
    "slug": "stichting-daru-salaam-capelle-aan-den-ijssel-2904-rb-netherlands",
    "name": "Stichting Daru Salaam",
    "image1": "https://cdn.mawaqit.net/images/backend/mosque/b464fdf8-7204-4bd6-867e-0e28623202a9/mosque/1eea8eb2-ea81-6b34-9347-066ed47a7584.jpg",
    "address": "Borndiep 2a,",
    "city": "CAPELLE AAN DEN IJSSEL",
    "zipcode": "2904 RB",
    "countryFullName": "Netherlands",
    "lng": 4.6032025,
    "lat": 51.9356783
  },
  {
    "slug": "mevlana-moskee-amsterdam-1061-da-netherlands",
    "name": "Mevlana Moskee",
    "image1": "https://cdn.mawaqit.net/images/backend/mosque/6d6bb145-d7f4-4781-89cd-35532aa5de30/mosque/1eea8eba-17c0-66a2-9916-066ed47a7584.jpg",
    "address": "Baas Gansendonckstraat 2",
    "city": "AMSTERDAM",
    "zipcode": "1061 DA",
    "countryFullName": "Netherlands",
    "lng": 4.8408045,
    "lat": 52.3772035
  },
  {
    "slug": "islamitische-centrum-imam-malik-leiden-2316-es-netherlands",
    "name": "Islamitisch Centrum Imam Malik Leiden",
    "image1": "https://cdn.mawaqit.net/images/backend/mosque/8fe32a37-9757-4c91-9348-bf082f8c4340/mosque/1eea8ec9-5cc5-6f18-8b9b-066ed47a7584.jpg",
    "address": "Nieuwe Marnixstraat 80",
    "city": "LEIDEN",
    "zipcode": "2316 ES",
    "countryFullName": "Netherlands",
    "lng": 4.4979753,
    "lat": 52.1686761
  },
  {
    "slug": "moskee-leerdam-el-mouahidine-leerdam-4142-bm-netherlands",
    "name": "Moskee El Mouahidine",
    "image1": "https://cdn.mawaqit.net/images/backend/mosque/cc7731ca-dba1-4d09-98d5-04b51d81673b/mosque/1eea8ecc-8a9c-6704-8377-066ed47a7584.jpg",
    "address": "P.M. van Gentstraat 24",
    "city": "LEERDAM",
    "zipcode": "4142 BM",
    "countryFullName": "Netherlands",
    "lng": 5.0790838,
    "lat": 51.8935767
  },
  {
    "slug": "moskee-naser-tiel-tiel-4001nh-netherlands",
    "name": "Moskee Naser Tiel",
    "image1": "https://cdn.mawaqit.net/images/backend/mosque/a60023b1-a382-48e8-9fff-1a06d83812bd/mosque/1eea8ede-eae1-6b70-aa48-066ed47a7584.jpg",
    "address": "Koninginnestraat 13",
    "city": "TIEL",
    "zipcode": "4001NH",
    "countryFullName": "Netherlands",
    "lng": 5.4370663,
    "lat": 51.8853383
  },
  {
    "slug": "icc-nur-roermond-roermond-6045cr-netherlands",
    "name": "ICC Nur",
    "image1": "https://cdn.mawaqit.net/images/backend/mosque/cdd86620-6f8b-41f9-9db5-0928d7b00bfe/mosque/1eea8ee0-f18b-66f4-9365-066ed47a7584.jpg",
    "address": "Scheidingsweg 14",
    "city": "ROERMOND",
    "zipcode": "6045CR",
    "countryFullName": "Netherlands",
    "lng": 5.9993364,
    "lat": 51.1779985
  },
  {
    "slug": "moskee-al-ichlaas-den-haag-2512-st-netherlands",
    "name": "Moskee Al-Ichlaas",
    "image1": "https://cdn.mawaqit.net/images/backend/mosque/a27214b4-e3e1-49d5-8f33-f3101f0abdc0/mosque/1eea8ee7-db5d-66aa-b643-066ed47a7584.jpg",
    "address": "Rozenburgstraat 10-14-16",
    "city": "DEN HAAG",
    "zipcode": "2512 ST",
    "countryFullName": "Netherlands",
    "lng": 4.2930354,
    "lat": 52.0726071
  },
  {
    "slug": "masjid-nasser-veenendaal-veenendaal-3903-ba-netherlands",
    "name": "MASJID NASSER",
    "image1": "https://cdn.mawaqit.net/images/backend/mosque/bc94cb25-5b9c-496f-99c1-7028e4d2bed5/mosque/1f00c9b3-d478-6728-bcf9-0e4fa23cf9cb.jpg",
    "address": "Rozenbottelstraat 1",
    "city": "VEENENDAAL",
    "zipcode": "3903 BH",
    "countryFullName": "Netherlands",
    "lng": 5.554343,
    "lat": 52.0154735
  },
  {
    "slug": "euromoslim-masjid-attaqwa-amsterdam-1069da-netherlands",
    "name": "Euromoslim - Masjid Attaqwa",
    "image1": "https://cdn.mawaqit.net/images/backend/mosque/fe2a291c-9218-4702-b0e2-67318921d62e/mosque/1eeac25c-1f0e-6a78-a5e6-061f509c0970.png",
    "address": "Ekingenstraat 3/7",
    "city": "AMSTERDAM",
    "zipcode": "1069DA",
    "countryFullName": "Netherlands",
    "lng": 4.7968104,
    "lat": 52.3569586
  },
  {
    "slug": "hdv-kocatepe-rotterdam-3072-ec-netherlands",
    "name": "HDV Kocatepe",
    "image1": "https://cdn.mawaqit.net/images/backend/mosque/0dc5076d-0d6e-446d-9bd6-3240158e1e5e/mosque/1eeb2e8c-99c3-6470-a27b-0ede686d7942.jpeg",
    "address": "Afrikaanderplein 40",
    "city": "ROTTERDAM",
    "zipcode": "3072 EC",
    "countryFullName": "Netherlands",
    "lng": 4.5024806,
    "lat": 51.8988388
  },
  {
    "slug": "moskee-ar-rahma-ypenburg-den-haag-2497zj-netherlands",
    "name": "Masjid Ar-Rahma",
    "image1": "https://cdn.mawaqit.net/images/backend/mosque/a208d0a3-d97f-4165-8b54-17377de0baf9/mosque/1eeb45d3-840a-6f1c-bbc0-0aedfd0440f0.png",
    "address": "Laan van Waalhaven 255",
    "city": "GL DEN HAAG",
    "zipcode": "2497",
    "countryFullName": "Netherlands",
    "lng": 4.3583259,
    "lat": 52.0397043
  },
  {
    "slug": "i-s-o-o-k-masjid-assunnah-tilburg-5011ee-netherlands",
    "name": "I.S.O.O.K Masjid Assunnah",
    "image1": "https://cdn.mawaqit.net/images/backend/mosque/7a3a87fd-f0cc-4b4e-8f4d-8c199e5596c6/mosque/1eeb571b-bc01-635e-b226-0aedfd0440f0.jpg",
    "address": "Von Suppéstraat 20",
    "city": "TILBURG",
    "zipcode": "5011EE",
    "countryFullName": "Netherlands",
    "lng": 5.0918754,
    "lat": 51.5855707
  },
  {
    "slug": "moskee-salaam-emmeloord-8302cg-netherlands-1",
    "name": "Moskee Assalaam - مسجد السلام",
    "image1": "https://cdn.mawaqit.net/images/backend/mosque/f46dae53-98b6-4bca-a33b-23d27e8085f2/mosque/1eebc871-0374-6db4-944b-0aedfd0440f0.jpg",
    "address": "Espelerlaan 67b",
    "city": "EMMELOORD",
    "zipcode": "8302CG",
    "countryFullName": "Netherlands",
    "lng": 5.7465529,
    "lat": 52.7147109
  },
  {
    "slug": "moskee-al-fajr-amsterdam-1103-ta-netherlands",
    "name": "Moskee Al Fajr",
    "image1": "https://cdn.mawaqit.net/images/backend/mosque/75b5b199-b557-4104-9bd4-6c52fb911ed5/mosque/1eec35fb-f0e8-6c6a-b2f8-0a7eba2dd6b3.jpg",
    "address": "Gulden Kruis 819",
    "city": "AMSTERDAM",
    "zipcode": "1103 TA",
    "countryFullName": "Netherlands",
    "lng": 4.9653201,
    "lat": 52.3194128
  },
  {
    "slug": "masjid-ibadul-rahman-amsterdam-1106av-netherlands",
    "name": "Markaz Ibadul Rahman",
    "image1": "https://cdn.mawaqit.net/images/backend/mosque/65cd4a01-5405-4fd8-95ec-e82ccdadaddd/mosque/1eecdc17-4902-6880-ba03-0ede686d7942.jpg",
    "address": "Ravenswaaipad 28",
    "city": "AMSTERDAM",
    "zipcode": "1106AV",
    "countryFullName": "Netherlands",
    "lng": 4.9769483,
    "lat": 52.2972234
  },
  {
    "slug": "moskee-qubaa-den-haag-2562-ab-netherlands",
    "name": "Moskee Quba مسجد قباء",
    "image1": "https://cdn.mawaqit.net/images/backend/mosque/6c8aca3a-323e-4d36-8eed-151e35bb856c/mosque/1eece749-bf1b-66c4-aae3-06acfcd1c88a.jpg",
    "address": "Beeklaan 69-71",
    "city": "DEN HAAG",
    "zipcode": "2562 AB",
    "countryFullName": "Netherlands",
    "lng": 4.283409,
    "lat": 52.0718153
  },
  {
    "slug": "moskee-el-mohsinine-harderwijk-3842-gm-netherlands",
    "name": "Moskee El Mohsinine مسجد المحسنين",
    "image1": "https://cdn.mawaqit.net/images/backend/mosque/dfb5ac32-f814-4632-be60-6bf9bb8449a7/mosque/1eed64e9-e0e9-662a-8500-0a7eba2dd6b3.jpg",
    "address": "Slauerhoffstraat 02",
    "city": "HARDERWIJK",
    "zipcode": "3842 GM",
    "countryFullName": "Netherlands",
    "lng": 5.6417718,
    "lat": 52.3417539
  },
  {
    "slug": "islamitisch-centrum-drachten-drachten-9202cn-netherlands",
    "name": "Islamitisch centrum Drachten",
    "image1": "https://cdn.mawaqit.net/images/backend/mosque/70f76b63-7ca7-4beb-a11a-b1c071847b1e/mosque/1eed6ecd-d8cd-625a-80af-0ede686d7942.jpg",
    "address": "Langewyk 133",
    "city": "DRACHTEN",
    "zipcode": "9202CN",
    "countryFullName": "Netherlands",
    "lng": 6.1184817,
    "lat": 53.1139318
  },
  {
    "slug": "hdv-laleli-camii-rotterdam-3083vv-netherlands",
    "name": "HDV Laleli Camii",
    "image1": "https://cdn.mawaqit.net/images/backend/mosque/956e34bb-2c90-450d-a745-88b1477602d4/mosque/1eed82b7-22a5-689e-95ad-0a7eba2dd6b3.jpg",
    "address": "Gruttostraat 9",
    "city": "ROTTERDAM",
    "zipcode": "3083vv",
    "countryFullName": "Netherlands",
    "lng": 4.4743853,
    "lat": 51.8884252
  },
  {
    "slug": "moskee-dar-al-hijra-rotterdam-3072ck-netherlands",
    "name": "Moskee Dar Al Hijra",
    "image1": "https://cdn.mawaqit.net/images/backend/mosque/eff6f308-36f2-4644-ba14-6d095ca6eda5/mosque/1eedba65-0382-6f80-8654-0a7eba2dd6b3.jpg",
    "address": "Putselaan 223",
    "city": "ROTTERDAM",
    "zipcode": "3072CK",
    "countryFullName": "Netherlands",
    "lng": 4.4972819834948,
    "lat": 51.89802142727
  },
  {
    "slug": "moskee-an-nasr-huizen-1276-kz-netherlands",
    "name": "Moskee An-Nasr",
    "image1": "https://cdn.mawaqit.net/images/backend/mosque/2b22a76d-d4e2-4e48-8338-61d805ea1a30/mosque/1eedc62a-bcdd-60ea-baad-06acfcd1c88a.jpeg",
    "address": "Gooierserf 250",
    "city": "HUIZEN",
    "zipcode": "1276 KZ",
    "countryFullName": "Netherlands",
    "lng": 5.2529661,
    "lat": 52.2965079
  },
  {
    "slug": "moskee-ar-rahman-gennep-6591-at-netherlands",
    "name": "Moskee Ar-Rahman",
    "image1": "https://cdn.mawaqit.net/images/backend/mosque/910e9a04-3a7b-4f00-9901-cabe7856a424/mosque/1eedd7cc-336e-61fc-96ec-0ede686d7942.jpg",
    "address": "Prins Bernhardlaan 12",
    "city": "GENNEP",
    "zipcode": "6591 AT",
    "countryFullName": "Netherlands",
    "lng": 5.9696232,
    "lat": 51.6979062
  },
  {
    "slug": "moskee-anwar-e-qoeba-utrecht-3562xp-netherlands",
    "name": "Masjid Anwar-e-Qoeba Ahle Sunna Hanafi",
    "image1": "https://cdn.mawaqit.net/images/backend/mosque/3851fe5b-d802-4ac0-bb56-5c31289ca706/mosque/1eede2dc-07e5-6182-94d7-0a7eba2dd6b3.jpeg",
    "address": "Kalymnosdreef 1",
    "city": "UTRECHT",
    "zipcode": "3562xp",
    "countryFullName": "Netherlands",
    "lng": 5.1108839,
    "lat": 52.1161337
  },
  {
    "slug": "moskee-arrahmane-amsterdam-1074-vz-netherlands",
    "name": "مسجد الرحمن",
    "image1": "https://cdn.mawaqit.net/images/backend/mosque/927fbb1e-1179-48c8-b2ea-27bb6ebe4b4d/mosque/1eede608-95f7-6388-85b4-0a7eba2dd6b3.jpg",
    "address": "van Ostadestraat 393-395",
    "city": "AMSTERDAM",
    "zipcode": "1074 VZ",
    "countryFullName": "Netherlands",
    "lng": 4.9044635,
    "lat": 52.3546963
  },
  {
    "slug": "moskee-as-salaam-naarden-naarden-1411bm-netherlands",
    "name": "Moskee As-Salaam Naarden",
    "image1": "https://cdn.mawaqit.net/images/backend/mosque/032bdc19-a59e-42ce-925e-6a8374819f38/mosque/1eedf293-7ee8-6ef2-8fec-06d5966e5289.jpg",
    "address": "van Limburgstirumlaan 2",
    "city": "NAARDEN",
    "zipcode": "1411BM",
    "countryFullName": "Netherlands",
    "lng": 5.155045,
    "lat": 52.2983447
  },
  {
    "slug": "markaz-quba-amsterdam-1021kd-netherlands",
    "name": "Markaz Quba",
    "image1": "https://cdn.mawaqit.net/images/backend/mosque/b26fb4ec-b67b-477e-858b-e3972f635153/mosque/1eee08c6-2c48-6d20-94b0-0ad6701486e3.jpg",
    "address": "Schaafstraat 27",
    "city": "AMSTERDAM",
    "zipcode": "1021KD",
    "countryFullName": "Netherlands",
    "lng": 4.9231566,
    "lat": 52.3856036
  },
  {
    "slug": "hdv-yunus-emre-camii-alblasserdam-2951ba-netherlands",
    "name": "HDV Yunus Emre Camii",
    "image1": "https://cdn.mawaqit.net/images/backend/mosque/435baaa2-8121-4276-adfd-4ec29a7030f5/mosque/1eee32fe-dcf0-6382-9b11-0a0c9324ab13.jpeg",
    "address": "Anjerstraat 2",
    "city": "ALBLASSERDAM",
    "zipcode": "2951BA",
    "countryFullName": "Netherlands",
    "lng": 4.6619392,
    "lat": 51.8686868
  },
  {
    "slug": "kuba-camii-ijmuiden-ijmuiden-1973ba-netherlands",
    "name": "Kuba Camii IJmuiden",
    "image1": "https://cdn.mawaqit.net/images/backend/mosque/f96ad633-ae07-4fff-9f4b-77a4e9babd1e/mosque/1eeee103-b043-6876-a643-0621eb7171ad.jpg",
    "address": "Planetenweg 1",
    "city": "IJMUIDEN",
    "zipcode": "1973BA",
    "countryFullName": "Netherlands",
    "lng": 4.6048198,
    "lat": 52.45634
  },
  {
    "slug": "el-tawheed-amsterdam-amsterdam-1053sv-netherlands",
    "name": "El Tawheed Moskee",
    "image1": "https://cdn.mawaqit.net/images/backend/mosque/12facd3f-3abb-4b6c-9c1f-7f75f3ad46ed/mosque/1eef5027-17ae-6370-9da2-0a15baca5979.jpeg",
    "address": "Jan Hanzenstraat 114",
    "city": "AMSTERDAM",
    "zipcode": "1053SV",
    "countryFullName": "Netherlands",
    "lng": 4.864018,
    "lat": 52.3676735
  },
  {
    "slug": "stichting-saada-amstelveen-1185-xx-netherlands",
    "name": "Stichting saada",
    "image1": "https://cdn.mawaqit.net/images/backend/mosque/7adc655d-5aec-4e3e-819d-a1f76f49a6d4/mosque/1ef0351c-b90c-6a5c-869a-0621eb7171ad.jpeg",
    "address": "Bouwerij 58",
    "city": "AMSTELVEEN",
    "zipcode": "1185 xx",
    "countryFullName": "Netherlands",
    "lng": 4.8380036,
    "lat": 52.2795918
  },
  {
    "slug": "moskee-op-weg-naar-de-toekomst-edam-1135vt-netherlands",
    "name": "Moskee Op Weg Naar De Toekomst",
    "image1": "https://cdn.mawaqit.net/images/backend/mosque/0b16a1e0-6c68-49d4-86a6-3e5ef76f97a0/mosque/1eefbdad-313a-693a-ae03-0621eb7171ad.jpg",
    "address": "Burgemeester Versteeghsingel 6",
    "city": "EDAM",
    "zipcode": "1135VT",
    "countryFullName": "Netherlands",
    "lng": 5.0562601,
    "lat": 52.5119807
  },
  {
    "slug": "s-t-i-s-c-c-a-n-amsterdam-1032-js-netherlands",
    "name": "KUBA CAMİİ Noord",
    "image1": "https://cdn.mawaqit.net/images/backend/mosque/0378c9aa-1f91-4d95-94e4-d1cf063d01e5/mosque/1ef009c4-da7f-6974-a7e0-0a382b7256a1.png",
    "address": "Ribbesstraat 75",
    "city": "AMSTERDAM",
    "zipcode": "1032 JS",
    "countryFullName": "Netherlands",
    "lng": 4.9130259,
    "lat": 52.394079
  },
  {
    "slug": "yeni-cami-maassluis-3144cb-netherlands",
    "name": "ISN - Yeni Cami - Maassluis",
    "image1": "https://cdn.mawaqit.net/images/backend/mosque/65330507-d547-4e36-988a-161986779588/mosque/1ef091f0-a7d3-6b1a-bbad-0a382b7256a1.jpg",
    "address": "Elektraweg 6",
    "city": "MAASSLUIS",
    "zipcode": "3144CB",
    "countryFullName": "Netherlands",
    "lng": 4.2464838,
    "lat": 51.9265276
  },
  {
    "slug": "moskee-arrahman-haarlem-2011-pr-netherlands",
    "name": "MOSKEE ARRAHMAN",
    "image1": "https://cdn.mawaqit.net/images/backend/mosque/f2d7e84a-67d7-4e92-bdec-46498dcb4530/mosque/1ef0c942-19da-6712-a105-06724289ed6b.jpg",
    "address": "Zoetestraat 2",
    "city": "HAARLEM",
    "zipcode": "2011 PR",
    "countryFullName": "Netherlands",
    "lng": 4.6339908,
    "lat": 52.383345
  },
  {
    "slug": "moskee-attaouhid-soest-3765xe-netherlands",
    "name": "Moskee Attaouhid",
    "image1": "https://cdn.mawaqit.net/images/backend/mosque/eb2bb1f3-d244-4929-bff3-3a9bddcdfd71/mosque/1ef10a13-18a9-6b56-868b-0a33d0408e15.jpeg",
    "address": "Weegbreestraat 209",
    "city": "SOEST",
    "zipcode": "3765XE",
    "countryFullName": "Netherlands",
    "lng": 5.2933073,
    "lat": 52.1709919
  },
  {
    "slug": "hdv-orhan-gazi-camii-den-bosch-5223jx-netherlands",
    "name": "HDV Orhan Gazi Camii",
    "image1": "https://cdn.mawaqit.net/images/backend/mosque/294a66e2-8317-40ed-a319-dfeeae6c8a42/mosque/1ef1100b-a926-6c6c-b4f2-06724289ed6b.jpg",
    "address": "Zandveldstraat 3",
    "city": "DEN BOSCH",
    "zipcode": "5223JX",
    "countryFullName": "Netherlands",
    "lng": 5.2689338,
    "lat": 51.6944388
  },
  {
    "slug": "ar-rahma-assendelft-assendelft-1566-hp-netherlands",
    "name": "Moskee Ar-Rahma مسجد الرحمة Assendelft",
    "image1": "https://cdn.mawaqit.net/images/backend/mosque/4e6ceede-5c5f-4266-936f-6dbaf28e0d87/mosque/1ef16c2d-81eb-6bf6-a3d2-0a33d0408e15.jpeg",
    "address": "Omweg 75",
    "city": "ASSENDELFT",
    "zipcode": "1566 HP",
    "countryFullName": "Netherlands",
    "lng": 4.7664987,
    "lat": 52.4852684
  },
  {
    "slug": "msjd-lrhmn-moskee-alrhman-reuver-5953nk-netherlands",
    "name": "مسجد الرحمن&Moskee Errahman",
    "image1": "https://cdn.mawaqit.net/images/backend/mosque/41bb9f81-fb97-4dbb-aeb0-ae37005b945f/mosque/1ef1a9b5-5213-6580-8bf0-0e16b454dc53.jpg",
    "address": "Mariastraat 57",
    "city": "REUVER",
    "zipcode": "5953NK",
    "countryFullName": "Netherlands",
    "lng": 6.0838243,
    "lat": 51.2810623
  },
  {
    "slug": "al-ihsane-amsterdam-1067-zn-netherlands",
    "name": "Al-Ihsane",
    "image1": "https://cdn.mawaqit.net/images/backend/mosque/e3915f8e-8c17-46b2-a829-5d5bb9b09bc8/mosque/1ef4f40b-0662-6048-bdd2-0a67bcb0d635.jpg",
    "address": "Mendes da Costahof 32",
    "city": "AMSTERDAM",
    "zipcode": "1067 ZN",
    "countryFullName": "Netherlands",
    "lng": 4.798729,
    "lat": 52.3766485
  },
  {
    "slug": "stichting-moskee-en-islamitisch-centrum-groningen-9731-bk-netherlands",
    "name": "Stichting Moskee en Islamitisch Centrum",
    "image1": "https://cdn.mawaqit.net/images/backend/mosque/4ea3244e-d2c3-4c7e-ab17-7a41a1bb77d1/mosque/1ef5633a-009c-6552-9fdf-0a97492a3fc9.png",
    "address": "Ulgersmaweg 29",
    "city": "GRONINGEN",
    "zipcode": "9731 BK",
    "countryFullName": "Netherlands",
    "lng": 6.5877491,
    "lat": 53.233375
  },
  {
    "slug": "igmg-utrecht-mescid-i-aksa-camii-utrecht-3555-cm-netherlands",
    "name": "IGMG Utrecht Mescid-i Aksa",
    "image1": "https://cdn.mawaqit.net/images/backend/mosque/e8f00bb0-45bb-49ae-b37a-a881de3e509a/mosque/1ef6b936-3858-6b1e-943a-0e4a41cdad45.jpeg",
    "address": "Royaards van den Hamkade 18",
    "city": "UTRECHT",
    "zipcode": "3555 CM",
    "countryFullName": "Netherlands",
    "lng": 5.0977219,
    "lat": 52.1042329
  },
  {
    "slug": "hoogvliet-merkez-camii-hoogvliet-rotterdam-3193ea-netherlands",
    "name": "Hoogvliet merkez camii",
    "image1": "https://cdn.mawaqit.net/images/backend/mosque/10f9a632-db8e-476f-a082-a88eceeaace6/mosque/1ef78585-1dc8-6f3a-89ce-0affcb0701ab.jpg",
    "address": "Posweg259",
    "city": "HOOGVLIET ROTTERDAM",
    "zipcode": "3193EA",
    "countryFullName": "Netherlands",
    "lng": 4.3541865,
    "lat": 51.8695176
  },
  {
    "slug": "igmg-islamitisch-centrum-yildiz-schiedam-3118-xh-netherlands",
    "name": "IGMG Islamitisch Centrum Yildiz",
    "image1": "https://cdn.mawaqit.net/images/backend/mosque/0f6a2572-495f-4fb3-8544-72f019a207d2/mosque/1ef78da4-00e5-6d60-b6b4-0affcb0701ab.png",
    "address": "Doctor Schaepmansingel 5,",
    "city": "SCHIEDAM",
    "zipcode": "3118 XH",
    "countryFullName": "Netherlands",
    "lng": 4.381192,
    "lat": 51.9157661
  },
  {
    "slug": "moskee-al-rahma-groningen-9743sz-netherlands",
    "name": "Moskee Al-Rahma",
    "image1": "https://cdn.mawaqit.net/images/backend/mosque/7f31281f-dcb2-40d7-9e87-edf9f54a336d/mosque/1ef7ff37-aec1-647a-9460-0affcb0701ab.jpeg",
    "address": "Travertijnstraat 12",
    "city": "GRONINGEN",
    "zipcode": "9743SZ",
    "countryFullName": "Netherlands",
    "lng": 6.524051,
    "lat": 53.217522
  },
  {
    "slug": "moskee-al-ansaar-hillegom-2182-em-netherlands",
    "name": "Moskee AL Ansaar مسجد الأنصار",
    "image1": "https://cdn.mawaqit.net/images/backend/mosque/97ef93a6-bf8a-4c4a-a488-643d17f5aeb1/mosque/1ef8997b-d486-6f14-a100-0e9d077f5bb1.jpg",
    "address": "Monseigneur van Leeuwenlaan 13",
    "city": "HILLEGOM",
    "zipcode": "2182 EM",
    "countryFullName": "Netherlands",
    "lng": 4.57927,
    "lat": 52.2881
  },
  {
    "slug": "moskee-vava-apeldoorn-apeldoorn-7322gk-netherlands",
    "name": "VAVA Cultureel en Islamitisch Centrum",
    "image1": "https://cdn.mawaqit.net/images/backend/mosque/d84fd6fe-4f8d-4d30-ae67-9171cf7dd7cd/mosque/1ef8a10e-0c6e-62b2-99d2-0e9d077f5bb1.jpg",
    "address": "Zilverschoon 124",
    "city": "APELDOORN",
    "zipcode": "7322GK",
    "countryFullName": "Netherlands",
    "lng": 5.9891375,
    "lat": 52.2248765
  },
  {
    "slug": "sultan-ahmet-camii-zaandam-1504nh-netherlands",
    "name": "Sultan Ahmet Camii",
    "image1": "https://cdn.mawaqit.net/images/backend/mosque/9b334f85-2fd3-4713-893d-402a606d08bf/mosque/1ef8bf84-2ece-6af2-827c-0e9d077f5bb1.jpg",
    "address": "Poelenburg 156",
    "city": "ZAANDAM",
    "zipcode": "1504NH",
    "countryFullName": "Netherlands",
    "lng": 4.8539848,
    "lat": 52.4396918
  },
  {
    "slug": "milli-gorus-haarlem-fatih-haarlem-2025-nb-netherlands",
    "name": "Milli Gorus Haarlem Fatih",
    "image1": "https://cdn.mawaqit.net/images/backend/mosque/37a9f53a-79ec-472c-b5d2-ba54140b512c/mosque/1ef92d5b-5686-6028-afc5-0e9d077f5bb1.jpeg",
    "address": "Generaal Spoorlaan 2-4",
    "city": "HAARLEM",
    "zipcode": "2025 NB",
    "countryFullName": "Netherlands",
    "lng": 4.6452525,
    "lat": 52.4140889
  },
  {
    "slug": "moskee-rahma-beverwijk-bazaar-beverwijk-1948-ns-netherlands",
    "name": "Moskee Rahma Beverwijk Bazaar",
    "image1": "https://cdn.mawaqit.net/images/backend/mosque/fe4a338e-2647-41ac-aadd-ed2d0f49badc/mosque/1ef990fb-0837-679c-935a-0e9d077f5bb1.jpeg",
    "address": "Hal 33-6 Randweg",
    "city": "BEVERWIJK",
    "zipcode": "1948 NS",
    "countryFullName": "Netherlands",
    "lng": 4.6724078,
    "lat": 52.4765108
  },
  {
    "slug": "moskee-el-ferdous-den-haag-2572-re-netherlands",
    "name": "moskee el ferdous",
    "image1": "https://cdn.mawaqit.net/images/backend/mosque/dcb3ac50-1d65-4348-9143-6f578d5cf424/mosque/1ef96406-22b5-62e4-b1d5-0a0389a4e0f5.jpeg",
    "address": "fischerstraat 102",
    "city": "DEN HAAG",
    "zipcode": "2572 RE",
    "countryFullName": "Netherlands",
    "lng": 4.2957983,
    "lat": 52.0657833
  },
  {
    "slug": "moskee-at-tawheed-den-haag-2562jz-netherlands",
    "name": "Moskee at-Tawheed",
    "image1": "https://cdn.mawaqit.net/images/backend/mosque/81d9ffc1-4807-4a99-869c-f516795adec5/mosque/1efa5240-0dc8-6d12-9372-0e9d077f5bb1.jpg",
    "address": "Newtonplein 85",
    "city": "DEN HAAG",
    "zipcode": "2562JZ",
    "countryFullName": "Netherlands",
    "lng": 4.2792322,
    "lat": 52.0721815
  },
  {
    "slug": "stichting-amal-rijswijk-rijswijk-2286-va-netherlands",
    "name": "Stichting Amal",
    "image1": "https://cdn.mawaqit.net/images/backend/mosque/b19abc42-d622-46b9-9b86-08a849332311/mosque/1efc0518-c512-67d4-948a-0a21b15e7a1f.png",
    "address": "Petronella Voûtestraat 1",
    "city": "RIJSWIJK",
    "zipcode": "2286 VA",
    "countryFullName": "Netherlands",
    "lng": 4.316107,
    "lat": 52.0272698
  },
  {
    "slug": "iskenderpasa-camii-igmg-rotterdam-3037-bk-netherlands",
    "name": "Iskenderpasa camii IGMG",
    "image1": "https://cdn.mawaqit.net/images/backend/mosque/cd18968c-d7cc-49de-b27d-dcb6b879a2c4/mosque/1efd6493-ebae-679a-88af-0ac178b258e1.png",
    "address": "Insulindestraat 236",
    "city": "ROTTERDAM",
    "zipcode": "3037 BK",
    "countryFullName": "Netherlands",
    "lng": 4.4695237,
    "lat": 51.9326002
  },
  {
    "slug": "assoenna-moskee-stichting-assalaam-apeldoorn-7331-aj-netherlands",
    "name": "Assoennah Moskee",
    "image1": "https://cdn.mawaqit.net/images/backend/mosque/6cbfb1b2-8504-472e-871f-d00ff8c634f6/mosque/1efd664c-ccc9-6720-b946-0e61b0058d45.jpg",
    "address": "tenderlaan 2-8,",
    "city": "APELDOORN",
    "zipcode": "7331 AJ",
    "countryFullName": "Netherlands",
    "lng": 5.9631099,
    "lat": 52.2070454
  },
  {
    "slug": "utrecht-ulu-moskee-utrecht-3531-bx-netherlands",
    "name": "HDV Utrecht Ulu Camii",
    "image1": "https://cdn.mawaqit.net/images/backend/mosque/1d8178ef-ae00-4189-b9bb-479afe959ea0/mosque/1efd77e7-960b-686c-b171-0ac178b258e1.jpg",
    "address": "Moskeeplein 89",
    "city": "UTRECHT",
    "zipcode": "3531 BX",
    "countryFullName": "Netherlands",
    "lng": 5.104403,
    "lat": 52.091863
  },
  {
    "slug": "indonesisch-cultureel-centrum-utrecht-utrecht-3994ad-netherlands",
    "name": "Indonesisch Cultureel Centrum Utrecht",
    "image1": "https://cdn.mawaqit.net/images/backend/mosque/7278df2d-008b-4b36-b7b3-7f741788e68c/mosque/1efdbc5c-bdfb-6016-82b7-0e61b0058d45.jpg",
    "address": "Hanboog 2",
    "city": "UTRECHT",
    "zipcode": "3994AD",
    "countryFullName": "Netherlands",
    "lng": 5.1801483,
    "lat": 52.0300528
  },
  {
    "slug": "moskee-al-mukaram-rotterdam-3025-nt-netherlands",
    "name": "Moskee Al Mukaram",
    "image1": "https://cdn.mawaqit.net/images/backend/mosque/6d09dc7c-94ed-41a8-a7dd-7319d9839aa7/mosque/1efdfea2-c460-6d60-bcc2-0ac178b258e1.jpg",
    "address": "Kuipersstraat 21",
    "city": "ROTTERDAM",
    "zipcode": "3025 NT",
    "countryFullName": "Netherlands",
    "lng": 4.4355861,
    "lat": 51.9117069
  },
  {
    "slug": "mrkz-lsr-stichting-de-nachtreis-rotterdam-3054-pc-netherlands",
    "name": "مركز الإسراء  Stichting de Nachtreis",
    "image1": "https://cdn.mawaqit.net/images/backend/mosque/9de3bc75-f283-4b6f-acbd-44e84e4f132c/mosque/1efdeffa-a3f7-6b8e-8c27-0e61b0058d45.jpeg",
    "address": "Hectorstraat 17 B",
    "city": "ROTTERDAM",
    "zipcode": "3054 PC",
    "countryFullName": "Netherlands",
    "lng": 4.4897582,
    "lat": 51.9611279
  },
  {
    "slug": "stichting-al-mustaqeem-hellevoetsluis-3224he-netherlands",
    "name": "Stichting al Mustaqeem",
    "image1": "https://cdn.mawaqit.net/images/backend/mosque/67a3c050-3c6e-4a8d-b358-f88b521a05be/mosque/1efe86e2-93c4-6b66-b80f-0a7d06691847.jpeg",
    "address": "Vliet 8",
    "city": "HELLEVOETSLUIS",
    "zipcode": "3224HE",
    "countryFullName": "Netherlands",
    "lng": 4.1484205,
    "lat": 51.8328424
  },
  {
    "slug": "tawhied-islamitisch-centrum-veldhoven-veldhoven-5502je-netherlands",
    "name": "MARKAZ TAWHIED",
    "image1": "https://cdn.mawaqit.net/images/backend/mosque/83664b3d-95a8-484b-a18f-b6000ad3d261/mosque/1efe6335-60f6-6ce6-a5e5-0a7d06691847.jpeg",
    "address": "Kruisstraat 2A",
    "city": "VELDHOVEN",
    "zipcode": "5502JE",
    "countryFullName": "Netherlands",
    "lng": 5.4154219,
    "lat": 51.4254258
  },
  {
    "slug": "islamitisch-cultureel-centrum-behar-s-hertogenbosch-5216-jt-netherlands",
    "name": "Islamitisch Cultureel Centrum “Behar”",
    "image1": "https://cdn.mawaqit.net/images/backend/mosque/cf839534-a9c0-4b33-9ee4-35905d4881ab/mosque/1efee223-8da6-6706-98c1-06ef9144e88f.jpeg",
    "address": "Jacob Catsstraat 15",
    "city": "‘S-HERTOGENBOSCH",
    "zipcode": "5216 JT",
    "countryFullName": "Netherlands",
    "lng": 5.3255755,
    "lat": 51.6859859
  },
  {
    "slug": "stichting-al-andalous-veenendaal-3904dz-netherlands",
    "name": "Stichting Al-Andalous",
    "image1": "https://cdn.mawaqit.net/images/backend/mosque/69f03a32-f825-4996-8c61-43068c63f08b/mosque/1efed14c-1266-6dd0-ad05-06ef9144e88f.png",
    "address": "Hovystraat 37",
    "city": "VEENENDAAL",
    "zipcode": "3904DZ",
    "countryFullName": "Netherlands",
    "lng": 5.5436893,
    "lat": 52.0179005
  },
  {
    "slug": "moskee-dar-ul-islam-den-haag-2562-ed-netherlands",
    "name": "Moskee Dar Ul Islam",
    "image1": "https://cdn.mawaqit.net/images/backend/mosque/a049c8bf-155e-4e1b-a92c-b98d6feaadcb/mosque/1efed691-7772-668a-a4a7-0a7d06691847.png",
    "address": "Regentesselaan 355",
    "city": "DEN HAAG",
    "zipcode": "2562 ED",
    "countryFullName": "Netherlands",
    "lng": 4.284265,
    "lat": 52.0715725
  },
  {
    "slug": "moskee-el-houda-brunssum-6441-te-netherlands",
    "name": "Moskee el Houda",
    "image1": "https://cdn.mawaqit.net/images/backend/mosque/3948a01c-4981-4d35-b3b7-a324e0ed038d/mosque/1efef66c-c818-62c4-9620-06ef9144e88f.png",
    "address": "Schinvelderstraat 19",
    "city": "BRUNSSUM",
    "zipcode": "6441 TE",
    "countryFullName": "Netherlands",
    "lng": 5.9738709,
    "lat": 50.9553899
  },
  {
    "slug": "isn-mimar-sinan-moskee-terborg-terborg-7061-zl-netherlands",
    "name": "Mimar Sinan Camii",
    "image1": "https://cdn.mawaqit.net/images/backend/mosque/1ddd9f48-b540-4c58-92b9-6b11a3e889a1/mosque/1eff6ae2-dd8a-6a04-812b-0e61b0058d45.jpg",
    "address": "Vulcaanstraat 1-A",
    "city": "TERBORG",
    "zipcode": "7061 ZL",
    "countryFullName": "Netherlands",
    "lng": 6.3549767,
    "lat": 51.9193947
  },
  {
    "slug": "moskee-anour-nijmegen-6537gr-netherlands",
    "name": "Moskee Anour",
    "image1": "https://cdn.mawaqit.net/images/backend/mosque/e4e1ec90-66f1-439e-86f8-3155b312c833/mosque/1eff82c7-70ce-61f2-b1b7-0e4fa23cf9cb.png",
    "address": "Meijhorst 2474",
    "city": "NIJMEGEN",
    "zipcode": "6537GR",
    "countryFullName": "Netherlands",
    "lng": 5.7973501,
    "lat": 51.808437
  },
  {
    "slug": "as-soennah-moskee-tilburg-5041-ah-netherlands",
    "name": "Masjid As-Soennah",
    "image1": "https://cdn.mawaqit.net/images/backend/mosque/2d2131c1-aa73-4ca9-93b5-0dad03a6cd2c/mosque/1eff8394-5e88-65f6-9160-06ef9144e88f.jpg",
    "address": "Nijverstraat 44",
    "city": "TILBURG",
    "zipcode": "5041 AH",
    "countryFullName": "Netherlands",
    "lng": 5.0879978,
    "lat": 51.5661364
  },
  {
    "slug": "moskee-sayidina-ibrahim-utrecht-3527-ba-netherlands",
    "name": "Moskee Sayidina Ibrahim",
    "image1": "https://cdn.mawaqit.net/images/backend/mosque/4ba6f78d-ba49-4701-8f86-a80cc6bb1817/mosque/1efff4da-f3cd-6c26-97da-06ef9144e88f.jpeg",
    "address": "Attleeplantsoen 37",
    "city": "UTRECHT",
    "zipcode": "3527 BA",
    "countryFullName": "Netherlands",
    "lng": 5.0858557,
    "lat": 52.0788823
  },
  {
    "slug": "eyup-sultan-camii-vlaardingen-3134nw-netherlands",
    "name": "Eyup Sultan Camii",
    "image1": "https://cdn.mawaqit.net/images/backend/mosque/9849ea2f-5557-4d54-9f4e-e4f0ea0ae067/mosque/1f00264c-f24d-6b82-a154-0a2e1c0b5725.jpeg",
    "address": "Oosthavenkade 46",
    "city": "VLAARDINGEN",
    "zipcode": "3134NW",
    "countryFullName": "Netherlands",
    "lng": 4.3468834,
    "lat": 51.9067897
  },
  {
    "slug": "igmg-amersfoort-rahman-amersfoort-3816-rc-netherlands",
    "name": "IGMG Amersfoort Rahman",
    "image1": "https://cdn.mawaqit.net/images/backend/mosque/291c1e0e-3711-4059-86fb-e8e7d387dd61/mosque/1f00a458-813a-6fe6-a9f4-0e4fa23cf9cb.jpg",
    "address": "Juliëttestraat 44",
    "city": "AMERSFOORT",
    "zipcode": "3816 RC",
    "countryFullName": "Netherlands",
    "lng": 5.4089038074017,
    "lat": 52.154928114549
  },
  {
    "slug": "stichting-ummah-kerkelanden-hilversum-1216lw-netherlands",
    "name": "Ummah Kerkelanden",
    "image1": "https://cdn.mawaqit.net/images/backend/mosque/6f7a1937-9510-4eb6-bb27-fbe18992d813/mosque/1f00b263-1c4e-659c-bdca-0e4fa23cf9cb.png",
    "address": "Erasmuslaan 85A",
    "city": "HILVERSUM",
    "zipcode": "1216LW",
    "countryFullName": "Netherlands",
    "lng": 5.1313412,
    "lat": 52.2177103
  },
  {
    "slug": "al-rizk-icc-emmen-emmen-7821-ad-netherlands",
    "name": "Al Rizk — ICC Emmen",
    "image1": "https://cdn.mawaqit.net/images/backend/mosque/fb9eb39a-37c8-4b3b-a6e8-d7be912b3000/mosque/1f00ff16-12ac-6142-b29e-0ac73cfd41db.png",
    "address": "Jules Verneweg 15",
    "city": "EMMEN",
    "zipcode": "7821 AD",
    "countryFullName": "Netherlands",
    "lng": 6.9156922,
    "lat": 52.7741526
  },
  {
    "slug": "purmerend-hdv-waterland-camii-purmerend-1442-netherlands",
    "name": "Purmerend HDV Waterland Camii",
    "image1": "https://cdn.mawaqit.net/images/backend/mosque/c46aae9a-f138-46e4-b381-b6a9b9d5826a/mosque/1f01ed9d-1df8-6f48-a12d-06bdda781935.jpg",
    "address": "Jonkheer van Cittersplein, Purmerend, Nederland",
    "city": "PURMEREND",
    "zipcode": "1442",
    "countryFullName": "Netherlands",
    "lng": 4.9633269,
    "lat": 52.5114157
  },
  {
    "slug": "moskee-bilal-den-haag-2525-hk-netherlands",
    "name": "Moskee Bilal - مسجد بلال",
    "image1": "https://cdn.mawaqit.net/images/backend/mosque/821b299b-e4f1-4fa4-877d-53a625187fe3/mosque/1f02078a-cf02-6d00-906d-0e61b0058d45.jpg",
    "address": "Hoefkade 1260",
    "city": "DEN HAAG",
    "zipcode": "2525 HK",
    "countryFullName": "Netherlands",
    "lng": 4.3006379,
    "lat": 52.0622775
  },
  {
    "slug": "hdv-haci-bayram-camii-bunschoten-spakenburg-3752-netherlands",
    "name": "HDV Hacı Bayram Camii",
    "image1": "https://cdn.mawaqit.net/images/backend/mosque/9ebc59c4-bab6-4549-b8ae-c715cddd2dbd/mosque/1f020f5e-6c2a-663e-a671-06bdda781935.jpg",
    "address": "Bikkersweg 88, Bunschoten-Spakenburg, Hollanda",
    "city": "BUNSCHOTEN-SPAKENBURG",
    "zipcode": "3752",
    "countryFullName": "Netherlands",
    "lng": 5.3598056,
    "lat": 52.2453147
  },
  {
    "slug": "ikc-hajr-enschede-7545-xa-netherlands",
    "name": "IKC Hajr",
    "image1": "https://cdn.mawaqit.net/images/backend/mosque/e4c21a7a-1059-400a-9a25-372ed27f9b83/mosque/1f022e89-55c0-619c-9679-06bdda781935.jpg",
    "address": "Doctor P. van Hoekstraat 10A, Enschede, Netherlands",
    "city": "ENSCHEDE",
    "zipcode": "7545 XA",
    "countryFullName": "Netherlands",
    "lng": 6.8712279,
    "lat": 52.2092476
  },
  {
    "slug": "moskee-ar-raza-almere-1328-ma-netherlands",
    "name": "Moskee Ar Raza",
    "image1": "https://cdn.mawaqit.net/images/backend/mosque/906ed894-0459-4af9-8cec-eb7ee29abf6a/mosque/1f026893-5b04-6b5a-8d26-0aae5cc50e23.jpg",
    "address": "Edvard Munchweg 2, Almere, Nederland",
    "city": "ALMERE",
    "zipcode": "1328 MA",
    "countryFullName": "Netherlands",
    "lng": 5.2702679,
    "lat": 52.3775149
  },
  {
    "slug": "rukun-islam-den-haag-2572-tg-netherlands",
    "name": "Rukun Islam",
    "image1": "https://cdn.mawaqit.net/images/backend/mosque/01cfb23f-59ed-4682-9821-966b1a897bc9/mosque/1f02c419-147b-61fc-af64-069fb38559db.jpg",
    "address": "Schalk Burgerstraat 308, Den Haag, Nederland",
    "city": "DEN HAAG",
    "zipcode": "2572 TG",
    "countryFullName": "Netherlands",
    "lng": 4.2936215,
    "lat": 52.0618938
  }
]