[
  {
    "slug": "al-falah-centre-cardiff",
    "name": "AL-FALAH MASJID",
    "image1": "https://cdn.mawaqit.net/images/backend/mosque_default_picture.png",
    "address": "58 Caerau Lane, Ely, Cardiff, Glamorgan, CF5 5HQ",
    "city": "Cardiff",
    "zipcode": "CF5 5HQ",
    "countryFullName": "United Kingdom",
    "lng": -3.2512241,
    "lat": 51.4730138
  },
  {
    "slug": "cardiffmosque",
    "name": "Noor-El-Islam Masjid",
    "image1": "https://cdn.mawaqit.net/images/backend/mosque/45238082-c95f-4d4d-9846-d59d8452cd74/mosque/1eea8da3-853c-6310-b585-066ed47a7584.jpg",
    "address": "17 Maria st butetown",
    "city": "Cardiff",
    "zipcode": "cf10 5hh",
    "countryFullName": "United Kingdom",
    "lng": -3.1720076,
    "lat": 51.4727918
  },
  {
    "slug": "old-hill-masjid-cradley-heath-b64-6je-united-kingdom",
    "name": "Old Hill Masjid",
    "image1": "https://cdn.mawaqit.net/images/backend/mosque/0370c722-1da3-4f4b-9183-ec36b2e80394/mosque/1eea8dab-f6d1-6ebe-8593-066ed47a7584.jpeg",
    "address": "221 Halesowen road, Old Hill",
    "city": "Cradley-Heath",
    "zipcode": "B64 6JE",
    "countryFullName": "United Kingdom",
    "lng": -2.0667783,
    "lat": 52.4746976
  },
  {
    "slug": "south-wales-cardiff",
    "name": "South Wales Islamic Centre",
    "image1": "https://cdn.mawaqit.net/images/backend/mosque/b4e05c26-dd3b-4444-9ff5-e5a243424173/mosque/1eea8dac-0cee-63dc-ac7f-066ed47a7584.jpeg",
    "address": "Alice Street",
    "city": "Cardiff",
    "zipcode": "CF10 5LB",
    "countryFullName": "United Kingdom",
    "lng": -3.1691614,
    "lat": 51.4678987
  },
  {
    "slug": "alfalah-braintree",
    "name": "مركز الفلاح الإسلامي-Al Falah Braintree",
    "image1": "https://cdn.mawaqit.net/images/backend/mosque/154c9e6d-82ad-4fa7-84be-be550f747690/mosque/1eea8db0-1bf6-65ba-8dfb-066ed47a7584.PNG",
    "address": "Vestry Hall, St Michael's Ln",
    "city": "Braintree",
    "zipcode": "CM7 1EY",
    "countryFullName": "United Kingdom",
    "lng": 0.5501436,
    "lat": 51.8776805
  },
  {
    "slug": "msh-birmingham",
    "name": "M.S.H.M.C.C. |  مسجد دار الطلبة المسلمين",
    "image1": "https://cdn.mawaqit.net/images/backend/mosque/6ef55c47-c762-4ca7-afc8-2a3ccb85dca1/mosque/1eea8dbc-c540-6ba0-b55b-066ed47a7584.JPG",
    "address": "517 Moseley road, Moseley",
    "city": "Birmingham",
    "zipcode": "B12 9BX",
    "countryFullName": "United Kingdom",
    "lng": -1.8854465,
    "lat": 52.4588979
  },
  {
    "slug": "cm-middlesbrough",
    "name": "MIDDLESBROUGH CENTRAL MASJID",
    "image1": "https://cdn.mawaqit.net/images/backend/mosque/4326f582-1bb7-4807-bce0-a72f300fe6a7/mosque/1eea8dca-638b-6578-8145-066ed47a7584.jpg",
    "address": "30 Southfield Road",
    "city": "Middlesbrough",
    "zipcode": "TS1 3EX",
    "countryFullName": "United Kingdom",
    "lng": -1.2311383,
    "lat": 54.5704816
  },
  {
    "slug": "alfalah-london",
    "name": "Masjid Alfalah",
    "image1": "https://cdn.mawaqit.net/images/backend/mosque/df9ca896-4473-4fa3-af6d-15244e5cc50e/mosque/1eea8dce-03d1-671e-8618-066ed47a7584.jpg",
    "address": "97 Kensington Garden",
    "city": "London",
    "zipcode": "IG1 3EN",
    "countryFullName": "United Kingdom",
    "lng": 0.0573474,
    "lat": 51.5638231
  },
  {
    "slug": "afghan-islamic-cultural-centre-london",
    "name": "Afghan Islamic Cultural Centre",
    "image1": "https://cdn.mawaqit.net/images/backend/mosque/7943ab2f-e9f6-4f46-a0f4-9e67a7ffc9dc/mosque/1eea8dd0-527e-63e2-b105-066ed47a7584.jpg",
    "address": "210-214 Church Road",
    "city": "London",
    "zipcode": "NW10 9NP",
    "countryFullName": "United Kingdom",
    "lng": -0.2479634,
    "lat": 51.5481914
  },
  {
    "slug": "huda-birmingham",
    "name": "HUDA MASJID",
    "image1": "https://cdn.mawaqit.net/images/backend/mosque/1881cf42-a4b8-4b00-9445-da16aa0bc313/mosque/1eea8ddb-40b4-66d8-98db-066ed47a7584.jpg",
    "address": "1 Unett street, Newtown",
    "city": "Birmingham",
    "zipcode": "B19 3BP",
    "countryFullName": "United Kingdom",
    "lng": -1.9056951,
    "lat": 52.4916923
  },
  {
    "slug": "masjidramadan",
    "name": "Masjid Ramadan",
    "image1": "https://cdn.mawaqit.net/images/backend/mosque/10e9ceb4-c07f-46aa-a0e9-b19045d980e7/mosque/1eea8de5-e455-6170-a106-066ed47a7584.jpg",
    "address": "9-15 Shacklewell Lane",
    "city": "London",
    "zipcode": "E8 2DA",
    "countryFullName": "United Kingdom",
    "lng": -0.0740086,
    "lat": 51.5509809
  },
  {
    "slug": "muzani-community-islamic-centre-london",
    "name": "Muzani Community & Islamic Centre",
    "image1": "https://cdn.mawaqit.net/images/backend/mosque/17b26f92-26ff-47a0-82bf-00dc1c938bf3/mosque/1eea8ded-e3a2-61d0-b837-066ed47a7584.jpeg",
    "address": "188 church road",
    "city": "London",
    "zipcode": "NW109NP",
    "countryFullName": "United Kingdom",
    "lng": -0.2486256,
    "lat": 51.5478216
  },
  {
    "slug": "miec",
    "name": "Masjid Ibraheem & Education Centre",
    "image1": "https://cdn.mawaqit.net/images/backend/mosque/d30c0ea4-2950-4428-b75b-340deaba2412/mosque/1eea8def-c547-62e2-92e0-066ed47a7584.jpg",
    "address": "Crofts Hall, Lower Rushton Road,",
    "city": "Bradford",
    "zipcode": "BD3 8PX",
    "countryFullName": "United Kingdom",
    "lng": -1.7105742,
    "lat": 53.7966076
  },
  {
    "slug": "makki-masjid-halifax",
    "name": "Makki Masjid",
    "image1": "https://cdn.mawaqit.net/images/backend/mosque/e0f3a4eb-1f7b-4a73-b4bd-4b4a2dd8605c/mosque/1eea8dfd-62e3-6598-b885-066ed47a7584.jpg",
    "address": "Hermon Grove",
    "city": "Halifax",
    "zipcode": "HX1 3XW",
    "countryFullName": "United Kingdom",
    "lng": -1.878147,
    "lat": 53.718834
  },
  {
    "slug": "cranfield-islamic-society-mosque-cranfield-bedford",
    "name": "Cranfield Islamic Society Mosque",
    "image1": "https://cdn.mawaqit.net/images/backend/mosque/63ad9016-a655-4a71-b136-92c35e3698e7/mosque/1eea8dfe-0d58-69ec-ab07-066ed47a7584.jpg",
    "address": "Building 33 Cranfield University, Central Ave",
    "city": "Cranfield",
    "zipcode": "MK43 0AL",
    "countryFullName": "United Kingdom",
    "lng": -0.6282833,
    "lat": 52.0746136
  },
  {
    "slug": "masjid-al-warith-halesowen",
    "name": "Masjid Al-Warith - (مسجد الوارث)",
    "image1": "https://cdn.mawaqit.net/images/backend/mosque/42a93b0e-4a00-467c-9e98-953d98e156ce/mosque/1eea8dff-2f1a-6160-bd6a-066ed47a7584.jpg",
    "address": "Highfield Lane",
    "city": "Halesowen",
    "zipcode": "B63 4SG",
    "countryFullName": "United Kingdom",
    "lng": -2.0610961,
    "lat": 52.4482577
  },
  {
    "slug": "al-baseera-bristol-centre-bristol",
    "name": "Al-Baseera Bristol Centre",
    "image1": "https://cdn.mawaqit.net/images/backend/mosque/ad7a3511-531a-4d22-9ed9-4372968852e3/mosque/1eea8e00-bd92-6996-b30c-066ed47a7584.jpeg",
    "address": "20 Wade Street, St Judes",
    "city": "Bristol",
    "zipcode": "BS29DR",
    "countryFullName": "United Kingdom",
    "lng": -2.579925,
    "lat": 51.45921
  },
  {
    "slug": "amanah-masjid-birmingham-b11-1jb-united-kingdom",
    "name": "Amanah Masjid",
    "image1": "https://cdn.mawaqit.net/images/backend/mosque/a2ace75f-fbca-4c86-b94e-8944f7529867/mosque/1eea8e00-def1-6b96-b91c-066ed47a7584.jpg",
    "address": "29-35 Henley street",
    "city": "Birmingham",
    "zipcode": "B11 1JB",
    "countryFullName": "United Kingdom",
    "lng": -1.8765163421631,
    "lat": 52.467148453971
  },
  {
    "slug": "banbury-madni-masjid-banbury-ox16-4rx-united-kingdom",
    "name": "Banbury Madni Masjid",
    "image1": "https://cdn.mawaqit.net/images/backend/mosque/39c24ceb-a9fe-4b3d-93ef-1ca20c4ce90b/mosque/1eea8e03-9a3c-6f7a-b5e4-066ed47a7584.jpg",
    "address": "Merton St",
    "city": "Banbury",
    "zipcode": "OX16 4RX",
    "countryFullName": "United Kingdom",
    "lng": -1.3243824,
    "lat": 52.0621829
  },
  {
    "slug": "hedon-mosque-islamic-london-united-kingdom",
    "name": "Hendon Mosque & Islamic Centre",
    "image1": "https://cdn.mawaqit.net/images/backend/mosque/d45c48e5-27c1-4c12-970c-48df46e1ea7b/mosque/1efff518-bab4-63d4-b113-0a2e1c0b5725.jpg",
    "address": "Brent View Road, West Hendon",
    "city": "London",
    "zipcode": "NW9 7EL",
    "countryFullName": "United Kingdom",
    "lng": -0.2383841,
    "lat": 51.5775793
  },
  {
    "slug": "faizan-e-madina-halifax-hx1-4jx-united-kingdom",
    "name": "Faizan E Madina",
    "image1": "https://cdn.mawaqit.net/images/backend/mosque/bb24660a-0a66-4a18-ae47-cbe1b68bb9f5/mosque/1eea8e07-1f8b-6804-931b-066ed47a7584.png",
    "address": "275 Gibbet Street",
    "city": "Halifax",
    "zipcode": "HX1 4JX",
    "countryFullName": "United Kingdom",
    "lng": -1.8812652,
    "lat": 53.7224783
  },
  {
    "slug": "globe-town-mosque-london-e2-0rn-united-kingdom",
    "name": "Globe Town Mosque",
    "image1": "https://cdn.mawaqit.net/images/backend/mosque/6c662c9d-48d4-495d-b635-faf8bf3a81b3/mosque/1eea8e12-9403-60d2-be0c-066ed47a7584.jpg",
    "address": "100 Roman Road",
    "city": "London",
    "zipcode": "E2 0RN",
    "countryFullName": "United Kingdom",
    "lng": -0.0482295,
    "lat": 51.5286934
  },
  {
    "slug": "shah-jalal-mosque-cardiff-cf24-4nj-united-kingdom",
    "name": "Shah Jalal Mosque",
    "image1": "https://cdn.mawaqit.net/images/backend/mosque/dd99ba06-a5a1-43ae-a3a2-333799534d0e/mosque/1eea8e12-bd9a-6bca-a0b4-066ed47a7584.jpg",
    "address": "19 Crwys Rd",
    "city": "Cardiff",
    "zipcode": "CF24 4NJ",
    "countryFullName": "United Kingdom",
    "lng": -3.1736001,
    "lat": 51.4931384
  },
  {
    "slug": "al-rahman-mosque-education-centre-london-nw1-1nw-united-kingdom",
    "name": "Al-Rahman Mosque & Education Centre",
    "image1": "https://cdn.mawaqit.net/images/backend/mosque/c9830e0e-94a5-40c3-b745-c865f93dab25/mosque/1eea8e13-dd0d-6ec0-ab32-066ed47a7584.jpg",
    "address": "Godwin Court Crowndale Road, Camden",
    "city": "London",
    "zipcode": "NW1 1NW",
    "countryFullName": "United Kingdom",
    "lng": -0.1348751,
    "lat": 51.5351079
  },
  {
    "slug": "quba-islamic-cultural-centre-birmingham-b7-4ny-united-kingdom",
    "name": "QUBA ICC",
    "image1": "https://cdn.mawaqit.net/images/backend/mosque/08f12a45-41d4-4210-81c2-53dbeb328417/mosque/1eea8e15-a15e-6d78-9453-066ed47a7584.jpg",
    "address": "Oliver street",
    "city": "Birmingham",
    "zipcode": "B7 4NY",
    "countryFullName": "United Kingdom",
    "lng": -1.8757116,
    "lat": 52.492565
  },
  {
    "slug": "falkirk-islamic-centre-falkirk-fk1-1ug-united-kingdom",
    "name": "Falkirk Islamic Centre",
    "image1": "https://cdn.mawaqit.net/images/backend/mosque/9f26288b-4bd4-4e22-9bc8-e0a0581f030c/mosque/1eea8e19-f2c8-6ca0-9533-066ed47a7584.jpg",
    "address": "6-8 Burnhead Lane",
    "city": "Falkirk",
    "zipcode": "FK1 1UG",
    "countryFullName": "United Kingdom",
    "lng": -3.7810202,
    "lat": 55.9981743
  },
  {
    "slug": "jamia-masjid-madni-halifax-hx1-5le-united-kingdom",
    "name": "Jamia Masjid Madni",
    "image1": "https://cdn.mawaqit.net/images/backend/mosque/01bc812d-9e4a-4498-8e47-ae8f8936b1bf/mosque/1eea8e1f-f916-6a16-bb94-066ed47a7584.jpg",
    "address": "131 Gibbet Street",
    "city": "Halifax",
    "zipcode": "HX1 5LE",
    "countryFullName": "United Kingdom",
    "lng": -1.8721692,
    "lat": 53.7232985
  },
  {
    "slug": "darul-ummah-redbridge-ilford-ig2-6uh-united-kingdom",
    "name": "DARUL UMMAH REDBRIDGE",
    "image1": "https://cdn.mawaqit.net/images/backend/mosque/0e5653ef-418c-455e-9359-813376048eef/mosque/1eea8e20-dc08-60cc-95c0-066ed47a7584.jpg",
    "address": "39 Woodford Avenue",
    "city": "Ilford",
    "zipcode": "IG2 6UH",
    "countryFullName": "United Kingdom",
    "lng": 0.0640834,
    "lat": 51.5778716
  },
  {
    "slug": "brentwood-mosque-warley-brentwood-cm14-5ha-united-kingdom",
    "name": "NOT WORKING WEBSITE IGNORE",
    "image1": "https://cdn.mawaqit.net/images/backend/mosque/de9627bc-21ee-41c4-9af2-0dcb7bd44598/mosque/1eea8e23-fd6e-69a2-8498-066ed47a7584.jpg",
    "address": "Warley Hill,",
    "city": "Brentwood",
    "zipcode": "CM14 5HA",
    "countryFullName": "United Kingdom",
    "lng": 0.2987798,
    "lat": 51.611524
  },
  {
    "slug": "faizane-madina-bolton-uk-bolton-bl3-5ap-united-kingdom",
    "name": "Faizan E Madinah Bolton",
    "image1": "https://cdn.mawaqit.net/images/backend/mosque/01f1ee3f-7070-45bd-9dcc-d611d0a01e9c/mosque/1eea8e24-b57f-6ab4-b34e-066ed47a7584.jpg",
    "address": "44 Cannon Street",
    "city": "Bolton",
    "zipcode": "BL3 5AP",
    "countryFullName": "United Kingdom",
    "lng": -2.4423040565893,
    "lat": 53.571777021672
  },
  {
    "slug": "craigavon-masjid-craigavon-bt65-5be-united-kingdom",
    "name": "Craigavon Masjid | مسجد كريقافن",
    "image1": "https://cdn.mawaqit.net/images/backend/mosque/a50d73a3-12bf-4996-aa4f-37dfd30d7cfc/mosque/1eea8e25-90d6-6644-a1ed-066ed47a7584.jpg",
    "address": "16 Legahory Centre",
    "city": "Craigavon",
    "zipcode": "BT65 5Be",
    "countryFullName": "United Kingdom",
    "lng": -6.3711607,
    "lat": 54.4478326
  },
  {
    "slug": "trowbridge-mosque-trowbridge-ba147ad-united-kingdom",
    "name": "TROWBRIDGE MOSQUE",
    "image1": "https://cdn.mawaqit.net/images/backend/mosque/4a1be0c2-78f7-4c86-b6a6-cfa964b3e07c/mosque/1eea8e26-2a21-63da-8a18-066ed47a7584.jpg",
    "address": "54 Longfield Road",
    "city": "Trowbridge",
    "zipcode": "BA147AD",
    "countryFullName": "United Kingdom",
    "lng": -2.2026899,
    "lat": 51.3160129
  },
  {
    "slug": "madina-masjid-sheffield-sheffield-s8-0zu-united-kingdom",
    "name": "Madina Masjid Sheffield",
    "image1": "https://cdn.mawaqit.net/images/backend/mosque/8ad51fa1-d971-4a0f-a2de-8f338ca869ba/mosque/1eea8e26-9c5d-6606-a4ce-066ed47a7584.jpg",
    "address": "24-32 Wolseley Road",
    "city": "Sheffield",
    "zipcode": "S8 0ZU",
    "countryFullName": "United Kingdom",
    "lng": -1.4733266,
    "lat": 53.3640525
  },
  {
    "slug": "masjid-abubakr-cardiff-cf11-7af-united-kingdom",
    "name": "Masjid AbuBakr",
    "image1": "https://cdn.mawaqit.net/images/backend/mosque/1cf1f00c-5153-40dc-9d32-4a8ec651a7a1/mosque/1eea8e28-15f4-63ec-87a4-066ed47a7584.jpg",
    "address": "2a Clydach Street",
    "city": "Cardiff",
    "zipcode": "Cf11 7af",
    "countryFullName": "United Kingdom",
    "lng": -3.1818829,
    "lat": 51.4684479
  },
  {
    "slug": "jalalia-mosque-cardiff-cf11-6er-united-kingdom",
    "name": "Jalalia Masjid",
    "image1": "https://cdn.mawaqit.net/images/backend/mosque/1c59d348-462f-41fb-a76c-0e17a0242a4f/mosque/1eea8e29-6b1d-655c-a846-066ed47a7584.jpg",
    "address": "Machen Place",
    "city": "Cardiff",
    "zipcode": "CF11 6ER",
    "countryFullName": "United Kingdom",
    "lng": -3.1904134,
    "lat": 51.4782353
  },
  {
    "slug": "northolt-islamic-centre-northolt-ub5-5ag-united-kingdom",
    "name": "Northolt Islamic Centre",
    "image1": "https://cdn.mawaqit.net/images/backend/mosque/080bef21-60ce-44db-9f57-a6d2a1e8631a/mosque/1eea8e2b-5cf9-637a-9390-066ed47a7584.jpg",
    "address": "159 Church Road",
    "city": "Northolt",
    "zipcode": "UB5 5AG",
    "countryFullName": "United Kingdom",
    "lng": -0.3764691,
    "lat": 51.5433485
  },
  {
    "slug": "rabbaniah-islamic-cultural-centre-cardiff-cf11-6qp-united-kingdom",
    "name": "Rabbaniah Islamic Cultural Centre",
    "image1": "https://cdn.mawaqit.net/images/backend/mosque/134b3032-3298-43d3-a8d3-02c550e21718/mosque/1eea8e2b-bf5b-69aa-82e0-066ed47a7584.jpg",
    "address": "27-31 Clare Road",
    "city": "Cardiff",
    "zipcode": "CF11 6QP",
    "countryFullName": "United Kingdom",
    "lng": -3.1870847,
    "lat": 51.4748984
  },
  {
    "slug": "danescourt-masjid-cardiff-cf5-2rl-united-kingdom",
    "name": "Danescourt Masjid",
    "image1": "https://cdn.mawaqit.net/images/backend/mosque/7b514450-c3c4-4503-b99d-2d6232c58ed7/mosque/1eea8e2d-f40f-6b90-a4b5-066ed47a7584.jpg",
    "address": "33 Nicholson Webb close",
    "city": "Cardiff",
    "zipcode": "Cf5 2rl",
    "countryFullName": "United Kingdom",
    "lng": -3.2403899,
    "lat": 51.5066038
  },
  {
    "slug": "piety-plymouth-pl4-8ps-united-kingdom",
    "name": "Piety",
    "image1": "https://cdn.mawaqit.net/images/backend/mosque/4a00e579-a3ee-4ef7-82b1-62051b6aa9d7/mosque/1eea8e30-420b-657c-aacc-066ed47a7584.jpg",
    "address": "19 Greenbank Ave,",
    "city": "Plymouth",
    "zipcode": "PL4 8PS",
    "countryFullName": "United Kingdom",
    "lng": -4.1268775,
    "lat": 50.3735704
  },
  {
    "slug": "madina-masjid-levenshulme-manchester-m19-3dj-united-kingdom",
    "name": "Madina Masjid",
    "image1": "https://cdn.mawaqit.net/images/backend/mosque/c84a9aaa-6fd7-44c2-ad10-733fb069be9a/mosque/1eea8e30-709b-6a0e-b24d-066ed47a7584.jpg",
    "address": "2 Barlow Road",
    "city": "Manchester",
    "zipcode": "M19 3DJ",
    "countryFullName": "United Kingdom",
    "lng": -2.1902060508728,
    "lat": 53.446142078615
  },
  {
    "slug": "edmonton-mosque",
    "name": "Eic Al Masjid",
    "image1": "https://cdn.mawaqit.net/images/backend/mosque/c587b585-5f2b-48b7-a519-5e94ce085b10/mosque/1eea8e31-310a-6d1c-9bf3-066ed47a7584.jpg",
    "address": "20-34 Raynham Road",
    "city": "London",
    "zipcode": "N18 2SJ",
    "countryFullName": "United Kingdom",
    "lng": -0.062842,
    "lat": 51.6138471
  },
  {
    "slug": "masjid-umar-cardiff-cf24-3px-united-kingdom",
    "name": "Masjid Umar",
    "image1": "https://cdn.mawaqit.net/images/backend/mosque/6d2ac9b8-dd3b-4288-94ce-127c8d1c0a66/mosque/1eea8e32-9b4d-6cf0-85f6-066ed47a7584.jpg",
    "address": "68-70 Connaught Road",
    "city": "Cardiff",
    "zipcode": "CF24 3PX",
    "countryFullName": "United Kingdom",
    "lng": -3.1618779,
    "lat": 51.4924146
  },
  {
    "slug": "dar-us-salam-cardiff-cf11-6dx-united-kingdom",
    "name": "Dar Us-salam",
    "image1": "https://cdn.mawaqit.net/images/backend/mosque/4cee86e8-15f8-468a-8bd7-5f6ce37ed7af/mosque/1eea8e32-e9a5-609c-877d-066ed47a7584.jpg",
    "address": "26 Wells Street",
    "city": "Cardiff",
    "zipcode": "CF11 6DX",
    "countryFullName": "United Kingdom",
    "lng": -3.1962801,
    "lat": 51.4788717
  },
  {
    "slug": "madni-masjid-cardiff-cf24-4se-united-kingdom",
    "name": "Madni Masjid",
    "image1": "https://cdn.mawaqit.net/images/backend/mosque/7411c125-0c76-4a44-9242-152f184547ab/mosque/1eea8e35-3bd7-6ae8-85d2-066ed47a7584.jpg",
    "address": "1-3 dalcross street",
    "city": "Cardiff",
    "zipcode": "Cf24 4se",
    "countryFullName": "United Kingdom",
    "lng": -3.1717169,
    "lat": 51.495828
  },
  {
    "slug": "hamad-bin-khalifa-islamic-centre-milford-haven-sa732hw-united-kingdom",
    "name": "HAMAD BIN KHALIFA ISLAMIC CENTRE",
    "image1": "https://cdn.mawaqit.net/images/backend/mosque/57baa0a8-efdd-42b8-adc1-589a22e6a473/mosque/1eea8e35-c81a-6aaa-b29b-066ed47a7584.jpg",
    "address": "122 Charles street",
    "city": "Milford-Haven",
    "zipcode": "SA732HW",
    "countryFullName": "United Kingdom",
    "lng": -5.0311925,
    "lat": 51.7122779
  },
  {
    "slug": "graysmosque",
    "name": "Grays Park Masjid",
    "image1": "https://cdn.mawaqit.net/images/backend/mosque/2dd6dbea-0049-4bad-90a9-cbc558799d65/mosque/1eea8e35-d725-6748-839a-066ed47a7584.jpg",
    "address": "Parkway Centre, Park Road, Grays, Essex, RM17 6RB",
    "city": "Grays",
    "zipcode": "RM 17 6RB",
    "countryFullName": "United Kingdom",
    "lng": 0.3286981,
    "lat": 51.4781964
  },
  {
    "slug": "bracknell-masjid-bracknell-rg12-1rb-united-kingdom",
    "name": "Bracknell Masjid",
    "image1": "https://cdn.mawaqit.net/images/backend/mosque/c3403806-1fdb-405e-8846-6ab252796ba9/mosque/1eea8e36-fb77-68de-8357-066ed47a7584.jpg",
    "address": "Unit C Waterside park",
    "city": "Bracknell",
    "zipcode": "RG12 1RB",
    "countryFullName": "United Kingdom",
    "lng": -0.7745957,
    "lat": 51.4154103
  },
  {
    "slug": "lincolncentralmosque",
    "name": "Lincoln Central Mosque & Cultural Centre",
    "image1": "https://cdn.mawaqit.net/images/backend/mosque/cf2f02d3-0caf-4f31-9c98-f65231800f05/mosque/1eea8e3a-8aca-6736-a0b7-066ed47a7584.jpg",
    "address": "Dixon Street",
    "city": "Lincoln",
    "zipcode": "LN6 7DA",
    "countryFullName": "United Kingdom",
    "lng": -0.5524065,
    "lat": 53.2192051
  },
  {
    "slug": "masjid-uthman-riverside-islamic-school-cardiff-cf11-6as-united-kingdom",
    "name": "Masjid Uthman - Riverside Islamic School",
    "image1": "https://cdn.mawaqit.net/images/backend/mosque/10c5cbc7-77fa-4f5a-96a7-4fb920d0b5c1/mosque/1eea8e3b-5d0b-6718-b03a-066ed47a7584.jpg",
    "address": "37 Plantagenet St",
    "city": "Cardiff",
    "zipcode": "CF11 6AS",
    "countryFullName": "United Kingdom",
    "lng": -3.1860662,
    "lat": 51.477911
  },
  {
    "slug": "masjid-salahudin-glasgow-g40-3sa-united-kingdom",
    "name": "Masjid Bilal",
    "image1": "https://cdn.mawaqit.net/images/backend/mosque/8e8c8e95-31a6-402f-b977-03d8fd8d1364/mosque/1eea8e3b-dba8-695e-b5d2-066ed47a7584.jpg",
    "address": "16 avenue street",
    "city": "Glasgow",
    "zipcode": "G40 3SA",
    "countryFullName": "United Kingdom",
    "lng": -4.2187175,
    "lat": 55.849514
  },
  {
    "slug": "majid-e-usma-amwt-leytonstone-e11-1la-united-kingdom",
    "name": "Masjid-E-Usman",
    "image1": "https://cdn.mawaqit.net/images/backend/mosque/439bd55d-9f25-4a0a-8c94-52baf16773af/mosque/1eea8e3c-d9cf-62d0-a903-066ed47a7584.jpg",
    "address": "134 ashville road",
    "city": "Leytonstone",
    "zipcode": "e11 1la",
    "countryFullName": "United Kingdom",
    "lng": 0.0019396,
    "lat": 51.5630395
  },
  {
    "slug": "abdulrasheed-tilbury-rm18-8lj-united-kingdom",
    "name": "Tilbury Education & Cultural Association",
    "image1": "https://cdn.mawaqit.net/images/backend/mosque/57fa91af-8129-4bb5-be53-2c96761e6de5/mosque/1eea8e40-7cd6-6282-b97c-066ed47a7584.jpg",
    "address": "159 St Chad's Road",
    "city": "Tilbury",
    "zipcode": "RM18 8LJ",
    "countryFullName": "United Kingdom",
    "lng": 0.3640812,
    "lat": 51.4672976
  },
  {
    "slug": "dar-ul-quran-london-london-nw1-1hw-united-kingdom",
    "name": "Darul Quran London Masjid",
    "image1": "https://cdn.mawaqit.net/images/backend/mosque/f2194685-ac92-4e54-b88d-7fa5b78d4f00/mosque/1eea8e47-c45b-67e0-8fa6-066ed47a7584.jpg",
    "address": "Hampden Close,",
    "city": "London",
    "zipcode": "NW1 1HW",
    "countryFullName": "United Kingdom",
    "lng": -0.1299961,
    "lat": 51.5331533
  },
  {
    "slug": "faizane-madina-burnley-burnley-bb10-1xa-united-kingdom",
    "name": "Faizan e Madina Burnley",
    "image1": "https://cdn.mawaqit.net/images/backend/mosque/c09c6480-e9d7-439b-b4b7-69e1a9311c4e/mosque/1eea8e48-9fa4-64fa-9966-066ed47a7584.jpg",
    "address": "Briercliffe Road",
    "city": "Burnley",
    "zipcode": "BB10 1XA",
    "countryFullName": "United Kingdom",
    "lng": -2.2322194761837,
    "lat": 53.802989446385
  },
  {
    "slug": "al-mutawa-mosque-swansea-sa5-9lh-united-kingdom",
    "name": "Al Mutawa Mosque",
    "image1": "https://cdn.mawaqit.net/images/backend/mosque/61ec2512-24a7-4c02-a6fb-276d61521ea9/mosque/1eea8e4d-56d2-6876-9f37-066ed47a7584.jpg",
    "address": "SA5 9LH",
    "city": "Swansea",
    "zipcode": "SA5 9LH",
    "countryFullName": "United Kingdom",
    "lng": -3.944531,
    "lat": 51.6419015
  },
  {
    "slug": "masjid-al-noor-tunbridge-wells-tunbridge-wells-tn1-2qr-united-kingdom",
    "name": "Masjid Al Noor",
    "image1": "https://cdn.mawaqit.net/images/backend/mosque/c5cebbed-7035-49d6-8dba-0de2aa790a84/mosque/1eea8e52-a9c1-655a-8919-066ed47a7584.jpg",
    "address": "99 Camden Road",
    "city": "Tunbridge-Wells",
    "zipcode": "TN1 2QR",
    "countryFullName": "United Kingdom",
    "lng": 0.2689319,
    "lat": 51.1363231
  },
  {
    "slug": "newport-central-jame-masjid-newport-np20-4dx-united-kingdom",
    "name": "Newport Central Jam'e Masjid (NCJM)",
    "image1": "https://cdn.mawaqit.net/images/backend/mosque/cc3cbae2-eb98-48c4-b331-f485fde1ba02/mosque/1eea8e54-c93f-6312-bbfa-066ed47a7584.jpg",
    "address": "63 stow hill",
    "city": "Newport",
    "zipcode": "Np20 4dx",
    "countryFullName": "United Kingdom",
    "lng": -2.996878,
    "lat": 51.5848789
  },
  {
    "slug": "makki-masjid-burton-on-trent-burton-on-trent-de14-2qj-united-kingdom",
    "name": "Makki Masjid",
    "image1": "https://cdn.mawaqit.net/images/backend/mosque/0cf1d5ad-0d73-4573-8440-7863d021b66e/mosque/1eea8e5f-0c4b-637c-adfc-066ed47a7584.jpg",
    "address": "18, VICTORIA CRESCENT",
    "city": "Burton-On-Trent",
    "zipcode": "DE14 2QJ",
    "countryFullName": "United Kingdom",
    "lng": -1.6425486675585,
    "lat": 52.814580450844
  },
  {
    "slug": "elland-masjid-elland-hx5-0jh-united-kingdom",
    "name": "Elland Masjid",
    "image1": "https://cdn.mawaqit.net/images/backend/mosque/6ad098ee-b484-439c-ab91-84524df65d53/mosque/1eea8e61-98d7-6c6c-b5b1-066ed47a7584.jpg",
    "address": "26-34 Elizbeth Street",
    "city": "Elland",
    "zipcode": "HX5 0JH",
    "countryFullName": "United Kingdom",
    "lng": -1.8383437,
    "lat": 53.6827273
  },
  {
    "slug": "erdington-islamic-foundation-birmingham-b23-6rg-united-kingdom",
    "name": "BAIT-US-SALAM",
    "image1": "https://cdn.mawaqit.net/images/backend/mosque/30fe4f16-cc83-4069-8a84-c43d41f8797f/mosque/1eff1d4b-b272-6aa4-b7ee-0e61b0058d45.jpeg",
    "address": "15 HIGH STREET - ERDINGTON",
    "city": "Birmingham",
    "zipcode": "B23 6RG",
    "countryFullName": "United Kingdom",
    "lng": -1.8367562,
    "lat": 52.5274153
  },
  {
    "slug": "jamiyat-tablighul-islam-bradford-bd4-7hx-united-kingdom",
    "name": "Jamiyat Tablighul Islam",
    "image1": "https://cdn.mawaqit.net/images/backend/mosque/3cb085ed-6bc3-44ce-b78e-5fd244d577e7/mosque/1eea8e80-1521-6cb4-bd2f-066ed47a7584.jpg",
    "address": "45 Coventry Steeet",
    "city": "Bradford",
    "zipcode": "BD4 7HX",
    "countryFullName": "United Kingdom",
    "lng": -1.7355987,
    "lat": 53.7825494
  },
  {
    "slug": "aberfeldy-masjid-london-e14-0nu-united-kingdom",
    "name": "Aberfeldy Masjid",
    "image1": "https://cdn.mawaqit.net/images/backend/mosque/4a5c4e68-c484-418a-b85f-78205baf30e8/mosque/1eea8e84-2923-6cf4-a431-066ed47a7584.jpg",
    "address": "36-38 Aberfeldy Street",
    "city": "London",
    "zipcode": "E14 0NU",
    "countryFullName": "United Kingdom",
    "lng": -0.0050411694557373,
    "lat": 51.513403605854
  },
  {
    "slug": "chelsea-muslim-community-hub-london-sw100ds-united-kingdom",
    "name": "Chelsea Muslim Community Hub",
    "image1": "https://cdn.mawaqit.net/images/backend/mosque/9a36bb11-7085-4c13-b3f4-1704af7ae0cc/mosque/1eea8e8e-6fc2-676e-9b7a-066ed47a7584.jpg",
    "address": "14 Blantyre St",
    "city": "LONDON",
    "zipcode": "SW100DS",
    "countryFullName": "United Kingdom",
    "lng": -0.1789016,
    "lat": 51.4812013
  },
  {
    "slug": "masjid-zamunta-birmingham-b192ss-united-kingdom",
    "name": "Masjid Zumunta",
    "image1": "https://cdn.mawaqit.net/images/backend/mosque/19f6cd95-a644-4ae9-849d-ae8658308dc9/mosque/1eea8e93-6d9f-6f18-88c2-066ed47a7584.jpg",
    "address": "Unit 39,  52 Newtown Shopping Centre",
    "city": "BIRMINGHAM",
    "zipcode": "B192SS",
    "countryFullName": "United Kingdom",
    "lng": -1.8958451511032,
    "lat": 52.497555402566
  },
  {
    "slug": "islamic-centre-of-plymouth-and-cornwall-plymouth-pl4-6an-united-kingdom",
    "name": "Islamic Centre of Plymouth and Cornwall",
    "image1": "https://cdn.mawaqit.net/images/backend/mosque/afcd8a4a-245f-4e03-9ed4-8c00cc015b9b/mosque/1eea8e98-f2c9-63ec-bad0-066ed47a7584.jpg",
    "address": "112 North Road East",
    "city": "PLYMOUTH",
    "zipcode": "PL4 6AN",
    "countryFullName": "United Kingdom",
    "lng": -4.1411805,
    "lat": 50.3769825
  },
  {
    "slug": "masjid-al-jannah-slough-sl2-5ah-united-kingdom",
    "name": "Masjid Al Jannah",
    "image1": "https://cdn.mawaqit.net/images/backend/mosque/32b83d5d-bf86-4bd1-b088-a7b60c57a638/mosque/1eea8e99-798c-68ca-b4cd-066ed47a7584.jpg",
    "address": "1 Stoke Rd",
    "city": "SLOUGH",
    "zipcode": "SL2 5AH",
    "countryFullName": "United Kingdom",
    "lng": -0.59408216759077,
    "lat": 51.512874439062
  },
  {
    "slug": "17345",
    "name": "BMACC",
    "image1": "https://cdn.mawaqit.net/images/backend/mosque/8ea8777a-16ec-4d2b-a070-cdd161437dde/mosque/1efb79e4-aad9-6eae-b307-0ef2881d9837.jpeg",
    "address": "1 Speirs Rd, Bearsden  2LX",
    "city": "GLASGOW",
    "zipcode": "G61",
    "countryFullName": "United Kingdom",
    "lng": -4.3205414,
    "lat": 55.9124023
  },
  {
    "slug": "al-falah-community-support-centre-birmingham-b12-9qu-united-kingdom",
    "name": "Al Falah Community Support Centre",
    "image1": "https://cdn.mawaqit.net/images/backend/mosque/59caad85-e706-4810-9804-92f6a6f71742/mosque/1eea8ea3-1c29-63a4-b4a8-066ed47a7584.jpg",
    "address": "89 Tindal Street, BALSALL HEATH",
    "city": "BIRMINGHAM",
    "zipcode": "B12 9QU",
    "countryFullName": "United Kingdom",
    "lng": -1.8899398,
    "lat": 52.4554274
  },
  {
    "slug": "taleem-mosque-and-community-centre-grays-rm17-6qa-united-kingdom",
    "name": "Taleem Mosque & Community Centre",
    "image1": "https://cdn.mawaqit.net/images/backend/mosque/48cb2841-9479-4ea1-9419-9121d9dfd963/mosque/1eea8eb4-8b70-6968-813f-066ed47a7584.jpg",
    "address": "21-23 Clarence Road",
    "city": "GRAYS",
    "zipcode": "RM17 6QA",
    "countryFullName": "United Kingdom",
    "lng": 0.3247744,
    "lat": 51.477918
  },
  {
    "slug": "tonbridge-masjid-tonbridge-tn9-2ah-united-kingdom",
    "name": "Tonbridge Masjid",
    "image1": "https://cdn.mawaqit.net/images/backend/mosque/63d8a17a-8e16-452e-af4f-227759b0654b/mosque/1eea8eb4-de76-6d1a-b265-066ed47a7584.jpg",
    "address": "60b Priory Street",
    "city": "TONBRIDGE",
    "zipcode": "TN9 2AH",
    "countryFullName": "United Kingdom",
    "lng": 0.2730864,
    "lat": 51.1894128
  },
  {
    "slug": "salahuddint-mosu-plymouth-pl1-3qj-united-kingdom",
    "name": "Salahaddin Mosque",
    "image1": "https://cdn.mawaqit.net/images/backend/mosque/b3e28f9c-1b93-4815-bf16-6c4296598558/mosque/1eea8eb9-4154-63d4-9a62-066ed47a7584.jpg",
    "address": "10 Durnford St, Stonehouse,",
    "city": "PLYMOUTH",
    "zipcode": "PL1 3QJ",
    "countryFullName": "United Kingdom",
    "lng": -4.1628257,
    "lat": 50.3685331
  },
  {
    "slug": "jamia-masjid-sultania-brierfield-bb9-5le-united-kingdom",
    "name": "Jamia Masjid Sultania",
    "image1": "https://cdn.mawaqit.net/images/backend/mosque/7406f786-4a78-4adb-9670-b55dfa2e3097/mosque/1eea8eba-dc31-6be4-9c44-066ed47a7584.jpg",
    "address": "Sackville Street",
    "city": "BRIERFIELD",
    "zipcode": "BB9 5LE",
    "countryFullName": "United Kingdom",
    "lng": -2.2360093,
    "lat": 53.8228071
  },
  {
    "slug": "telford-central-masjid-shropshire-tf1-1nz-united-kingdom",
    "name": "Telford Central Masjid",
    "image1": "https://cdn.mawaqit.net/images/backend/mosque/6177ba07-4425-4590-b4b1-491f62fbb538/mosque/1eea8ebd-ad4e-6ce8-b302-066ed47a7584.jpg",
    "address": "88-90 King Street, Wellington, Telford",
    "city": "SHROPSHIRE",
    "zipcode": "TF1 1NZ",
    "countryFullName": "United Kingdom",
    "lng": -2.5115497,
    "lat": 52.6993534
  },
  {
    "slug": "masjid-usman-arrehman-trust-birminghan-b23-7jg-united-kingdom",
    "name": "Masjid Usman Ar RahmanTrust",
    "image1": "https://cdn.mawaqit.net/images/backend/mosque/ffe058e0-362c-4591-9910-a1eca9589400/mosque/1ef683d1-e842-697a-8b61-0600dbafaeef.jpg",
    "address": "513 Slade Rd, Stockland Green",
    "city": "BIRMINGHAM",
    "zipcode": "B23 7JG",
    "countryFullName": "United Kingdom",
    "lng": -1.8589892,
    "lat": 52.5242061
  },
  {
    "slug": "masjid-at-tawheed-cardiff-cf11-6jw-united-kingdom-1",
    "name": "Masjid At Tawheed",
    "image1": "https://cdn.mawaqit.net/images/backend/mosque/34792373-46b0-419f-b5c7-1f6ce7768cdb/mosque/1eea8ec4-08dc-6316-ab29-066ed47a7584.jpg",
    "address": "171-173 Penarth Road",
    "city": "CARDIFF",
    "zipcode": "CF11 6JW",
    "countryFullName": "United Kingdom",
    "lng": -3.1854521,
    "lat": 51.4703452
  },
  {
    "slug": "bath-islamic-society-mosque-bath-ba1-1la-united-kingdom",
    "name": "Bath Mosque",
    "image1": "https://cdn.mawaqit.net/images/backend/mosque/ac138bdf-9b1a-4985-a5e3-ad6747b00d2b/mosque/1eea8ec8-0d7e-6320-8bc4-066ed47a7584.jpg",
    "address": "8 Pierrepont St",
    "city": "BATH",
    "zipcode": "BA1 1LA",
    "countryFullName": "United Kingdom",
    "lng": -2.3573188,
    "lat": 51.3800892
  },
  {
    "slug": "jmah-halifax-west-yorkshire-hx1-4et-united-kingdom",
    "name": "JMAH Halifax",
    "image1": "https://cdn.mawaqit.net/images/backend/mosque/75b4f5b8-11c7-4944-abbc-1db7b446a844/mosque/1eea8ec8-fbe9-61cc-ba09-066ed47a7584.jpg",
    "address": "97 Hopwood Lane",
    "city": "WEST YORKSHIRE",
    "zipcode": "HX1 4ET",
    "countryFullName": "United Kingdom",
    "lng": -1.8858099,
    "lat": 53.7197796
  },
  {
    "slug": "markazi-jamia-masjid-ghausia-huddersfield-hd1-3rt-united-kingdom",
    "name": "Markazi Jamia Masjid Ghausia",
    "image1": "https://cdn.mawaqit.net/images/backend/mosque/99c104f9-f595-46f4-84be-deeadaf9e2fe/mosque/1eea8ec9-177b-6aa2-bcff-066ed47a7584.jpg",
    "address": "73 Victoria Road",
    "city": "HUDDERSFIELD",
    "zipcode": "HD1 3RT",
    "countryFullName": "United Kingdom",
    "lng": -1.7918438,
    "lat": 53.6372984
  },
  {
    "slug": "hco-leicester-le5-4da-united-kingdom-1",
    "name": "HAMIDIYA",
    "image1": "https://cdn.mawaqit.net/images/backend/mosque/e9b88c9f-11a7-4f1a-a1f8-251e93612b9b/mosque/1eea8ec9-e6e6-6b70-ba12-066ed47a7584.jpg",
    "address": "11 ABBOTSFORD ROAD",
    "city": "LEICESTER",
    "zipcode": "LE5 4DA",
    "countryFullName": "United Kingdom",
    "lng": -1.0875901,
    "lat": 52.6410683
  },
  {
    "slug": "south-birmingham-central-masjid-birmingham-b139ls-united-kingdom",
    "name": "South Birmingham Central Masjid",
    "image1": "https://cdn.mawaqit.net/images/backend/mosque/33c97ff3-0337-410d-8c4b-1f8792046015/mosque/1eea8ed7-9b19-63e2-8eb9-066ed47a7584.jpg",
    "address": "1 College Road, Moseley",
    "city": "BIRMINGHAM",
    "zipcode": "B139LS",
    "countryFullName": "United Kingdom",
    "lng": -1.8565489,
    "lat": 52.4432816
  },
  {
    "slug": "stoney-lane-islamic-community-centre-birmingham-b128aj-united-kingdom",
    "name": "Stoney Lane Islamic Community Centre",
    "image1": "https://cdn.mawaqit.net/images/backend/mosque/5f8f2fbe-76ac-4165-b09c-a19b75118852/mosque/1eea8ed8-10a7-6460-9f4b-066ed47a7584.jpg",
    "address": "144 Wilton Road, Sparkbrook",
    "city": "BIRMINGHAM",
    "zipcode": "B128AJ",
    "countryFullName": "United Kingdom",
    "lng": -1.8732774,
    "lat": 52.4545049
  },
  {
    "slug": "brent-cultural-centre-masjid-anuur-london-nw10-4sp-united-kingdom",
    "name": "Brent Cultural Centre",
    "image1": "https://cdn.mawaqit.net/images/backend/mosque/c33afa41-3129-44b4-bfd4-3093994cd397/mosque/1eea8eda-ab52-6792-b276-066ed47a7584.jpg",
    "address": "124 126  High St, London",
    "city": "LONDON",
    "zipcode": "NW10 4SP",
    "countryFullName": "United Kingdom",
    "lng": -0.2443074,
    "lat": 51.5357542
  },
  {
    "slug": "markaz-muaadh-bin-jabal-slough-sl1-2sa-united-kingdom",
    "name": "Markaz Mu'aadh bin Jabal",
    "image1": "https://cdn.mawaqit.net/images/backend/mosque/65806698-b191-491e-acf6-44c875b6314a/mosque/1eea8edb-8619-6646-9917-066ed47a7584.jpg",
    "address": "19 Spackmans Way",
    "city": "SLOUGH",
    "zipcode": "SL1 2SA",
    "countryFullName": "United Kingdom",
    "lng": -0.6090463,
    "lat": 51.5043821
  },
  {
    "slug": "yca-cultural-centre-west-bromwich-b70-9sj-united-kingdom",
    "name": "YCA Cultural Centre Masjid",
    "image1": "https://cdn.mawaqit.net/images/backend/mosque/22f1c67e-2980-4828-bbf0-3a460f527014/mosque/1efebb3a-55c3-60a6-874d-06ef9144e88f.png",
    "address": "Tildasley Street",
    "city": "WEST BROMWICH",
    "zipcode": "B70 9SJ",
    "countryFullName": "United Kingdom",
    "lng": -2.0065871,
    "lat": 52.5268971
  },
  {
    "slug": "muslim-cultural-centre-wollaton-nottingham-ng8-1nb-united-kingdom",
    "name": "Muslim Cultural Centre Wollaton",
    "image1": "https://cdn.mawaqit.net/images/backend/mosque/8fe886bf-4735-457d-8dcc-b39662d58b05/mosque/1eea8ee6-fc13-6706-a024-066ed47a7584.jpg",
    "address": "Wollaton House, 43 Radford Bridge Rd",
    "city": "NOTTINGHAM",
    "zipcode": "NG8 1NB",
    "countryFullName": "United Kingdom",
    "lng": -1.1938555,
    "lat": 52.9564886
  },
  {
    "slug": "al-tawheed-islamic-education-center-maidenhead-sl6-8aj-united-kingdom",
    "name": "Al-Tawheed Islamic Education Centre",
    "image1": "https://cdn.mawaqit.net/images/backend/mosque/a3aed515-ca12-40fc-b73c-092dcfdb567a/mosque/1eeab01e-5499-6c74-8939-0a267eb800e4.jpg",
    "address": "22 Cookham Road",
    "city": "MAIDENHEAD",
    "zipcode": "SL6 8AJ",
    "countryFullName": "United Kingdom",
    "lng": -0.7201628,
    "lat": 51.5259661
  },
  {
    "slug": "masjid-an-nur-wiltshire-ba14-8dw-united-kingdom",
    "name": "Masjid An-Nur",
    "image1": "https://cdn.mawaqit.net/images/backend/mosque/4dd21678-939f-45e9-a107-473920d34a92/mosque/1eeb63ef-7ccf-62a4-85ab-0ede686d7942.jpeg",
    "address": "17 Church Street, Trowbridge",
    "city": "WILTSHIRE",
    "zipcode": "BA14 8DW",
    "countryFullName": "United Kingdom",
    "lng": -2.2067473,
    "lat": 51.3218968
  },
  {
    "slug": "barry-masjid-wales-uk",
    "name": "Barry Masjid - Wales UK",
    "image1": "https://cdn.mawaqit.net/images/backend/mosque/eecc7cf3-39ef-4f0b-a415-36d3bb454285/mosque/1eeb17cd-37a7-6c12-8060-0aedfd0440f0.jpg",
    "address": "332, Holton Road",
    "city": "BARRY, VALE OF GLAMORGAN, WALES",
    "zipcode": "CF63 4HY",
    "countryFullName": "United Kingdom",
    "lng": -3.2530625,
    "lat": 51.4102442
  },
  {
    "slug": "masjid-abdul-raheem-birmingham-b34-6bg-united-kingdom",
    "name": "Masjid Abdul Raheem",
    "image1": "https://cdn.mawaqit.net/images/backend/mosque/14b75dc2-1bb6-44db-9bc4-3edf62e8835c/mosque/1eeb183d-c6ff-61ba-bf88-06acfcd1c88a.jpeg",
    "address": "54 Stechford Road",
    "city": "BIRMINGHAM",
    "zipcode": "B34 6BG",
    "countryFullName": "United Kingdom",
    "lng": -1.8124484,
    "lat": 52.49118
  },
  {
    "slug": "colchester-jamiah-masjid-colchester-co1-2py-united-kingdom",
    "name": "Colchester Jamiah Masjid",
    "image1": "https://cdn.mawaqit.net/images/backend/mosque/6a7a6799-8fd5-4a4d-8497-28a3153c7e5a/mosque/1eeb8997-5e2a-6b32-a1c9-0ede686d7942.jpg",
    "address": "2-3 Priory Street",
    "city": "COLCHESTER",
    "zipcode": "CO1 2PY",
    "countryFullName": "United Kingdom",
    "lng": 0.9050246,
    "lat": 51.8877135
  },
  {
    "slug": "rmcc-ilford-ig2-6pe-united-kingdom",
    "name": "Redbridge Muslim Community Centre",
    "image1": "https://cdn.mawaqit.net/images/backend/mosque/0ccea753-ef7c-4a63-9ca8-1c8a88870b56/mosque/1eebbd2a-ba55-617a-8391-06acfcd1c88a.png",
    "address": "712 Eastern Ave, Newbury Park",
    "city": "ILFORD",
    "zipcode": "IG2 6PE",
    "countryFullName": "United Kingdom",
    "lng": 0.0825598,
    "lat": 51.573462
  },
  {
    "slug": "gambian-islamic-community-centre-smethwick-b66-3eu-united-kingdom",
    "name": "Gambian Islamic Community Centre",
    "image1": "https://cdn.mawaqit.net/images/backend/mosque/a0660659-09c1-411a-9160-31b513a8e659/mosque/1eecabc0-4b51-6d02-ae73-06acfcd1c88a.jpeg",
    "address": "36A Windmill Lane",
    "city": "SMETHWICK",
    "zipcode": "B66 3EU",
    "countryFullName": "United Kingdom",
    "lng": -1.9578113,
    "lat": 52.490114
  },
  {
    "slug": "fairwater-iqra-masjid-cardiff-cf5-3na-united-kingdom",
    "name": "Fairwater Canolfan IQRA",
    "image1": "https://cdn.mawaqit.net/images/backend/mosque/68ea91ab-25c8-437b-8ba9-883d42c61c17/mosque/1eec6aa8-a87d-62fa-a209-0ede686d7942.jpg",
    "address": "94 Pwllmelin Road",
    "city": "CARDIFF",
    "zipcode": "Cf5 3na",
    "countryFullName": "United Kingdom",
    "lng": -3.2380423,
    "lat": 51.4956181
  },
  {
    "slug": "newport-diyanet-newport-np20-2je-united-kingdom",
    "name": "Newport Diyanet",
    "image1": "https://cdn.mawaqit.net/images/backend/mosque/f3094657-582a-481a-baf4-7bc480614fc8/mosque/1eec6cb7-7c47-6706-a734-0a7eba2dd6b3.jpg",
    "address": "48 Alexandra Road",
    "city": "NEWPORT",
    "zipcode": "NP20 2je",
    "countryFullName": "United Kingdom",
    "lng": -2.9904984,
    "lat": 51.5728119
  },
  {
    "slug": "jamiyat-tabligh-ul-islam-bradford-bd5-7te-united-kingdom",
    "name": "Jamiyat Tabligh-Ul-Islam Ryan St",
    "image1": "https://cdn.mawaqit.net/images/backend/mosque/1a366163-93ab-41f9-88d9-688a89e35242/mosque/1eedc31b-bafd-60f2-aefe-0a7eba2dd6b3.jpeg",
    "address": "87-89 Ryan St",
    "city": "BRADFORD",
    "zipcode": "BD5 7TE",
    "countryFullName": "United Kingdom",
    "lng": -1.7589675,
    "lat": 53.7768597
  },
  {
    "slug": "banbury-sheikh-bin-baaz-mosque-banbury-oxfordshire-ox16-0dh-united-kingdom",
    "name": "Banbury Sheikh Bin Baaz Masjid",
    "image1": "https://cdn.mawaqit.net/images/backend/mosque/8fd66087-5eeb-4757-b39a-8be4ad485976/mosque/1eee20f6-f05d-6222-9a67-0621eb7171ad.jpeg",
    "address": "55 Park Road",
    "city": "BANBURY, OXFORDSHIRE",
    "zipcode": "OX16 0DH",
    "countryFullName": "United Kingdom",
    "lng": -1.3497962,
    "lat": 52.0619905
  },
  {
    "slug": "muradiye-camii-london-n4-2et-united-kingdom",
    "name": "Muradiye Camii",
    "image1": "https://cdn.mawaqit.net/images/backend/mosque/b5d6569d-22f9-4cb9-9eee-04667627b037/mosque/1eef0786-68eb-64f2-b1c6-0e21237a51f7.jpg",
    "address": "16 Green lanes Newington Green",
    "city": "LONDON",
    "zipcode": "N4 2ET",
    "countryFullName": "United Kingdom",
    "lng": -0.0866006,
    "lat": 51.5527189
  },
  {
    "slug": "shah-poran-mosque-newport-np9-8dt-united-kingdom",
    "name": "Shah Poran Mosque",
    "image1": "https://cdn.mawaqit.net/images/backend/mosque/86d2fd66-52cb-4616-8132-3b1b3dd9359b/mosque/1eef1128-40f3-6c96-b7e1-0a9258a77f81.jpg",
    "address": "Hereford Street",
    "city": "NEWPORT",
    "zipcode": "NP19 8DT",
    "countryFullName": "United Kingdom",
    "lng": -2.9835106,
    "lat": 51.5909457
  },
  {
    "slug": "emaan-community-centre-birmingham-b6-5uh-united-kingdom",
    "name": "EMAAN COMMUNITY CENTRE",
    "image1": "https://cdn.mawaqit.net/images/backend/mosque/a0db7559-0f1f-4db0-963a-121a51a571ec/mosque/1eef357a-ea38-6a7e-b1ac-0e21237a51f7.jpg",
    "address": "Sycamore road",
    "city": "BIRMINGHAM",
    "zipcode": "B6 5UH",
    "countryFullName": "United Kingdom",
    "lng": -1.8789503,
    "lat": 52.5039399
  },
  {
    "slug": "masjid-abu-bakr-sheffield-s9-1wa-united-kingdom",
    "name": "Masjid Abu Bakr",
    "image1": "https://cdn.mawaqit.net/images/backend/mosque/dd3df547-7d71-4df2-aff3-1b65298c383b/mosque/1eef8ec4-2647-6c02-bb6e-0621eb7171ad.jpg",
    "address": "Bawtry road",
    "city": "SHEFFIELD",
    "zipcode": "S9 1WA",
    "countryFullName": "United Kingdom",
    "lng": -1.3961253109588,
    "lat": 53.410993568794
  },
  {
    "slug": "luton-islamic-centre-luton-lu1-1he-united-kingdom",
    "name": "Luton Islamic Centre",
    "image1": "https://cdn.mawaqit.net/images/backend/mosque/efb52799-a109-4b09-90d0-2188746c4eba/mosque/1ef42c95-c4f0-65ca-ad41-0600dbafaeef.jpg",
    "address": "116 Bury Park Rd, Luton",
    "city": "LUTON",
    "zipcode": "LU1 1HE",
    "countryFullName": "United Kingdom",
    "lng": -0.4285811,
    "lat": 51.8866343
  },
  {
    "slug": "taiba-welfare-foundation-greater-london-ha8-7lg-united-kingdom",
    "name": "Taiba Welfare Foundation",
    "image1": "https://cdn.mawaqit.net/images/backend/mosque/8aaade48-958b-4633-b789-3a721e6fce78/mosque/1eefccff-3815-62ee-be51-0621eb7171ad.jpg",
    "address": "Rectory Ln, Edgware HA8 7LG",
    "city": "GREATER LONDON",
    "zipcode": "HA8 7LG",
    "countryFullName": "United Kingdom",
    "lng": -0.27688549150581,
    "lat": 51.61455557782
  },
  {
    "slug": "park-royal-community-centre-london-nw10-6hf-united-kingdom",
    "name": "Park Royal Community Centre",
    "image1": "https://cdn.mawaqit.net/images/backend/mosque/ed7a2408-d338-4b10-a3c2-033c76b58ecb/mosque/1eefdb60-22d1-6cf6-972e-0a382b7256a1.png",
    "address": "41-43 Standard Road (1st floor)",
    "city": "LONDON",
    "zipcode": "NW10 6HF",
    "countryFullName": "United Kingdom",
    "lng": -0.2643845,
    "lat": 51.5277567
  },
  {
    "slug": "blackbird-hill-muslim-community-centre-london-nw9-8rs-united-kingdom",
    "name": "BLACKBIRD HILL MUSLIM COMMUNITY CENTRE",
    "image1": "https://cdn.mawaqit.net/images/backend/mosque/fb6e4dcf-2f19-40c2-a4d1-1d148e26a6aa/mosque/1eeffed3-cc1f-6664-97de-0621eb7171ad.jpeg",
    "address": "35 BLACKBIRD HILL ROAD",
    "city": "LONDON",
    "zipcode": "NW9 8RS",
    "countryFullName": "United Kingdom",
    "lng": -0.2626144,
    "lat": 51.5647837
  },
  {
    "slug": "zawia-mosque-birmingham-b5-7ph-united-kingdom",
    "name": "Zawia Mosque",
    "image1": "https://cdn.mawaqit.net/images/backend/mosque/2e45df47-0de7-41fd-80b7-3d12f5fb1bf7/mosque/1ef09543-cdf1-63fa-b679-0a382b7256a1.jpeg",
    "address": "294 Edward Road",
    "city": "BIRMINGHAM",
    "zipcode": "B5 7PH",
    "countryFullName": "United Kingdom",
    "lng": -1.9009364,
    "lat": 52.4590212
  },
  {
    "slug": "ghosiyah-masjid-keighley-bd21-2ta-united-kingdom",
    "name": "Ghosiyah Masjid",
    "image1": "https://cdn.mawaqit.net/images/backend/mosque/a7c44886-e2ea-48b1-8f90-13560d30c50c/mosque/1ef1136f-5822-6f16-a5ea-06724289ed6b.jpg",
    "address": "206 Skipton Road",
    "city": "KEIGHLEY",
    "zipcode": "BD21 2TA",
    "countryFullName": "United Kingdom",
    "lng": -1.9090385,
    "lat": 53.8744104
  },
  {
    "slug": "hmct-stockport-sk4-3ea-united-kingdom",
    "name": "HMCT",
    "image1": "https://cdn.mawaqit.net/images/backend/mosque/d0095fec-47b1-41fa-99a4-9ba63ebf41a3/mosque/1ef120b8-ffc3-6eae-bbfb-0a33d0408e15.jpg",
    "address": "Mersey House, Battersea Rd, Heaton Mersey",
    "city": "STOCKPORT",
    "zipcode": "SK4 3EA",
    "countryFullName": "United Kingdom",
    "lng": -2.2016033,
    "lat": 53.4083625
  },
  {
    "slug": "parker-street-mosque-burton-on-trent-de14-2rd-united-kingdom",
    "name": "Eton Mosque Burton",
    "image1": "https://cdn.mawaqit.net/images/backend/mosque/1016efc9-1768-425a-ac1e-ea527a1791e5/mosque/1ef19e59-c50d-6a5c-be61-0aca279fa1dd.jpg",
    "address": "26 Goodman Steet",
    "city": "BURTON ON TRENT",
    "zipcode": "DE14 2RD",
    "countryFullName": "United Kingdom",
    "lng": -1.6351354,
    "lat": 52.8156671
  },
  {
    "slug": "najashi-islamic-centre-erdington-b23-6sn-united-kingdom",
    "name": "NAJASHI ISLAMIC CENTRE",
    "image1": "https://cdn.mawaqit.net/images/backend/mosque/32dfc192-ad01-4408-886c-75630e0a2738/mosque/1ef16d09-3e91-6e6e-8256-06724289ed6b.jpg",
    "address": "238 High Street",
    "city": "ERDINGTON",
    "zipcode": "B23 6SN",
    "countryFullName": "United Kingdom",
    "lng": -1.8423857,
    "lat": 52.5222499
  },
  {
    "slug": "iqraa-foundation-masjid-london-nw10-4ae-united-kingdom",
    "name": "Iqraa Foundation Masjid",
    "image1": "https://cdn.mawaqit.net/images/backend/mosque/e66a103c-9a42-44d4-9045-2fedf15a2fd1/mosque/1ef24341-eb89-657c-b511-0e26478a8c6f.jpg",
    "address": "60 B Craven Park Road",
    "city": "LONDON",
    "zipcode": "NW10 4AE",
    "countryFullName": "United Kingdom",
    "lng": -0.2507671,
    "lat": 51.5391336
  },
  {
    "slug": "masjid-ibrahim-slough-sl1-3ag-united-kingdom",
    "name": "Masjid Ibrahim",
    "image1": "https://cdn.mawaqit.net/images/backend/mosque/a52064ef-205e-478b-8209-e7ffd7060903/mosque/1ef24fc0-1e14-68ea-9c8c-069cfb0c4e97.png",
    "address": "54 Hampshire Avenue",
    "city": "SLOUGH",
    "zipcode": "sl1 3ag",
    "countryFullName": "United Kingdom",
    "lng": -0.6122638,
    "lat": 51.5257301
  },
  {
    "slug": "faizan-e-madina-huddersfield-huddersfield-hd1-5nd-united-kingdom",
    "name": "Faizan-e-Madinah Huddersfield",
    "image1": "https://cdn.mawaqit.net/images/backend/mosque/b4f4831c-f0e4-451a-89b2-567158cf3bef/mosque/1ef2e89e-77c4-6076-a70b-0e4a6d39a313.jpg",
    "address": "75 New North Road",
    "city": "HUDDERSFIELD",
    "zipcode": "HD1 5ND",
    "countryFullName": "United Kingdom",
    "lng": -1.7929918,
    "lat": 53.6511932
  },
  {
    "slug": "nimrah-masjid-manchester-m19-3aq-united-kingdom",
    "name": "Nimrah Masjid",
    "image1": "https://cdn.mawaqit.net/images/backend/mosque/53363963-9dd4-48ec-97e0-af88eb446e8f/mosque/1ef36fea-5218-6cea-9598-0eccd22c0f01.jpg",
    "address": "2 Park Groave",
    "city": "MANCHESTER",
    "zipcode": "M19 3AQ",
    "countryFullName": "United Kingdom",
    "lng": -2.1922367,
    "lat": 53.4487398
  },
  {
    "slug": "marwa-masjid-birmingham-b12-9lb-united-kingdom",
    "name": "Marwa Masjid",
    "image1": "https://cdn.mawaqit.net/images/backend/mosque/0278db1f-0e57-4b52-abb4-11b11306833c/mosque/1ef3e35b-7f4c-6cea-87a2-0600dbafaeef.jpeg",
    "address": "221 Edward Road, Birmingham,. Balsall Heath, West Midlands,",
    "city": "BIRMINGHAM",
    "zipcode": "B12 9LB",
    "countryFullName": "United Kingdom",
    "lng": -1.8951956,
    "lat": 52.4583596
  },
  {
    "slug": "masjed-al-taqwa-newport-np20-2gy-united-kingdom",
    "name": "Masjed Al Taqwa",
    "image1": "https://cdn.mawaqit.net/images/backend/mosque/8fd4c7cd-c102-492a-94a9-d98d443fc4a1/mosque/1ef47847-47e9-60e2-9e3d-0a67bcb0d635.jpg",
    "address": "20 Alexandra Rd,",
    "city": "NEWPORT",
    "zipcode": "NP20 2GY",
    "countryFullName": "United Kingdom",
    "lng": -2.9884931,
    "lat": 51.5749096
  },
  {
    "slug": "bow-masjid-london-e3-5el-united-kingdom",
    "name": "Bow Muslim Community Centre",
    "image1": "https://cdn.mawaqit.net/images/backend/mosque/a53755e8-a53c-4f57-84fc-97fb0a8df169/mosque/1ef4b56c-68b9-6f6c-972f-0eccd22c0f01.jpeg",
    "address": "515B-517 Roman Road",
    "city": "LONDON",
    "zipcode": "E3 5EL",
    "countryFullName": "United Kingdom",
    "lng": -0.0317094,
    "lat": 51.5325259
  },
  {
    "slug": "sketty-mosque-and-community-centre-sketty-swansea-sa2-9as-united-kingdom",
    "name": "Sketty Mosque & Community Centre",
    "image1": "https://cdn.mawaqit.net/images/backend/mosque/de0e0a50-0bff-4502-8bbf-66d911a434c0/mosque/1ef4ddba-583f-6b66-9130-0a67bcb0d635.png",
    "address": "Sketty Park Road",
    "city": "SKETTY, SWANSEA",
    "zipcode": "SA2 9AS",
    "countryFullName": "United Kingdom",
    "lng": -3.990131,
    "lat": 51.6160588
  },
  {
    "slug": "masjid-muadh-ibn-jabal-leicester-le5-6tb-united-kingdom",
    "name": "Masjid Mu'adh Ibn Jabal",
    "image1": "https://cdn.mawaqit.net/images/backend/mosque/7d8f50ce-befd-4b9c-aa3f-bd419c00a154/mosque/1ef4e9d4-319a-6a58-b0ac-0eccd22c0f01.jpeg",
    "address": "60 Gamel Rd, Goodwood Rd, Rowlatts Hill",
    "city": "LEICESTER",
    "zipcode": "LE5 6TB",
    "countryFullName": "United Kingdom",
    "lng": -1.0722415,
    "lat": 52.6328031
  },
  {
    "slug": "sbmca-birmingham-b30-1qd-united-kingdom",
    "name": "Bournville Masjid & Community Centre",
    "image1": "https://cdn.mawaqit.net/images/backend/mosque/e52002f6-0f22-4f9a-bfcf-ccba03526da8/mosque/1ef52338-910a-65cc-a676-0a67bcb0d635.jpg",
    "address": "122 Cob Lane",
    "city": "BIRMINGHAM",
    "zipcode": "B30 1QD",
    "countryFullName": "United Kingdom",
    "lng": -1.9500744,
    "lat": 52.4250446
  },
  {
    "slug": "ashton-jame-mosque-ashton-under-lyne-ol6-7dd-united-kingdom",
    "name": "Ashton Jam'e Mosque",
    "image1": "https://cdn.mawaqit.net/images/backend/mosque/0c1ad409-ebf8-4de1-9afc-e71629ae6e31/mosque/1ef63a6a-9e8f-668a-a471-0a30a0d770d7.jpeg",
    "address": "243 Cavendish Street",
    "city": "ASHTON-UNDER-LYNE",
    "zipcode": "OL6 7DD",
    "countryFullName": "United Kingdom",
    "lng": -2.1011453,
    "lat": 53.4894622
  },
  {
    "slug": "tawfiq-masjid-and-centre-bristol-bs5-9tg-united-kingdom",
    "name": "Tawfiq Masjid and Centre",
    "image1": "https://cdn.mawaqit.net/images/backend/mosque/c139397c-8c58-4b3f-8171-2d66e0d8862f/mosque/1ef6efd8-abf1-6f02-bce2-0a30a0d770d7.png",
    "address": "Tawfiq Masjid and Centre, Aiken St, Bristol BS5 9TG",
    "city": "BRISTOL",
    "zipcode": "BS5 9TG",
    "countryFullName": "United Kingdom",
    "lng": -2.5630921,
    "lat": 51.453452
  },
  {
    "slug": "hillside-mosque-london-nw10-8li-united-kingdom",
    "name": "Hillside Islamic Cultural Centre",
    "image1": "https://cdn.mawaqit.net/images/backend/mosque/c2155b10-dbd0-4134-8597-4a521e5225b7/mosque/1ef6f339-1886-6182-bc87-0a30a0d770d7.jpg",
    "address": "175 hillside",
    "city": "LONDON",
    "zipcode": "NW10 8Li",
    "countryFullName": "United Kingdom",
    "lng": -0.26837,
    "lat": 51.5425993
  },
  {
    "slug": "upper-soothill-masjid-batley-dewsbury-wf127hy-united-kingdom",
    "name": "Upper Soothill Islamic Centre",
    "image1": "https://cdn.mawaqit.net/images/backend/mosque/5c991efb-1a8f-47d9-afcf-05301783fd6d/mosque/1ef71bc8-c437-60be-afcd-0a30a0d770d7.jpg",
    "address": "1039 Soothill Lane",
    "city": "BATLEY, DEWSBURY",
    "zipcode": "Wf127hy",
    "countryFullName": "United Kingdom",
    "lng": -1.5941973,
    "lat": 53.7157337
  },
  {
    "slug": "brayatee-mosque-birmingham-b18-7pw-united-kingdom",
    "name": "BRAYATEE MOSQUE",
    "image1": "https://cdn.mawaqit.net/images/backend/mosque/4d0920b1-6463-4318-96f9-e5806e468177/mosque/1ef80f1a-4bbe-6aec-81d2-0affcb0701ab.jpeg",
    "address": "288 Camden Street",
    "city": "BIRMINGHAM",
    "zipcode": "b18 7pw",
    "countryFullName": "United Kingdom",
    "lng": -1.9219111,
    "lat": 52.487676
  },
  {
    "slug": "faizan-e-islam-coventry-cv6-5nj-united-kingdom",
    "name": "Faizan-e-Islam",
    "image1": "https://cdn.mawaqit.net/images/backend/mosque/bb4065b5-42b8-443b-98c6-b46d5b1fe1b1/mosque/1ef862cf-3603-6136-88e5-0e9d077f5bb1.jpg",
    "address": "202 Lockhurst Lane",
    "city": "COVENTRY",
    "zipcode": "CV6 5NJ",
    "countryFullName": "United Kingdom",
    "lng": -1.5034999,
    "lat": 52.4311241
  },
  {
    "slug": "darul-ummah-hornchurch-london-rm12-5sa-united-kingdom",
    "name": "Darul Ummah Hornchurch",
    "image1": "https://cdn.mawaqit.net/images/backend/mosque/1b86e7ec-acfb-4139-95a6-e88ccb340d09/mosque/1ef8b2a1-a87e-669e-92c5-0e9d077f5bb1.jpeg",
    "address": "10 Maybank Ave",
    "city": "LONDON",
    "zipcode": "RM12 5SA",
    "countryFullName": "United Kingdom",
    "lng": 0.2031487,
    "lat": 51.5453391
  },
  {
    "slug": "azhar-academy-bolton-bolton-bl1-4pg-united-kingdom",
    "name": "Azhar Academy Bolton",
    "image1": "https://cdn.mawaqit.net/images/backend/mosque/1c5dfe11-92a2-4736-9441-a4b18fead64d/mosque/1ef96ff8-820d-6edc-8044-0e9d077f5bb1.jpg",
    "address": "20 Devonshire Rd",
    "city": "BOLTON",
    "zipcode": "BL1 4PG",
    "countryFullName": "United Kingdom",
    "lng": -2.4600135,
    "lat": 53.5814843
  },
  {
    "slug": "mahmudsabir-al-furqan-masjid-birmingham-b11-3bz-united-kingdom",
    "name": "MahmudSabir (Al Furqan) Masjid",
    "image1": "https://cdn.mawaqit.net/images/backend/mosque/c2f433e9-720b-47da-a3c8-7573dec66b82/mosque/1ef9a2bd-c81f-6e32-acf7-0671c73660c5.jpg",
    "address": "279 Formans Road, Tyseley",
    "city": "BIRMINGHAM",
    "zipcode": "B11 3BZ",
    "countryFullName": "United Kingdom",
    "lng": -1.8480156,
    "lat": 52.4486208
  },
  {
    "slug": "majid-adam-a-s-leicester-le2-5qf-united-kingdom",
    "name": "Masjid Adam (A.S)",
    "image1": "https://cdn.mawaqit.net/images/backend/mosque/01239c6c-ec3a-427d-b077-9c38921386c8/mosque/1ef9f877-72e6-6438-bc6a-0671c73660c5.png",
    "address": "31 Wigston Rd, Oadby",
    "city": "LEICESTER",
    "zipcode": "LE2 5QF",
    "countryFullName": "United Kingdom",
    "lng": -1.0811693,
    "lat": 52.5969295
  },
  {
    "slug": "deptford-islamic-centre-london-se8-5jr-united-kingdom",
    "name": "Deptford Islamic Centre",
    "image1": "https://cdn.mawaqit.net/images/backend/mosque/ceea8316-888c-45b4-b782-f6f6c06e89bb/mosque/1efa139c-27d5-6224-83fa-0e9d077f5bb1.jpg",
    "address": "228-229 Railway Arches, Childers Street",
    "city": "LONDON",
    "zipcode": "SE8 5JR",
    "countryFullName": "United Kingdom",
    "lng": -0.032669305801392,
    "lat": 51.481221984263
  },
  {
    "slug": "taunton-masjid-taunton-ta1-4ar-united-kingdom",
    "name": "Taunton Central Masjid",
    "image1": "https://cdn.mawaqit.net/images/backend/mosque/0f18c987-b9af-4b8e-b241-cece3fb29cab/mosque/1efa13c2-eeab-613e-8d4b-0671c73660c5.jpg",
    "address": "2 Tower Lane",
    "city": "TAUNTON",
    "zipcode": "TA1 4AR",
    "countryFullName": "United Kingdom",
    "lng": -3.1070421,
    "lat": 51.0147341
  },
  {
    "slug": "bedford-islamic-centre-bedford-mk40-1hu-united-kingdom",
    "name": "Bedford Islamic Centre",
    "image1": "https://cdn.mawaqit.net/images/backend/mosque/a09fcd56-d961-43da-bf85-72edd0f1b7c0/mosque/1efa1c27-5417-6dee-9a3f-0e9d077f5bb1.jpg",
    "address": "1B Brereton Road",
    "city": "BEDFORD",
    "zipcode": "MK40 1HU",
    "countryFullName": "United Kingdom",
    "lng": -0.4733553,
    "lat": 52.1363685
  },
  {
    "slug": "faizan-e-madina-stechford",
    "name": "Faizan e Madina Stechford",
    "image1": "https://cdn.mawaqit.net/images/backend/mosque/7ad64daf-99d6-41be-be42-d51b174994ae/mosque/1efa2788-f562-608e-ae88-0e9d077f5bb1.jpg",
    "address": "Richmond Road",
    "city": "BIRMINGHAM",
    "zipcode": "B33 8TN",
    "countryFullName": "United Kingdom",
    "lng": -1.814082,
    "lat": 52.4783958
  },
  {
    "slug": "masjid-e-hidayah-manchester-m16-9dd-united-kingdom",
    "name": "Masjid-E-Hidayah",
    "image1": "https://cdn.mawaqit.net/images/backend/mosque/21efa9ab-0352-462e-b7d9-919583200bcf/mosque/1efa7f6e-7da8-614a-8156-0a0389a4e0f5.png",
    "address": "19 Humphrey Rd, Old Trafford, Stretford, M16 9DD",
    "city": "MANCHESTER",
    "zipcode": "M16 9DD",
    "countryFullName": "United Kingdom",
    "lng": -2.2750749,
    "lat": 53.461137
  },
  {
    "slug": "ghousia-masjid-nottingham-ng-2eu-united-kingdom",
    "name": "Ghousia Masjid",
    "image1": "https://cdn.mawaqit.net/images/backend/mosque/8d7c44be-7885-417d-b17b-a7faa51f27eb/mosque/1efade58-46cf-6882-bce7-066b4b62726d.jpeg",
    "address": "4a Evelyn St, Beeston",
    "city": "NOTTINGHAM",
    "zipcode": "NG 2EU",
    "countryFullName": "United Kingdom",
    "lng": -1.2048035,
    "lat": 52.9277266
  },
  {
    "slug": "al-sunnah-mosque-manchester-manchester-m8-9pb-united-kingdom",
    "name": "Al-Sunnah Mosque Manchester",
    "image1": "https://cdn.mawaqit.net/images/backend/mosque/aa3836c3-0842-4433-afe8-e5587f990885/mosque/1efbb0d0-df35-6ba8-81b8-0ef2881d9837.png",
    "address": "13 Winterford Rd, Cheetham Hill, Manchester M8 9PB",
    "city": "MANCHESTER",
    "zipcode": "M8 9PB",
    "countryFullName": "United Kingdom",
    "lng": -2.2446286,
    "lat": 53.5064154
  },
  {
    "slug": "city-mosque-preston-preston-pr11yq-united-kingdom",
    "name": "City Mosque",
    "image1": "https://cdn.mawaqit.net/images/backend/mosque/7645d234-4466-47fd-92c9-bd046afafe7b/mosque/1efc3d63-b7b9-6bf4-91d6-0a21b15e7a1f.jpg",
    "address": "North Road",
    "city": "PRESTON",
    "zipcode": "PR11YQ",
    "countryFullName": "United Kingdom",
    "lng": -2.6985458,
    "lat": 53.7639349
  },
  {
    "slug": "31937",
    "name": "MAB Scotland Centre",
    "image1": "https://cdn.mawaqit.net/images/backend/mosque/5bb580db-d0ee-41fd-a602-5ac9738a72cf/mosque/1eff480e-75b9-6f3e-b3cd-06ef9144e88f.jpeg",
    "address": "Grovepark Mills, 10 Grovepark Pl",
    "city": "GLASGOW",
    "zipcode": "G20 7NG",
    "countryFullName": "United Kingdom",
    "lng": -4.2679257,
    "lat": 55.8750995
  },
  {
    "slug": "bow-west-organisation-london-e3-5da-united-kingdom",
    "name": "Bow West Organisation",
    "image1": "https://cdn.mawaqit.net/images/backend/mosque/856558e9-7e3e-477f-8741-4a9752b45de0/mosque/1efe8bcd-80fa-607c-b84a-0a7d06691847.jpeg",
    "address": "73 Strahan Road",
    "city": "LONDON",
    "zipcode": "E3 5DA",
    "countryFullName": "United Kingdom",
    "lng": -0.0375073,
    "lat": 51.5290063
  },
  {
    "slug": "ummah-masjid-newport-np198fh-united-kingdom",
    "name": "Ummah Masjid",
    "image1": "https://cdn.mawaqit.net/images/backend/mosque/8766106e-91f3-4415-818d-7065a9792cf9/mosque/1efe9f31-7333-69e4-9d5e-063aa5df5c67.heic",
    "address": "14 Duckpool Rd, Newport NP19 8FH",
    "city": "NEWPORT",
    "zipcode": "Np198fh",
    "countryFullName": "United Kingdom",
    "lng": -2.9799286,
    "lat": 51.5910086
  },
  {
    "slug": "masjid-al-huda-birmingham-b109jf-united-kingdom",
    "name": "Al-Huda Masjid",
    "image1": "https://cdn.mawaqit.net/images/backend/mosque/a3020e3e-b76c-405f-8538-3b256c81ac10/mosque/1eff08f8-666b-6f50-8832-06ef9144e88f.jpeg",
    "address": "228 heybarnes",
    "city": "BIRMINGHAM",
    "zipcode": "B109JF",
    "countryFullName": "United Kingdom",
    "lng": -1.8309234,
    "lat": 52.4698817
  },
  {
    "slug": "wimbledon-masjid-london-sw19-8ds-united-kingdom",
    "name": "Wimbledon Masjid",
    "image1": "https://cdn.mawaqit.net/images/backend/mosque/e7ddc5f7-ba13-414c-8878-6df345793ada/mosque/1eff128b-d215-6606-bc27-0a7d06691847.jpg",
    "address": "262-270 Durnsford Road",
    "city": "LONDON",
    "zipcode": "SW19 8DS",
    "countryFullName": "United Kingdom",
    "lng": -0.1969466,
    "lat": 51.4359221
  },
  {
    "slug": "markaz-quba-islamic-centre-leicester-le2-0nq-united-kingdom",
    "name": "Markaz Quba (Islamic Centre)",
    "image1": "https://cdn.mawaqit.net/images/backend/mosque/5e449217-3cdf-48f3-8041-bcf8eeb8b42d/mosque/1eff1dc5-f69e-6640-9f4b-0a7d06691847.jpg",
    "address": "21 Tichborne St",
    "city": "LEICESTER",
    "zipcode": "LE2 0NQ",
    "countryFullName": "United Kingdom",
    "lng": -1.1187947,
    "lat": 52.6285706
  },
  {
    "slug": "33468",
    "name": "Kilmarnock Central Mosque",
    "image1": "https://cdn.mawaqit.net/images/backend/mosque/98c39494-ef43-4bd9-bfe9-8868c37be79e/mosque/1eff4689-6601-62c6-b453-0e61b0058d45.jpeg",
    "address": "57 London Rd",
    "city": "KILMARNOCK",
    "zipcode": "KA3 7AH",
    "countryFullName": "United Kingdom",
    "lng": -4.4869681,
    "lat": 55.6079641
  },
  {
    "slug": "ibn-abbas-islamic-centre-london-nw5-4ez-united-kingdom",
    "name": "Ibn Abbas Islamic Centre",
    "image1": "https://cdn.mawaqit.net/images/backend/mosque/e8d289d2-c57a-4713-b1ff-ac9735edab99/mosque/1eff4964-a5be-664c-92a7-06ef9144e88f.jpeg",
    "address": "23-24 Cheriton, Queens Crescent",
    "city": "LONDON",
    "zipcode": "NW5 4EZ",
    "countryFullName": "United Kingdom",
    "lng": -0.153457,
    "lat": 51.5487677
  },
  {
    "slug": "taybah-educational-centre-leicester-le5-4hj-united-kingdom",
    "name": "Taybah Educational Centre",
    "image1": "https://cdn.mawaqit.net/images/backend/mosque/c4d686d2-e0da-4f81-bc1b-6bf735076160/mosque/1eff7581-b9b3-61fe-afe8-0e4fa23cf9cb.jpg",
    "address": "362 St Saviours Rd",
    "city": "LEICESTER",
    "zipcode": "LE5 4HJ",
    "countryFullName": "United Kingdom",
    "lng": -1.0942927,
    "lat": 52.6318526
  },
  {
    "slug": "nhc-mosque-london-wc2n-5bx-united-kingdom",
    "name": "NHC Mosque",
    "image1": "https://cdn.mawaqit.net/images/backend/mosque/dbdf05d3-49c3-4396-b4d1-7616d6d7019f/mosque/1eff77ac-c24e-6a48-bf58-0e4fa23cf9cb.jpg",
    "address": "9 Northumberland Ave",
    "city": "LONDON",
    "zipcode": "WC2N 5BX",
    "countryFullName": "United Kingdom",
    "lng": -0.1253432,
    "lat": 51.5066931
  },
  {
    "slug": "masjid-al-barakah-dover-ct17-0sy-united-kingdom",
    "name": "MASJID AL BARAKAH",
    "image1": "https://cdn.mawaqit.net/images/backend/mosque/39fdedf8-9904-4b4b-a32f-ae8b8899be89/mosque/1eff840f-dd7c-61f2-aaa6-0afdb4a7872f.jpeg",
    "address": "287 London road",
    "city": "DOVER",
    "zipcode": "CT17 0SY",
    "countryFullName": "United Kingdom",
    "lng": 1.3024669,
    "lat": 51.1323282
  },
  {
    "slug": "zaytuna-masjid-birmingham-b32-1pj-united-kingdom",
    "name": "ZAYTUNA MASJID مسجد الزيتونة",
    "image1": "https://cdn.mawaqit.net/images/backend/mosque/2c9cc925-0fac-47d2-a5aa-678a8bcc873f/mosque/1f02c13e-b138-69f0-b57c-06e43a43c885.jpeg",
    "address": "Quinton Road W",
    "city": "BIRMINGHAM",
    "zipcode": "B32 1PJ",
    "countryFullName": "United Kingdom",
    "lng": -1.9996726512909,
    "lat": 52.454499126901
  },
  {
    "slug": "al-salam-islamic-centre-london-nw10-7pb-united-kingdom",
    "name": "Al Salam Islamic Centre",
    "image1": "https://cdn.mawaqit.net/images/backend/mosque/e75b68b4-64e8-4a11-8a35-9c63e8f05229/mosque/1f004011-cb18-618c-8dda-0a2e1c0b5725.jpg",
    "address": "unit 1 Unimix House Abbey road",
    "city": "LONDON",
    "zipcode": "NW10 7PB",
    "countryFullName": "United Kingdom",
    "lng": -0.2752457,
    "lat": 51.5332415
  },
  {
    "slug": "adam-mosque-dawah-academy-birmingham-b12-8np-united-kingdom-1",
    "name": "Adam Mosque & Dawah Academy",
    "image1": "https://cdn.mawaqit.net/images/backend/mosque/cbf44142-569a-440b-8705-efc7dba042b8/mosque/1f00d946-f8db-64a6-9209-06bdda781935.jpg",
    "address": "19-31 Brunswick Road",
    "city": "BIRMINGHAM",
    "zipcode": "B12 8NP",
    "countryFullName": "United Kingdom",
    "lng": -1.8816212,
    "lat": 52.4571396
  },
  {
    "slug": "faizan-e-madina-bradford-bd3-9le-united-kingdom",
    "name": "Faizan-e-Madina",
    "image1": "https://cdn.mawaqit.net/images/backend/mosque/b2cec319-fe5c-4d65-a321-777088ff28e5/mosque/1f017e82-bf25-6afe-9dfc-0e61b0058d45.jpg",
    "address": "Maudsley Street",
    "city": "BRADFORD",
    "zipcode": "bd3 9le",
    "countryFullName": "United Kingdom",
    "lng": -1.7331154,
    "lat": 53.7941299
  },
  {
    "slug": "jamia-masjid-bilal-wolverhampton-wv6-0ru-united-kingdom",
    "name": "Jamia Masjid Bilal",
    "image1": "https://cdn.mawaqit.net/images/backend/mosque/2870ad8a-63af-408b-be08-a586c1773db4/mosque/1f019f64-0706-64f2-901f-0e61b0058d45.jpg",
    "address": "58 New Hampton Road West, Wolverhampton, UK",
    "city": "WOLVERHAMPTON",
    "zipcode": "WV6 0RU",
    "countryFullName": "United Kingdom",
    "lng": -2.1465594,
    "lat": 52.5935582
  },
  {
    "slug": "shahjalal-jame-mosque-bristol-bs5-6pe-united-kingdom",
    "name": "Shahjalal Jame Mosque",
    "image1": "https://cdn.mawaqit.net/images/backend/mosque/74e2543a-e277-495d-8f7b-3714d50ea82c/mosque/1f020808-86b3-6468-a861-0ac73cfd41db.jpeg",
    "address": "468-470 Stapleton Rd, Eastville",
    "city": "BRISTOL",
    "zipcode": "BS5 6PE",
    "countryFullName": "United Kingdom",
    "lng": -2.5624328,
    "lat": 51.4718004
  },
  {
    "slug": "madni-masjid-nottingham-ng7-6hx-united-kingdom",
    "name": "Madni Masjid",
    "image1": "https://cdn.mawaqit.net/images/backend/mosque/bec1975a-4369-45fd-99e3-8db2658fc3b2/mosque/1f021d0a-45ee-6790-bbbd-06bdda781935.jpeg",
    "address": "289 Gladstone Street, Forest Fields, Nottingham, UK",
    "city": "NOTTINGHAM",
    "zipcode": "NG7 6HX",
    "countryFullName": "United Kingdom",
    "lng": -1.1614023,
    "lat": 52.9714903
  },
  {
    "slug": "dawatul-islam-glasgow-glasgow-g12-8ll-united-kingdom",
    "name": "Dawatul Islam",
    "image1": "https://cdn.mawaqit.net/images/backend/mosque/fe553db6-f038-4492-b3ff-9ba90ee9d1b5/mosque/1f022ae8-1528-699e-bca2-0e61b0058d45.png",
    "address": "31 Oakfield Avenue, Glasgow G12 8LL, UK",
    "city": "GLASGOW",
    "zipcode": "G12 8LL",
    "countryFullName": "United Kingdom",
    "lng": -4.284413,
    "lat": 55.8744552
  },
  {
    "slug": "hind-grove-masjid-london-e14-7dw-united-kingdom",
    "name": "Hind Grove Masjid",
    "image1": "https://cdn.mawaqit.net/images/backend/mosque/92296483-e70f-44cd-963e-3823948f2f9a/mosque/1f026cda-2f81-662c-8bd6-06df4152832f.jpg",
    "address": "162 Pigott Street, London, UK",
    "city": "LONDON",
    "zipcode": "E14 7DW",
    "countryFullName": "United Kingdom",
    "lng": -0.0254789,
    "lat": 51.5129919
  },
  {
    "slug": "lindley-eden-centre-holywell-green-hd3-3dz-united-kingdom",
    "name": "Lindley Eden Centre",
    "image1": "https://cdn.mawaqit.net/images/backend/mosque/4a5295d2-3510-434a-ac9f-b8a69e039af2/mosque/1f029bf6-c5c4-6f26-901f-0e31fcfe1275.png",
    "address": "31 Acre Street, Lindley, Holywell Green, Huddersfield, UK",
    "city": "HOLYWELL GREEN",
    "zipcode": "HD3 3DZ",
    "countryFullName": "United Kingdom",
    "lng": -1.8179538,
    "lat": 53.6542623
  },
  {
    "slug": "madina-islamic-centre-cricklewood-london-nw2-2qh-united-kingdom",
    "name": "Madina Islamic Centre, Cricklewood",
    "image1": "https://cdn.mawaqit.net/images/backend/mosque/69c8105c-ee41-4c85-9b03-6f1e68dc974f/mosque/1f02e673-c682-6004-9ce0-0e562460e637.jpg",
    "address": "356 Cricklewood Ln, London, UK",
    "city": "LONDON",
    "zipcode": "NW2 2QH",
    "countryFullName": "United Kingdom",
    "lng": -0.1985642,
    "lat": 51.5629361
  },
  {
    "slug": "jami-mosque-and-islamic-centre-birmingham-b10-0ll-united-kingdom",
    "name": "Jami Mosque and Islamic Centre",
    "image1": "https://cdn.mawaqit.net/images/backend/mosque/067a0d0f-bbf7-487c-b615-8a97dffc1e47/mosque/1f0324bf-442a-6f40-a484-0a17f0e78aa5.jpg",
    "address": "521-527 Coventry Road",
    "city": "BIRMINGHAM",
    "zipcode": "B10 0LL",
    "countryFullName": "United Kingdom",
    "lng": -1.8560783,
    "lat": 52.4684305
  },
  {
    "slug": "darul-uloom-ghousia-parker-street-mosque-burton-upon-trent-de14-united-kingdom",
    "name": "Darul Uloom Ghousia Parker Street Mosque",
    "image1": "https://cdn.mawaqit.net/images/backend/mosque/5da582a0-9ba4-4169-8b39-980df3ec0d59/mosque/1f039ca8-f515-6baa-9164-0ebf32fefef3.jpg",
    "address": "24 Parker Street, Burton-on-Trent, UK",
    "city": "BURTON UPON TRENT",
    "zipcode": "DE14",
    "countryFullName": "United Kingdom",
    "lng": -1.6364298,
    "lat": 52.8154771
  },
  {
    "slug": "shahjalal-islamic-centre-rawtenstall-bb4-7rt-united-kingdom",
    "name": "ShahJalal Islamic Centre",
    "image1": "https://cdn.mawaqit.net/images/backend/mosque/267ebcdf-9d58-4a39-92ff-0754ff18830d/mosque/1f03c093-fd88-68d2-9f3d-0ebf32fefef3.jpg",
    "address": "1 Grange Street, Rossendale, UK",
    "city": "RAWTENSTALL",
    "zipcode": "BB4 7RT",
    "countryFullName": "United Kingdom",
    "lng": -2.2829262,
    "lat": 53.7025922
  },
  {
    "slug": "walsall-central-mosque-walsall-ws1-2jn-united-kingdom",
    "name": "Walsall Central Mosque",
    "image1": "https://cdn.mawaqit.net/images/backend/mosque/a8dfdbd8-0d24-425b-a40e-efa1004e1547/mosque/1f03c968-2e63-6fb0-a5e6-06c83fd78a17.png",
    "address": "39 Selborne St, The Chuckery, Walsall WS1 2JN, UK",
    "city": "WALSALL",
    "zipcode": "WS1 2JN",
    "countryFullName": "United Kingdom",
    "lng": -1.9704855,
    "lat": 52.5834068
  }
]