[
  {
    "slug": "basaksehir-merkez-camii-basaksehir-34480-turkey",
    "name": "BAŞAKŞEHİR MERKEZ CAMİİ",
    "image1": "https://cdn.mawaqit.net/images/backend/mosque/c81ce6b6-4e58-4d4a-b9d2-45603907781a/mosque/1eea8dc9-57d8-6e0c-84ae-066ed47a7584.jpg",
    "address": "Adnan Menderes Bulvari, Kayabaşı",
    "city": "BAŞAKŞEHİR",
    "zipcode": "34480",
    "countryFullName": "Türkiye",
    "lng": 28.7745254,
    "lat": 41.1165226
  },
  {
    "slug": "ailem-istanbul",
    "name": "مركز اهلي الاسلامي",
    "image1": "https://cdn.mawaqit.net/images/backend/mosque/218051c9-6900-49eb-ae36-becfba49eff3/mosque/1eea8de3-f12c-61b6-a00b-066ed47a7584.jpeg",
    "address": "Yenikent, 484. Sk. 14-40",
    "city": "Esenyurt-/-Istanbul",
    "zipcode": "34510",
    "countryFullName": "Türkiye",
    "lng": 28.6931741,
    "lat": 41.0387939
  },
  {
    "slug": "bahcesehir-emlak-konut-camii-bahcesehir-34488-turkiye",
    "name": "BAHÇEŞEHİR EMLAK KONUT CAMİİ",
    "image1": "https://cdn.mawaqit.net/images/backend/mosque/dd059edd-c7e9-452b-9569-406a1e06ca0b/mosque/1eed8de2-f4e3-60e6-828e-0ede686d7942.png",
    "address": "Bahçeşehir 2. Kısım, 10. Yıl Cadde 6",
    "city": "BAHÇEŞEHİR",
    "zipcode": "34488",
    "countryFullName": "Türkiye",
    "lng": 28.6502447,
    "lat": 41.0910579
  },
  {
    "slug": "park-mavera-3-mescit-istanbul-34494-turkey",
    "name": "Park Mavera 3 Mescit",
    "image1": "https://cdn.mawaqit.net/images/backend/mosque/f9a51508-05b7-4324-a7e8-4acbc2893c02/mosque/1eea8e22-5997-6348-89de-066ed47a7584.jpg",
    "address": "Kayabaşı Mah. Veysel Karani Cad. Başakşehir",
    "city": "İstanbul",
    "zipcode": "34494",
    "countryFullName": "Türkiye",
    "lng": 28.779244422913,
    "lat": 41.123008596235
  },
  {
    "slug": "corlu-merkez-cami-corlu-59060-turkey",
    "name": "Emir Sultan camii",
    "image1": "https://cdn.mawaqit.net/images/backend/mosque/60d705ce-afb5-4ece-a618-c9d0d387695c/mosque/1ef91ff1-b63f-6216-bf69-0e9d077f5bb1.png",
    "address": "Deliklikaya, Arnavutköy",
    "city": "İSTANBUL",
    "zipcode": "34555",
    "countryFullName": "Türkiye",
    "lng": 28.6556478,
    "lat": 41.1147535
  },
  {
    "slug": "park-mavera-2-mescit-istanbul-34494-turkey",
    "name": "Park Mavera 2 Mescit",
    "image1": "https://cdn.mawaqit.net/images/backend/mosque/7da95508-ff97-4bfa-b852-efd2f5a8eba0/mosque/1eea8e49-3c14-69b6-86b6-066ed47a7584.jpg",
    "address": "Kayabaşı Mah, Park Mavera 2",
    "city": "Istanbul",
    "zipcode": "34494",
    "countryFullName": "Türkiye",
    "lng": 28.7696448,
    "lat": 41.1242615
  },
  {
    "slug": "msjd-wys-lqrny-istanbul-34517-turkey",
    "name": "مسجد أويس القرني",
    "image1": "https://cdn.mawaqit.net/images/backend/mosque/42dcbb9e-1cc0-4846-9063-a34f44ee12f1/mosque/1ef7f57d-2119-6f6e-94b0-0ecd6770c589.jpeg",
    "address": "Nlogo site esenyurt",
    "city": "Istanbul",
    "zipcode": "34517",
    "countryFullName": "Türkiye",
    "lng": 28.6841722,
    "lat": 41.0296355
  },
  {
    "slug": "vadiyaka-cami-basaksehir-34480-turkey",
    "name": "Vadiyaka Cami",
    "image1": "https://cdn.mawaqit.net/images/backend/mosque/df912df4-4850-4d71-9158-06296c81228b/mosque/1eea8e64-4cb2-6096-9891-066ed47a7584.jpg",
    "address": "başakşehir.gülbahçe sok.vadiyaka sitesi.A blok.kat 9. daire 52",
    "city": "Başakşehir",
    "zipcode": "34480",
    "countryFullName": "Turkey",
    "lng": 28.784523,
    "lat": 41.1128237
  },
  {
    "slug": "avrupa-konutlari-1-etap-mescit-istanbul-34494-turkey",
    "name": "Avrupa Konutları 1.Etap Mescit",
    "image1": "https://cdn.mawaqit.net/images/backend/mosque/45c3a61c-2c2d-4e6f-b730-1ee283f4714f/mosque/1eea8e73-c97c-6b30-bbb2-066ed47a7584.jpg",
    "address": "Kayabaşı, Kayaşehir Blv No: 55/E, 34494 Başakşehir/İstanbul",
    "city": "Istanbul",
    "zipcode": "34494",
    "countryFullName": "Türkiye",
    "lng": 28.7684444,
    "lat": 41.1239904
  },
  {
    "slug": "fatih-camii-serifi-kucukcekmece-34285-turkey",
    "name": "FATİH CAMII ŞERİFİ",
    "image1": "https://cdn.mawaqit.net/images/backend/mosque/ed2fc88c-a650-47ca-acec-8e0acff9b2d1/mosque/1eea8e78-7c61-6774-9709-066ed47a7584.jpg",
    "address": "Gültepe, Bağlar Cd. No:75, 34295 Küçükçekmece",
    "city": "KÜÇÜKÇEKMECE",
    "zipcode": "34285",
    "countryFullName": "Turkey",
    "lng": 28.7916851,
    "lat": 40.9952587
  },
  {
    "slug": "seyrekevler-seyran-camii-kucukcekmece-34295-turkey",
    "name": "SEYREKEVLER SEYRAN CAMİİ",
    "image1": "https://cdn.mawaqit.net/images/backend/mosque/1dce9130-b604-48d9-ac83-1c207830045a/mosque/1eea8e92-ae7a-61d8-8241-066ed47a7584.jpg",
    "address": "Yeşilova, 34295 Küçükçekmece/İstanbul",
    "city": "KÜÇÜKÇEKMECE",
    "zipcode": "34295",
    "countryFullName": "Türkiye",
    "lng": 28.7984981,
    "lat": 41.0226458
  },
  {
    "slug": "istanbul-aydin-universitesi-kampus-camii-kucukcekmece-istanbul-34295-turkey",
    "name": "İst. Aydın Üniversitesi Kampüs Camii",
    "image1": "https://cdn.mawaqit.net/images/backend/mosque/61ebee55-c7f3-4501-90d5-f360b292b86c/mosque/1eea8e92-c058-6da0-a77a-066ed47a7584.jpg",
    "address": "Beşyol, İnönü Cd. No:38, 34295 Küçükçekmece/İstanbul",
    "city": "KÜÇÜKÇEKMECE, İSTANBUL",
    "zipcode": "34295",
    "countryFullName": "Türkiye",
    "lng": 28.7976884,
    "lat": 40.9928319
  },
  {
    "slug": "ozdemir-bayraktar-milli-teknoloji-mescit-basaksehir-34488-turkiye",
    "name": "Ozdemir Bayraktar Milli Teknoloji Mescit",
    "image1": "https://cdn.mawaqit.net/images/backend/mosque/718f77d5-8000-44ee-be5a-5e8f0f8123fa/mosque/1eea8e9b-0861-63ec-a49a-066ed47a7584.jpg",
    "address": "Bahçeşehir 2. Kısım, Hadımköy-Hoşdere Yolu",
    "city": "BAŞAKŞEHIR",
    "zipcode": "34488",
    "countryFullName": "Türkiye",
    "lng": 28.6443647,
    "lat": 41.0950964
  },
  {
    "slug": "yavuz-sultan-selim-camii-basaksehir-34538-turkiye",
    "name": "Yavuz Sultan Selim Camii",
    "image1": "https://cdn.mawaqit.net/images/backend/mosque/352b70f9-0d88-4e59-906d-c1673d07a26e/mosque/1eea8ea3-f998-6686-9f4d-066ed47a7584.jpg",
    "address": "Başakşehir 2. kisim",
    "city": "BAŞAKŞEHİR",
    "zipcode": "34538",
    "countryFullName": "Türkiye",
    "lng": 28.654489517212,
    "lat": 41.086221036158
  },
  {
    "slug": "hoca-ahmet-yesevi-cami-basaksehir-34480-turkey",
    "name": "HOCA AHMET YESEVİ CAMİ",
    "image1": "https://cdn.mawaqit.net/images/backend/mosque/34c41968-75c0-44d3-bfbd-e27e29ac8631/mosque/1eea8eaf-c0cc-6562-962a-066ed47a7584.jpg",
    "address": "Başakşehir, Mimarsinan Cad. Ilgaz Sok.",
    "city": "BAŞAKŞEHIR",
    "zipcode": "34480",
    "countryFullName": "Türkiye",
    "lng": 28.78695577383,
    "lat": 41.104789183173
  },
  {
    "slug": "bogazkoy-merkez-cami-basaksehir-34488-turkey",
    "name": "BOĞAZKÖY MERKEZ CAMİ",
    "image1": "https://cdn.mawaqit.net/images/backend/mosque/e6f9c881-e6b8-4033-941f-9357ec1f4460/mosque/1eea8eaf-ce3a-6e88-8264-066ed47a7584.jpg",
    "address": "Bahçeşehir 2. Kısım, Turgut Özal Blv",
    "city": "BAŞAKŞEHIR",
    "zipcode": "34488",
    "countryFullName": "Turkey",
    "lng": 28.665829896927,
    "lat": 41.078635410729
  },
  {
    "slug": "bahcesehir-merkez-cami-basaksehir-34538-turkey",
    "name": "BAHÇEŞEHİR MERKEZ CAMİ",
    "image1": "https://cdn.mawaqit.net/images/backend/mosque/c36a9078-665b-404a-86f4-aa61a360ec39/mosque/1eea8eaf-dba3-67d2-860c-066ed47a7584.jpg",
    "address": "Bahçeşehir 2.kısım Mah, Avni Akyol Blv.",
    "city": "BAŞAKŞEHİR",
    "zipcode": "34538",
    "countryFullName": "Turkey",
    "lng": 28.688021,
    "lat": 41.0708095
  },
  {
    "slug": "ebussuud-efendi-camii-basaksehir-34488-turkiye",
    "name": "EBUSSUUD EFENDİ CAMİİ",
    "image1": "https://cdn.mawaqit.net/images/backend/mosque/bb7ba790-28ee-4dbf-bf09-67222d3576b2/mosque/1eea8eaf-ee86-61ba-8ec4-066ed47a7584.jpg",
    "address": "Bahçeşehir 1. Kısım Mah. Vali Recep Yazıcıoğlu Cad. No :52",
    "city": "BAŞAKŞEHİR",
    "zipcode": "34488",
    "countryFullName": "Türkiye",
    "lng": 28.692099452019,
    "lat": 41.074615806578
  },
  {
    "slug": "iskilipli-atif-hoca-camii-basaksehir-34488-turkey",
    "name": "İSKİLİPLİ ATIF HOCA CAMİİ",
    "image1": "https://cdn.mawaqit.net/images/backend/mosque/c6c517b2-e8cc-414a-8403-3b3f320e8253/mosque/1eea8eaf-fc8d-6c2c-92d5-066ed47a7584.jpg",
    "address": "Bahçeşehir 1. Kısım, Mahallesi",
    "city": "BAŞAKŞEHIR",
    "zipcode": "34488",
    "countryFullName": "Türkiye",
    "lng": 28.695141077042,
    "lat": 41.076759086866
  },
  {
    "slug": "kutul-amare-camii-basaksehir-34488-turkey",
    "name": "KUTÜL AMÂRE CAMİİ",
    "image1": "https://cdn.mawaqit.net/images/backend/mosque/29b12ca9-d086-4d31-b7f6-8cef0124556b/mosque/1eea8eb9-7a6b-6708-b303-066ed47a7584.jpg",
    "address": "1. Kısım",
    "city": "BAŞAKŞEHİR",
    "zipcode": "34488",
    "countryFullName": "Türkiye",
    "lng": 28.678979,
    "lat": 41.0991626
  },
  {
    "slug": "imam-i-azam-cami-basaksehir-34480-turkey",
    "name": "İMAM-I AZAM CAMİ",
    "image1": "https://cdn.mawaqit.net/images/backend/mosque/8de76f85-7df4-4581-b183-81d5ccb04fae/mosque/1eea8eb9-877e-62b0-a744-066ed47a7584.jpg",
    "address": "Başak, Yeşilvadi Cd. No:4/1",
    "city": "BAŞAKŞEHİR",
    "zipcode": "34480",
    "countryFullName": "Türkiye",
    "lng": 28.8044693,
    "lat": 41.1097822
  },
  {
    "slug": "hayrettin-atmaca-cami-basaksehir-34480-turkey",
    "name": "HAYRETTİN ATMACA CAMİ",
    "image1": "https://cdn.mawaqit.net/images/backend/mosque/3419322c-4a9f-4b00-807f-9bb2cd49219a/mosque/1eea8eb9-a842-62b2-9915-066ed47a7584.jpg",
    "address": "BAŞAKŞEHİR",
    "city": "BAŞAKŞEHİR",
    "zipcode": "34480",
    "countryFullName": "Türkiye",
    "lng": 28.816667,
    "lat": 41.083333
  },
  {
    "slug": "hz-huseyin-camii-basaksehir-34494-turkiye",
    "name": "HZ. HÜSEYİN CAMİİ",
    "image1": "https://cdn.mawaqit.net/images/backend/mosque/6e01603b-26ca-4e91-993b-b1848f496c02/mosque/1ef01109-90bb-66d4-b8b9-0621eb7171ad.jpg",
    "address": "Toki Kayabaşı Konutları 7 G",
    "city": "BAŞAKŞEHİR",
    "zipcode": "34494",
    "countryFullName": "Türkiye",
    "lng": 28.759717941284,
    "lat": 41.108208739727
  },
  {
    "slug": "masjid-abi-ayoub-lansari-istanbul-34490-turkey",
    "name": "مسجد أبي أيوب الأنصاري",
    "image1": "https://cdn.mawaqit.net/images/backend/mosque/a5260fc8-33e0-4e0f-b666-1b71b0dbdccf/mosque/1eea8ebd-5a9d-6c06-ac62-066ed47a7584.jpg",
    "address": "ZİYA GÖKALP MAH.SÜLEYMAN DEMİREL BUL.THE RESIDENCE SİTESİ",
    "city": "أسطنبول",
    "zipcode": "34490",
    "countryFullName": "Türkiye",
    "lng": 28.7935219,
    "lat": 41.0748353
  },
  {
    "slug": "aymakoop-cami-basaksehir-34306-turkey",
    "name": "AYMAKOOP CAMİ",
    "image1": "https://cdn.mawaqit.net/images/backend/mosque/808267d1-bab6-43cf-abfb-d7ac20fdf284/mosque/1eea8ebd-68a5-6f6a-969e-066ed47a7584.jpg",
    "address": "Ziya Gökalp",
    "city": "BAŞAKŞEHİR",
    "zipcode": "34306",
    "countryFullName": "Türkiye",
    "lng": 28.7839274,
    "lat": 41.0799347
  },
  {
    "slug": "ipkas-camii-basaksehir-34306-turkey",
    "name": "İPKAS CAMİİ",
    "image1": "https://cdn.mawaqit.net/images/backend/mosque/c1c8ab2f-32dc-4838-a1cf-bf67b549ed5f/mosque/1eea8ebd-769b-649e-b2bc-066ed47a7584.jpg",
    "address": "Ziya Gökalp",
    "city": "BAŞAKŞEHİR",
    "zipcode": "34306",
    "countryFullName": "Türkiye",
    "lng": 28.795037269592,
    "lat": 41.079650382564
  },
  {
    "slug": "merter-veysel-karani-camii-ve-kulliyesi-gungoren-34173-turkiye",
    "name": "Merter Veysel Karani Camii ve Külliyesi",
    "image1": "https://cdn.mawaqit.net/images/backend/mosque/866c3bcc-dcd2-4397-b6ec-eb9244b784ab/mosque/1eed71b9-2dac-63f0-ae36-0a7eba2dd6b3.jpeg",
    "address": "Abdurrahman Nafiz Gürman, Şair Ahmet Kutsi Tecer Cd. No:57",
    "city": "GÜNGÖREN",
    "zipcode": "34173",
    "countryFullName": "Türkiye",
    "lng": 28.8867131,
    "lat": 41.008518
  },
  {
    "slug": "bayraktar-camii-kucukcekmece-34295-turkey",
    "name": "BAYRAKTAR CAMİİ",
    "image1": "https://cdn.mawaqit.net/images/backend/mosque/663d856f-9d96-408f-a6ff-e94045644747/mosque/1eea8ebd-91d6-6f42-8d40-066ed47a7584.jpg",
    "address": "Beşyol, İnönü Cd. No:30",
    "city": "KÜÇÜKCEKMECE",
    "zipcode": "34295",
    "countryFullName": "Türkiye",
    "lng": 28.797512,
    "lat": 40.993512
  },
  {
    "slug": "hafiz-ihsan-ve-haci-sukran-ozokur-camii-kucukcekmece-34303-turkey",
    "name": "Hafız İhsan ve Hacı Şükran Özokur Camii",
    "image1": "https://cdn.mawaqit.net/images/backend/mosque/9712a74b-2c4d-4ecf-86f0-df7b7eb978f4/mosque/1eea8ebd-b9c9-64c8-9ae9-066ed47a7584.jpg",
    "address": "Halkalı Merkez, Koru Cd.",
    "city": "KÜÇÜKÇEKMECE",
    "zipcode": "34303",
    "countryFullName": "Turkey",
    "lng": 28.7876921,
    "lat": 41.0327592
  },
  {
    "slug": "uluslararasi-musluman-alimler-dayanisma-dernegi",
    "name": "İSLAM ALİMLERİ VAKFI",
    "image1": "https://cdn.mawaqit.net/images/backend/mosque/6c4f042f-57ce-40a3-830c-9908423d7097/mosque/1efc37f1-65b5-6636-b7e3-06bada7b305f.jpg",
    "address": "Mevlana, Hürriyet Cd. No:12/1, Esenyurt",
    "city": "İSTANBUL",
    "zipcode": "34517",
    "countryFullName": "Türkiye",
    "lng": 28.6541745,
    "lat": 41.0160976
  },
  {
    "slug": "estonsehir-aksa-camii-basaksehir-34488-turkey",
    "name": "ESTONŞEHİR AKSA CAMİİ",
    "image1": "https://cdn.mawaqit.net/images/backend/mosque/cc010373-5602-4eba-878d-8197ead0b651/mosque/1eea8ed1-0ac9-6ec8-bd5a-066ed47a7584.jpg",
    "address": "Bahçeşehir 1. Kısım, Çamlık Cd.",
    "city": "BAŞAKŞEHİR",
    "zipcode": "34488",
    "countryFullName": "Türkiye",
    "lng": 28.6747601,
    "lat": 41.098986
  },
  {
    "slug": "haci-kamil-demiroz-camii-basaksehir-34488-turkey",
    "name": "HACI KAMİL DEMİRÖZ CAMİİ",
    "image1": "https://cdn.mawaqit.net/images/backend/mosque/ca0d9326-5b84-4e7a-ba31-c9ca33e6aa08/mosque/1eea8ed1-2b49-690a-8b4c-066ed47a7584.jpg",
    "address": "Bahçeşehir 1. Kısım Mah. 2801.Sok.No 14",
    "city": "BAŞAKŞEHİR",
    "zipcode": "34488",
    "countryFullName": "Turkey",
    "lng": 28.6730098,
    "lat": 41.1060315
  },
  {
    "slug": "vadistanbul-camii-kagithane-34408-turkey",
    "name": "VADİSTANBUL CAMİİ",
    "image1": "https://cdn.mawaqit.net/images/backend/mosque/d06f1ad2-e043-4c60-bd6c-bf0b7dba55b5/mosque/1eea8edd-d53a-6ab6-b5ef-066ed47a7584.jpg",
    "address": "Hamidiye",
    "city": "KAĞITHANE",
    "zipcode": "34408",
    "countryFullName": "Türkiye",
    "lng": 28.98419469595,
    "lat": 41.103404737593
  },
  {
    "slug": "19998",
    "name": "Mustafa & Cumali Alper Camii",
    "image1": "https://cdn.mawaqit.net/images/backend/mosque/dacce1f4-f69b-4549-a8d8-f06b94a7e7c4/mosque/1efbe0fc-da44-623c-8aa5-0a21b15e7a1f.png",
    "address": "Süleyman Çelebi Cd No:89, Başakşehir",
    "city": "İSTANBUL",
    "zipcode": "34480",
    "countryFullName": "Türkiye",
    "lng": 28.7879601,
    "lat": 41.0985084
  },
  {
    "slug": "20181",
    "name": "SEMERKAND Hz. Osman camii",
    "image1": "https://cdn.mawaqit.net/images/backend/mosque/14f29d5b-8b66-4756-83a1-d944060b957c/mosque/1efdb333-a965-666a-836a-063aa5df5c67.png",
    "address": "Merkez Çobançeşme Cd. &, Merkez, Ece Sk. No:15, Kağıthane",
    "city": "İSTANBUL",
    "zipcode": "34406",
    "countryFullName": "Türkiye",
    "lng": 28.970657,
    "lat": 41.082286
  },
  {
    "slug": "suleyman-cetinsaya-cami-kucukcekmece-34303-turkiye",
    "name": "SÜLEYMAN ÇETINSAYA CAMI",
    "image1": "https://cdn.mawaqit.net/images/backend/mosque/019434e1-6a45-4587-8f4f-905eb7b99114/mosque/1eeaaf07-ff43-6e62-b72c-061f509c0970.jpeg",
    "address": "Atakent, 234. Sk.",
    "city": "KÜÇÜKÇEKMECE",
    "zipcode": "34303",
    "countryFullName": "Türkiye",
    "lng": 28.7770566,
    "lat": 41.0373258
  },
  {
    "slug": "bahcesehir-haci-osman-isikli-cami",
    "name": "Bahçeşehir Hacı Osman Işıklı Cami",
    "image1": "https://cdn.mawaqit.net/images/backend/mosque/941a2555-737c-4c38-aa8a-ad12b921e6ed/mosque/1efc1dad-0f8c-6cd6-8dce-0ef2881d9837.png",
    "address": "Bahçeşehir 2. Kısım, Seda Sokağı No:2",
    "city": "İSTANBUL",
    "zipcode": "34488",
    "countryFullName": "Türkiye",
    "lng": 28.6732604,
    "lat": 41.0680507
  },
  {
    "slug": "mesudiye-merkez-camii-ordu-mesudiye-52900-turkiye",
    "name": "MESUDİYE MERKEZ CAMİİ",
    "image1": "https://cdn.mawaqit.net/images/backend/mosque/11742a2f-4958-4f45-ba1f-f370e4288be6/mosque/1eed71b3-d74d-6d60-b780-0ede686d7942.jpeg",
    "address": "Merkez, Cami Sk. No:9, 52900 ORDU / MESUDİYE",
    "city": "ORDU / MESUDİYE",
    "zipcode": "52900",
    "countryFullName": "Türkiye",
    "lng": 37.7728766,
    "lat": 40.4635613
  },
  {
    "slug": "onvo-electronics-mescit-buyukcekmece-istanbul-34537-turkiye",
    "name": "ONVO Electronics Mescit",
    "image1": "https://cdn.mawaqit.net/images/backend/mosque/a06e98fa-d9d0-42c5-ab94-cd323a7006e9/mosque/1eee50bf-7d8e-6efa-b7b1-0a9258a77f81.jpeg",
    "address": "Mimaroba Mahallesi, Fatih Caddesi, ONVO Fabrikası",
    "city": "BÜYÜKÇEKMECE/İSTANBUL",
    "zipcode": "34537",
    "countryFullName": "Türkiye",
    "lng": 28.528670133375,
    "lat": 41.007687734472
  },
  {
    "slug": "favziye-kutup-camii-istanbul-34480-turkiye",
    "name": "Sarıdere Köyü Camii",
    "image1": "https://cdn.mawaqit.net/images/backend/mosque/86d9be8f-3935-424d-83bb-1b206d9a4d2d/mosque/1ef9cd06-00ea-6538-8e0e-0e9d077f5bb1.png",
    "address": "Sarıdere, Gölyaka",
    "city": "DüZCE",
    "zipcode": "34480",
    "countryFullName": "Türkiye",
    "lng": 30.999741,
    "lat": 40.823557
  },
  {
    "slug": "kocatepe-camii-cankaya-ankara-06800-turkiye",
    "name": "Kocatepe Camii",
    "image1": "https://cdn.mawaqit.net/images/backend/mosque/a50c0f12-87ab-4ca4-81be-b1022cc76a30/mosque/1ef05a34-a33c-6118-9349-0621eb7171ad.png",
    "address": "WV86+J7 Çankaya, Ankara",
    "city": "ÇANKAYA/ANKARA",
    "zipcode": "06800",
    "countryFullName": "Türkiye",
    "lng": 32.8606875,
    "lat": 39.9165625
  },
  {
    "slug": "ahmet-hamdi-akseki-cami-cankaya-ankara-06800-turkiye",
    "name": "Ahmet Hamdi Akseki Cami",
    "image1": "https://cdn.mawaqit.net/images/backend/mosque/7f2e014f-8628-459c-aa43-68ab534bbff3/mosque/1ef05a49-e71c-6238-b352-0621eb7171ad.png",
    "address": "WQ47+J6 Çankaya, Ankara",
    "city": "ÇANKAYA/ANKARA",
    "zipcode": "06800",
    "countryFullName": "Türkiye",
    "lng": 32.7630625,
    "lat": 39.9065625
  },
  {
    "slug": "batisehir-camii-istanbul-34214-turkiye",
    "name": "BATIŞEHİR CAMİİ",
    "image1": "https://cdn.mawaqit.net/images/backend/mosque/d28e65c0-01ff-4f18-8aec-5c4f6dc5cdca/mosque/1ef1e5b2-9fcb-6172-99f7-0acd791c875b.jpeg",
    "address": "Göztepe Mah. Batışehir Cad. No:30  Bağcılar",
    "city": "İSTANBUL",
    "zipcode": "34214",
    "countryFullName": "Türkiye",
    "lng": 28.8405269,
    "lat": 41.0635555
  },
  {
    "slug": "kemeryani-koyu-camii",
    "name": "Kemeryanı köyü Camii",
    "image1": "https://cdn.mawaqit.net/images/backend/mosque/3aa6f5fb-61f7-473e-84a6-ab4e2d2f90e8/mosque/1ef2b29c-cca0-6d84-97dc-06d2706c027b.jpg",
    "address": "Kemeryanı, 81800 Kemeryanı/Gölyaka,",
    "city": "DÜZCE",
    "zipcode": "81802",
    "countryFullName": "Türkiye",
    "lng": 31.0124039,
    "lat": 40.8225842
  },
  {
    "slug": "masjid-lasala-ltalimia-ucevler-mah-34513-turkiye",
    "name": "مسجد الأصالة التعليمية",
    "image1": "https://cdn.mawaqit.net/images/backend/mosque/6eab6dc0-e5ab-4ce7-afbf-997f52be25ee/mosque/1ef77323-b263-6330-bd07-0ecd6770c589.jpg",
    "address": "Fatih Mh. bahçe yolu cad. N.ŞEHİR 2 c1 blok kapı no: 7 esenyurt istanbul",
    "city": ".UçEVLER MAH",
    "zipcode": "34513",
    "countryFullName": "Türkiye",
    "lng": 28.9783589,
    "lat": 41.0082376
  },
  {
    "slug": "masjid-majmaa-mafira-1-istanboul-34488-turkiye",
    "name": "Park Mavera 1 Mescid",
    "image1": "https://cdn.mawaqit.net/images/backend/mosque/d60cb3df-b7e3-4b3d-aeb6-a6771c40a86d/mosque/1ef7bb4c-5466-6856-b3b2-0affcb0701ab.jpg",
    "address": "Park mavera1",
    "city": "اسطنبول",
    "zipcode": "34488",
    "countryFullName": "Türkiye",
    "lng": 28.7719629,
    "lat": 41.1169895
  },
  {
    "slug": "msjd-lshb-istanbul-34517-turkiye",
    "name": "مسجد الصحابة",
    "image1": "https://cdn.mawaqit.net/images/backend/mosque/de2d5e5d-03ba-459a-908e-e60ad4c67c86/mosque/1efa2cd2-cc1a-6e02-845a-0a0389a4e0f5.jpg",
    "address": "Pınar mehlsi Esenyurt",
    "city": "İSTANBUL",
    "zipcode": "34517",
    "countryFullName": "Türkiye",
    "lng": 28.668968501147,
    "lat": 41.030980920873
  },
  {
    "slug": "kaliceci-hasanaga-mescidi-istanbul-34126-turkiye",
    "name": "Kaliçeci Hasanağa Mescidi",
    "image1": "https://cdn.mawaqit.net/images/backend/mosque/d98b50c5-becc-4940-ad3f-9f9065af621d/mosque/1efa7136-2ddf-6014-8257-0a0389a4e0f5.jpeg",
    "address": "Yeniçeriler Caddesi Beyazıt",
    "city": "İSTANBUL",
    "zipcode": "34126",
    "countryFullName": "Türkiye",
    "lng": 28.9673857,
    "lat": 41.008874
  },
  {
    "slug": "31682",
    "name": "Bahçeşehir Derviş Ağa Cami",
    "image1": "https://cdn.mawaqit.net/images/backend/mosque/a6f529bd-b0b8-47a4-8b6c-75852c875d0f/mosque/1eff5c7f-6ff4-68e4-8a36-0e61b0058d45.png",
    "address": "Bahçeşehir 2. Kısım,  Başakşehir",
    "city": "İSTANBUL",
    "zipcode": "34488",
    "countryFullName": "Türkiye",
    "lng": 28.681284785271,
    "lat": 41.073109402673
  },
  {
    "slug": "suheda-camii-uskudar-istanbul-34674-turkiye",
    "name": "ŞÜHEDA CAMİ",
    "image1": "https://cdn.mawaqit.net/images/backend/mosque/bb85dd8b-ca9b-47a4-842c-0d3bb406a582/mosque/1efec547-cec4-6df8-8f67-0e61b0058d45.jpg",
    "address": "Kuzguncuk Mah., Nevnihal Sk. No:12",
    "city": "ÜSKÜDAR/İSTANBUL",
    "zipcode": "34674",
    "countryFullName": "Türkiye",
    "lng": 29.041746854782,
    "lat": 41.037238710606
  },
  {
    "slug": "kudus-masjid-istanbul-34480-turkiye",
    "name": "Kudus Masjid",
    "image1": "https://cdn.mawaqit.net/images/backend/mosque/96e5e4b8-6a30-4b9f-bec0-232a25e8d6e1/mosque/1eff3727-c866-6afe-b4ae-0e61b0058d45.jpg",
    "address": "KAYABAŞI MAH. ULUBATLI HASAN CAD. GİRİŞ KAYAŞEHİR D BLOK NO: 2 H İÇ KAPI NO: 82 BAŞAKŞEHİR/ İSTANBUL",
    "city": "İSTANBUL",
    "zipcode": "34480",
    "countryFullName": "Türkiye",
    "lng": 28.7684293,
    "lat": 41.1021181
  },
  {
    "slug": "haci-osman-torun-camii-eyupsultan-34060-istanbul-turkiye",
    "name": "HACI OSMAN TORUN CAMİİ",
    "image1": "https://cdn.mawaqit.net/images/backend/mosque/f7759ff4-c38e-4742-a87a-15ce368fabb8/mosque/1f016120-bcd4-6a7c-88d1-06bdda781935.png",
    "address": "5. Levent, Fatih Sultan Mehmet Blv No:12, Eyüpsultan/İstanbul, Türkiye",
    "city": "İSTANBUL",
    "zipcode": "34060",
    "countryFullName": "Türkiye",
    "lng": 28.9448833,
    "lat": 41.0887315
  },
  {
    "slug": "-12",
    "name": "ŞEHİT TAHSİN GEREKLİ CAMİİ",
    "image1": "https://cdn.mawaqit.net/images/backend/mosque/84fbc3a7-8e36-4693-b4ae-90450320fed0/mosque/1f001db2-cdd5-605e-a17e-06bdda781935.png",
    "address": "Tahtakale, 34325 Avcılar/İstanbul",
    "city": "İSTANBUL",
    "zipcode": "34325",
    "countryFullName": "Türkiye",
    "lng": 28.699391,
    "lat": 41.0449311
  },
  {
    "slug": "mosquee-taqwa-zeralda-16063-algeria-1",
    "name": "Tunahan Cami",
    "image1": "https://cdn.mawaqit.net/images/backend/mosque/857128d9-b4a0-4d52-9b41-85930bfee08e/mosque/1f036e3f-dbb8-64ce-8d96-0acbbde44e7f.png",
    "address": "Başak, Yunus Emre Cd. no:10",
    "city": "BAŞAKŞEHIR",
    "zipcode": "34480",
    "countryFullName": "Türkiye",
    "lng": 28.8066479,
    "lat": 41.1134458
  },
  {
    "slug": "yesilova-merkez-camii-yesilova-burdur-15500-turkiye",
    "name": "YEŞİLOVA MERKEZ YENİ CAMİİ",
    "image1": "https://cdn.mawaqit.net/images/backend/mosque/fc7b7090-37a9-4f18-9eee-bc569a14064b/mosque/1f028f1a-7015-6a82-ad0c-06df4152832f.jpeg",
    "address": "Merkez, Çukurçeşme Sokak, 15500 Yeşilova/Burdur, Türkiye",
    "city": "YESILOVA/BURDUR",
    "zipcode": "15500",
    "countryFullName": "Türkiye",
    "lng": 29.7555117,
    "lat": 37.5081932
  }
]