[
  {
    "slug": "masjidalnoorsydney",
    "name": "Masjid Al Noor",
    "image1": "https://cdn.mawaqit.net/images/backend/mosque/abd045e5-3688-4324-a830-de0580a7ae1e/mosque/1eea8dc8-4584-6ea0-9910-066ed47a7584.jpg",
    "address": "1-3 Ferndell Street",
    "city": "South-Granville",
    "zipcode": "2142",
    "countryFullName": "Australia",
    "lng": 151.009842,
    "lat": -33.863873
  },
  {
    "slug": "snwmc-mosque-sydney-2155-australia",
    "name": "Rouse Hill Musalla",
    "image1": "https://cdn.mawaqit.net/images/backend/mosque/d2c5af29-7dcd-4182-9f1d-d7d64ffcecab/mosque/1eea8e15-1e24-682c-baca-066ed47a7584.jpg",
    "address": "589 Withers Rd, Rouse Hill NSW 2155",
    "city": "Sydney",
    "zipcode": "2155",
    "countryFullName": "Australia",
    "lng": 150.9212576,
    "lat": -33.6747558
  },
  {
    "slug": "geelong-mosque-manifold-heights-3218-australia",
    "name": "Geelong Mosque",
    "image1": "https://cdn.mawaqit.net/images/backend/mosque/5cbf0b5a-e86a-4cb0-8330-a4f6a20a319d/mosque/1eea8e49-80b4-6486-9310-066ed47a7584.jpg",
    "address": "45-47 BOSTOCK AVENUE",
    "city": "Manifold-Heights",
    "zipcode": "3218",
    "countryFullName": "Australia",
    "lng": 144.3339959,
    "lat": -38.1337254
  },
  {
    "slug": "onespace-center-springvale-3171-australia-1",
    "name": "Onespace Center",
    "image1": "https://cdn.mawaqit.net/images/backend/mosque/f9de0acc-40c4-4be1-bd53-9b4c94587c84/mosque/1eea8e53-bd57-6262-8e57-066ed47a7584.jpg",
    "address": "3/52 Smiths Road",
    "city": "Springvale",
    "zipcode": "3171",
    "countryFullName": "Australia",
    "lng": 145.1697288,
    "lat": -37.9406799
  },
  {
    "slug": "moorooka-mosque-brisbane-4105-australia",
    "name": "Moorooka Mosque",
    "image1": "https://cdn.mawaqit.net/images/backend/mosque_default_picture.png",
    "address": "51 Mayfield Road",
    "city": "Brisbane",
    "zipcode": "4105",
    "countryFullName": "Australia",
    "lng": 153.0275945,
    "lat": -27.5334089
  },
  {
    "slug": "marsden-park-masjid-sydney-2765-australia",
    "name": "Marsden Park Masjid",
    "image1": "https://cdn.mawaqit.net/images/backend/mosque/a4efc151-a772-499e-b70e-e54644c89053/mosque/1eea8e5d-eb84-6bf8-a011-066ed47a7584.jpg",
    "address": "16 Wealtheasy St, Riverstone NSW 2765",
    "city": "Sydney",
    "zipcode": "2765",
    "countryFullName": "Australia",
    "lng": 150.84282,
    "lat": -33.6809753
  },
  {
    "slug": "riverstone-masjid-sydney-2765-australia",
    "name": "Riverstone Musallah (Temp)",
    "image1": "https://cdn.mawaqit.net/images/backend/mosque/7cd3cc8a-1184-45ea-ac15-eec3475bc522/mosque/1eea8e8a-aa88-615e-93c0-066ed47a7584.jpg",
    "address": "158 Riverstone Rd, Riverstone NSW 2765",
    "city": "SYDNEY",
    "zipcode": "2765",
    "countryFullName": "Australia",
    "lng": 150.8794291,
    "lat": -33.6798437
  },
  {
    "slug": "khaled-ibn-al-waleed-mosque-greenacre-2190-australia",
    "name": "Khaled Ibn Al waleed mosque",
    "image1": "https://cdn.mawaqit.net/images/backend/mosque/7133e5cf-5ea0-4560-86e8-b89343eaf3f3/mosque/1eea8e8e-acc0-6738-adca-066ed47a7584.jpg",
    "address": "31-35 Anzac Street",
    "city": "GREENACRE",
    "zipcode": "2190",
    "countryFullName": "Australia",
    "lng": 151.0420481,
    "lat": -33.9019132
  },
  {
    "slug": "kellyville-sydney-2155-australia-1",
    "name": "Kellyville-Closed, Relocation in progres",
    "image1": "https://cdn.mawaqit.net/images/backend/mosque/6f6e1065-025e-4358-b707-ab2236d77150/mosque/1eeac20c-0685-6682-94bf-0edc40567d2a.jpeg",
    "address": "28 Windsor Rd, Kellyville NSW 2155",
    "city": "SYDNEY",
    "zipcode": "2155",
    "countryFullName": "Australia",
    "lng": 150.9591215,
    "lat": -33.713846
  },
  {
    "slug": "quakers-hill-masjid-quakers-hill-nsw-2763-australia",
    "name": "Quakers Hill Masjid",
    "image1": "https://cdn.mawaqit.net/images/backend/mosque/87e8080c-ccb8-43ec-99c7-f4be4cf59264/mosque/1eeb0825-e0ee-6792-93b5-0aedfd0440f0.png",
    "address": "37 Douglas Road",
    "city": "QUAKERS HILL",
    "zipcode": "NSW 2763",
    "countryFullName": "Australia",
    "lng": 150.8819719,
    "lat": -33.7289358
  },
  {
    "slug": "homebush-masjid-homebush-2140-australia",
    "name": "Homebush Masjid",
    "image1": "https://cdn.mawaqit.net/images/backend/mosque/113e2acd-9c36-438d-bf64-c3353d1ed4d4/mosque/1eed94ff-b522-6910-8980-0a7eba2dd6b3.jpeg",
    "address": "114 Burlington Road",
    "city": "HOMEBUSH",
    "zipcode": "2140",
    "countryFullName": "Australia",
    "lng": 151.0782741,
    "lat": -33.8660842
  },
  {
    "slug": "hia-centre-baulkham-hills-2153-australia",
    "name": "HIA Centre",
    "image1": "https://cdn.mawaqit.net/images/backend/mosque/53258a90-1378-4179-b8e2-fd8567447c6b/mosque/1eed9525-785f-6318-a61b-0ede686d7942.jpg",
    "address": "25-33 Old Northern Rd",
    "city": "BAULKHAM HILLS",
    "zipcode": "2153",
    "countryFullName": "Australia",
    "lng": 150.9932434,
    "lat": -33.7578977
  },
  {
    "slug": "icmg-parafield-gardens-masjid-parafield-gardens-5107-australia",
    "name": "ICMG Parafield Gardens Masjid",
    "image1": "https://cdn.mawaqit.net/images/backend/mosque/ca4e5f98-0585-4b33-8f01-30852e12c024/mosque/1eed9c12-acbe-6958-9788-0a7eba2dd6b3.jpg",
    "address": "92 Shepherdson Road",
    "city": "PARAFIELD GARDENS",
    "zipcode": "5107",
    "countryFullName": "Australia",
    "lng": 138.6088027,
    "lat": -34.7829733
  },
  {
    "slug": "carramar-mosque-carramar-2163-australia",
    "name": "Carramar Mosque",
    "image1": "https://cdn.mawaqit.net/images/backend/mosque/f82e95ed-b2dc-4f39-8ce6-30cacd95a1aa/mosque/1ef21805-1cc1-60a8-84a1-0ecb5e3f0f5f.jpg",
    "address": "1/196 Sandal Cres",
    "city": "CARRAMAR",
    "zipcode": "2163",
    "countryFullName": "Australia",
    "lng": 150.9601318,
    "lat": -33.883664
  },
  {
    "slug": "darul-nasiha-bankstown-2200-australia-1",
    "name": "DARUL NASIHAH - Bankstown",
    "image1": "https://cdn.mawaqit.net/images/backend/mosque/95d37c76-80a6-4d33-9002-cfbb09256e2f/mosque/1ef3b59d-772d-6438-a6f8-0eccd22c0f01.jpg",
    "address": "1 Mona st",
    "city": "BANKSTOWN",
    "zipcode": "2200",
    "countryFullName": "Australia",
    "lng": 151.0325918,
    "lat": -33.9201265
  },
  {
    "slug": "masjidul-rahman-al-jaami-minto-masjid-minto-2566-australia",
    "name": "Masjidul Rahman Al Jaami (Minto Masjid)",
    "image1": "https://cdn.mawaqit.net/images/backend/mosque/ccf1ffe1-aec3-4230-bd57-18e9b9c6ac08/mosque/1ef3d06f-efe0-6320-8632-0a67bcb0d635.jpeg",
    "address": "44 Westmoreland Road",
    "city": "MINTO",
    "zipcode": "2566",
    "countryFullName": "Australia",
    "lng": 150.8484736,
    "lat": -34.0433955
  },
  {
    "slug": "masjid-imcv-surau-kita-coburg-north-melbourne-3058-australia",
    "name": "Masjid IMCV - Surau Kita",
    "image1": "https://cdn.mawaqit.net/images/backend/mosque/cf1cc14a-b8a0-44cd-8fc8-4836d21e391b/mosque/1ef84aca-88ca-66e8-bfc4-0affcb0701ab.jpg",
    "address": "Unit 12/9 Dawson St",
    "city": "COBURG NORTH, MELBOURNE",
    "zipcode": "3058",
    "countryFullName": "Australia",
    "lng": 144.9577911,
    "lat": -37.731408
  },
  {
    "slug": "madeenathul-uloom-community-centre-springvale-3171-australia",
    "name": "Madeenathul Uloom Myanmar Community Cnt",
    "image1": "https://cdn.mawaqit.net/images/backend/mosque/cd3ba4c9-2118-4e5e-8b2b-b766db2ec468/mosque/1ef8a16d-dd3b-6912-b536-0671c73660c5.jpg",
    "address": "Level 1 343-345 Springvale Rd",
    "city": "SPRINGVALE",
    "zipcode": "3171",
    "countryFullName": "Australia",
    "lng": 145.1527085,
    "lat": -37.9514056
  },
  {
    "slug": "rcc-springvale-springvale-3171-australia",
    "name": "RCC Springvale",
    "image1": "https://cdn.mawaqit.net/images/backend/mosque/641a5906-0c85-449a-970c-55bbe2744b19/mosque/1ef8ec82-871c-6198-bd18-0671c73660c5.jpg",
    "address": "2 Victoria Ave",
    "city": "SPRINGVALE",
    "zipcode": "3171",
    "countryFullName": "Australia",
    "lng": 145.1479523,
    "lat": -37.9462082
  },
  {
    "slug": "uthman-mosque-shellharbour-oak-flats-2529-australia",
    "name": "Uthman Mosque Shellharbour",
    "image1": "https://cdn.mawaqit.net/images/backend/mosque/486c3a43-4091-45e4-80d4-cb208bfe5ae8/mosque/1efba65f-6bfb-626c-9bd5-0ef2881d9837.jpeg",
    "address": "59 Parkes Street",
    "city": "OAK FLATS",
    "zipcode": "2529",
    "countryFullName": "Australia",
    "lng": 150.8175326,
    "lat": -34.5612922
  },
  {
    "slug": "darwin-cbd-umnt-darwin-0800-australia",
    "name": "Darwin CBD Musalla",
    "image1": "https://cdn.mawaqit.net/images/backend/mosque/ca1ba78d-8ca8-4a63-a42a-cdbb7a015ed8/mosque/1efd71b5-493c-6ef6-af5b-06bada7b305f.png",
    "address": "1/24 Litchfield Street, Darwin City",
    "city": "DARWIN",
    "zipcode": "0800",
    "countryFullName": "Australia",
    "lng": 130.8426532,
    "lat": -12.4608597
  },
  {
    "slug": "32863",
    "name": "Bankstown Masjid",
    "image1": "https://cdn.mawaqit.net/images/backend/mosque/94356952-d3f8-4062-a7a5-c0c0157b8a51/mosque/1eff0966-5a79-60a8-935c-0e61b0058d45.jpeg",
    "address": "30 Meredith St",
    "city": "BANKSTOWN NSW",
    "zipcode": "2200",
    "countryFullName": "Australia",
    "lng": 151.031358,
    "lat": -33.9152668
  },
  {
    "slug": "iewad-narre-warren-north-3804-australia",
    "name": "IEWAD",
    "image1": "https://cdn.mawaqit.net/images/backend/mosque/336129eb-264f-418e-9c8a-ad23c3b2a67e/mosque/1efef7b7-e804-6ee2-a573-0e61b0058d45.jpg",
    "address": "131-133 Belgrave-Hallam Rd",
    "city": "NARRE WARREN NORTH",
    "zipcode": "3804",
    "countryFullName": "Australia",
    "lng": 145.2786173,
    "lat": -37.9894024
  },
  {
    "slug": "gosford-masjid-narara-2250-australia",
    "name": "Gosford Masjid",
    "image1": "https://cdn.mawaqit.net/images/backend/mosque/a1245e55-d6ed-493e-988f-c598a500cd36/mosque/1effc915-b4bb-6c5e-a09a-0a2e1c0b5725.jpg",
    "address": "75 Showground Rd",
    "city": "NARARA",
    "zipcode": "2250",
    "countryFullName": "Australia",
    "lng": 151.345651,
    "lat": -33.4030789
  },
  {
    "slug": "al-bayyinah-islamic-centre-melbourne-3175-australia",
    "name": "Al Bayyinah Islamic Centre",
    "image1": "https://cdn.mawaqit.net/images/backend/mosque/0d1d84da-8041-4196-aaa5-6b545352b7d2/mosque/1effca2a-66c8-6716-80bb-0e61b0058d45.jpg",
    "address": "107 foster Street, Dandenong",
    "city": "MELBOURNE",
    "zipcode": "3175",
    "countryFullName": "Australia",
    "lng": 145.2133525,
    "lat": -37.9900379
  },
  {
    "slug": "la-trobe-mosque-melbourne-3083-australia",
    "name": "La Trobe Mosque",
    "image1": "https://cdn.mawaqit.net/images/backend/mosque/6521fbc0-2cd6-4419-b6d0-c0ee3a495063/mosque/1f01abc5-0bf2-6e08-94d4-0e61b0058d45.jpg",
    "address": "5 The Agora, Bundoora VIC 3083, Australia",
    "city": "MELBOURNE",
    "zipcode": "3083",
    "countryFullName": "Australia",
    "lng": 145.0488414,
    "lat": -37.7207449
  }
]