[
  {
    "slug": "centre-rayan-sainte-therese",
    "name": "Centre Rayan - مركزالريان",
    "image1": "https://cdn.mawaqit.net/images/backend/mosque/a27ca690-d25e-425d-ad57-4e65dededd83/mosque/1efaff90-5cf1-61f2-976c-0e9d077f5bb1.jpg",
    "address": "local 9, 110 Boulevard Curé-Labelle",
    "city": "Sainte-Thérèse",
    "zipcode": "J7E2X5",
    "countryFullName": "Canada",
    "lng": -73.8297321,
    "lat": 45.6412091
  },
  {
    "slug": "mosquee-de-rimouski-rimouski",
    "name": "Mosquée de Rimouski",
    "image1": "https://cdn.mawaqit.net/images/backend/mosque/765f2b69-5fba-46d0-9264-be069adb4044/mosque/1eea8d98-c309-607c-95ac-066ed47a7584.jpg",
    "address": "111 rue Saint-Jean-Baptiste Est",
    "city": "Rimouski",
    "zipcode": "G5L1Y5",
    "countryFullName": "CANADA",
    "lng": -68.5192826,
    "lat": 48.4510566
  },
  {
    "slug": "assahaba-mtl",
    "name": "Mosquée Assahaba - مسجد الصحابة",
    "image1": "https://cdn.mawaqit.net/images/backend/mosque/861f136f-3f1c-4cca-9bc7-45e784529034/mosque/1ef7bf6f-5b69-6fc8-a2e3-0600dbafaeef.jpg",
    "address": "4201 rue Bélanger",
    "city": "Montréal",
    "zipcode": "H1T1A4",
    "countryFullName": "Canada",
    "lng": -73.5869,
    "lat": 45.5657554
  },
  {
    "slug": "cci-granby",
    "name": "Centre Culturel Islamique Granby",
    "image1": "https://cdn.mawaqit.net/images/backend/mosque/d5a500da-2dae-47e7-a18c-a787e400df21/mosque/1efbd92f-a19c-624c-bdd1-0ef2881d9837.jpg",
    "address": "317-1 rue Racine",
    "city": "Granby",
    "zipcode": "J2G3B6",
    "countryFullName": "Canada",
    "lng": -72.7313709,
    "lat": 45.4006244
  },
  {
    "slug": "masjid-al-hadi-toronto",
    "name": "Masjid Al-Hadi",
    "image1": "https://cdn.mawaqit.net/images/backend/mosque_default_picture.png",
    "address": "40 South Station St.",
    "city": "Toronto",
    "zipcode": "M9N2B3",
    "countryFullName": "CANADA",
    "lng": -79.5169146,
    "lat": 43.7010165
  },
  {
    "slug": "assuna-mtl",
    "name": "Assuna Annabawiyah - السنة النبوية",
    "image1": "https://cdn.mawaqit.net/images/backend/mosque/266b6e61-11f6-4363-acf5-a89b76c0ada7/mosque/1ef7be1e-b6dc-670e-9079-0600dbafaeef.jpg",
    "address": "7220 Hutchison",
    "city": "Montréal",
    "zipcode": "H3N 1Z1",
    "countryFullName": "Canada",
    "lng": -73.6232587,
    "lat": 45.5297147
  },
  {
    "slug": "cciq",
    "name": "Centre Culturel Islamique de Québec GMQ",
    "image1": "https://cdn.mawaqit.net/images/backend/mosque/94d6ce7f-817d-4b17-b4c6-3883e6af0c4c/mosque/1ef920b3-04a6-665e-b3c0-0671c73660c5.jpeg",
    "address": "2877 chemin Sainte-Foy",
    "city": "Québec",
    "zipcode": "G1V 1W3",
    "countryFullName": "Canada",
    "lng": -71.305444,
    "lat": 46.777942
  },
  {
    "slug": "ccmv",
    "name": "Centre Al Manar",
    "image1": "https://cdn.mawaqit.net/images/backend/mosque_default_picture.png",
    "address": "2023A Rte Marie-Victorin",
    "city": "VARENNES",
    "zipcode": "QC J3X 1R3",
    "countryFullName": "Canada",
    "lng": -73.4375111,
    "lat": 45.6778314
  },
  {
    "slug": "mosquee-rahman-ctr-culturel-sherbrooke-qc",
    "name": "Mosquée A'Rahmane مسجد الرحمن",
    "image1": "https://cdn.mawaqit.net/images/backend/mosque/610e2f71-f0a5-496e-accc-7d0dad0cae4d/mosque/1f02bb1b-7725-6070-8ce1-0e31fcfe1275.jpg",
    "address": "1200 Rue Massé",
    "city": "SHERBROOKE",
    "zipcode": "QC J1H 5X2",
    "countryFullName": "Canada",
    "lng": -71.9060333,
    "lat": 45.3860753
  },
  {
    "slug": "aman-laval",
    "name": "Centre Aman-Laval - مسجد آمان",
    "image1": "https://cdn.mawaqit.net/images/backend/mosque/5cf15399-6caa-4781-a885-6b17cf1918b8/mosque/1ef7aeed-7d82-661a-8bf4-0affcb0701ab.jpg",
    "address": "35 Boulevard Curé-Labelle",
    "city": "Laval-québec",
    "zipcode": "H7L 2Y8",
    "countryFullName": "Canada",
    "lng": -73.7929557,
    "lat": 45.6115694
  },
  {
    "slug": "ccvmac-montreal",
    "name": "Mosquée Aboubakr / مسجد أبو بكر",
    "image1": "https://cdn.mawaqit.net/images/backend/mosque/8abefbdc-0029-47d3-bbde-0290baf31ecc/mosque/1ef56448-0ef0-6630-83f4-0a2db9a71779.jpg",
    "address": "371 rue Jean Talon Est",
    "city": "Montréal",
    "zipcode": "H2R 1T4",
    "countryFullName": "Canada",
    "lng": -73.614871,
    "lat": 45.5380763
  },
  {
    "slug": "alforqane-laval",
    "name": "Mosquée Al-Forqane",
    "image1": "https://cdn.mawaqit.net/images/backend/mosque/e0fa2b72-ef38-498f-b92d-76dcb288c1a4/mosque/1f0140e4-bda9-6f8a-a4e7-0e61b0058d45.jpg",
    "address": "3390 bd St rose",
    "city": "Laval",
    "zipcode": "H7R 5E8",
    "countryFullName": "Canada",
    "lng": -73.8720458,
    "lat": 45.5489095
  },
  {
    "slug": "aliman-laval",
    "name": "Centre Al-Iman - مركز الايمان",
    "image1": "https://cdn.mawaqit.net/images/backend/mosque/518dbb9d-78bc-4938-b1a9-ae804407fefb/mosque/1f00109d-ccd3-6fa6-98bc-0a2e1c0b5725.jpg",
    "address": "5060 Boulevard des Laurentides",
    "city": "Laval",
    "zipcode": "H7K 2J5",
    "countryFullName": "Canada",
    "lng": -73.746051,
    "lat": 45.620567
  },
  {
    "slug": "alrawdah-mac",
    "name": "مسجد الروضة",
    "image1": "https://cdn.mawaqit.net/images/backend/mosque/e8f12717-c99a-4f80-bc9c-5fead2281cec/mosque/1eea8db1-1c1b-6332-a459-066ed47a7584.jpg",
    "address": "12265, Boul. Laurentien",
    "city": "Montréal",
    "zipcode": "H4K 1N5",
    "countryFullName": "Canada",
    "lng": -73.7224937,
    "lat": 45.529379
  },
  {
    "slug": "kawtar-laval",
    "name": "Centre Kawtar - مركز الكوثر",
    "image1": "https://cdn.mawaqit.net/images/backend/mosque/651090de-883e-490a-b484-43e9832a574e/mosque/1ef757e7-af43-6814-81de-0ecd6770c589.jpg",
    "address": "3871 Autoroute des Laurentides",
    "city": "Laval",
    "zipcode": "H7L 3H7",
    "countryFullName": "Canada",
    "lng": -73.763279,
    "lat": 45.582436
  },
  {
    "slug": "al-jisr-laval",
    "name": "Centre Aljisr مركز الجسر",
    "image1": "https://cdn.mawaqit.net/images/backend/mosque/1b5af4cc-a1e7-4d44-a770-d82604142111/mosque/1ef564d8-ae79-6522-a734-0a2db9a71779.jpg",
    "address": "3005 cartier ouest",
    "city": "Laval",
    "zipcode": "H7V 1J3",
    "countryFullName": "Canada",
    "lng": -73.7259075,
    "lat": 45.5431039
  },
  {
    "slug": "al-bayane-mtl",
    "name": "Mosquée Al-Bayane",
    "image1": "https://cdn.mawaqit.net/images/backend/mosque/e42e7342-d168-4724-a388-cb68ea13627b/mosque/1eea8df2-1ad1-6daa-b3b2-066ed47a7584.jpg",
    "address": "5865 Bd Saint-Michel",
    "city": "Montréal",
    "zipcode": "H1Y 2E3",
    "countryFullName": "Canada",
    "lng": -73.579947,
    "lat": 45.55324
  },
  {
    "slug": "kma-masjid-ottawa",
    "name": "Kanata Muslim Association",
    "image1": "https://cdn.mawaqit.net/images/backend/mosque/3e8374cd-4d81-4763-92c4-270b05251700/mosque/1eea8dfb-2514-63cc-b53d-066ed47a7584.jpg",
    "address": "351 Sandhill Road",
    "city": "Ottawa",
    "zipcode": "K2k1x7",
    "countryFullName": "Canada",
    "lng": -75.9283718,
    "lat": 45.356128
  },
  {
    "slug": "civmac",
    "name": "المركز الإسلامي بفردان",
    "image1": "https://cdn.mawaqit.net/images/backend/mosque/d99b585c-cc8c-40b6-be83-db83d78142d6/mosque/1eea8e0d-47c2-6bd2-9b60-066ed47a7584.jpg",
    "address": "4538 Rue de Verdun",
    "city": "Montreal",
    "zipcode": "H4G1M3",
    "countryFullName": "Canada",
    "lng": -73.5715493,
    "lat": 45.4590157
  },
  {
    "slug": "imam-warch",
    "name": "Mosquée Imam Warch - مسجد الإمام ورش",
    "image1": "https://cdn.mawaqit.net/images/backend/mosque/9a11fce4-12da-486b-b2f0-a1fc947f9ea7/mosque/1eea8e0f-984d-6474-b7a0-066ed47a7584.jpg",
    "address": "3210 Boulevard Henri-Bourassa Est",
    "city": "Montreal",
    "zipcode": "QC H1H 5T1",
    "countryFullName": "Canada",
    "lng": -73.6502414,
    "lat": 45.5831793
  },
  {
    "slug": "ccblaurentides",
    "name": "Centre CCBL",
    "image1": "https://cdn.mawaqit.net/images/backend/mosque/4e7ae8c2-72a3-42ac-977a-e336b7956e18/mosque/1eea8e13-eed9-6596-b1f9-066ed47a7584.jpg",
    "address": "2950 Boul. Des Promenades",
    "city": "Sainte-Marthe-Sur-Le-Lac",
    "zipcode": "QC J0N 1P0",
    "countryFullName": "Canada",
    "lng": -73.9312208,
    "lat": 45.5327225
  },
  {
    "slug": "sheikh-zayed-cultural-islamique-center-lasalle-h8r3j2-canada",
    "name": "Lasalle Islamic Center",
    "image1": "https://cdn.mawaqit.net/images/backend/mosque/9fe125ab-add7-4098-9edd-e4db017bd4e6/mosque/1eea8e1c-d785-6b7a-9273-066ed47a7584.jpg",
    "address": "495 Av Lafleur",
    "city": "Lasalle",
    "zipcode": "H8R3J2",
    "countryFullName": "Canada",
    "lng": -73.6455842,
    "lat": 45.4339173
  },
  {
    "slug": "al-houda-mtl",
    "name": "Islamic Center Al Houda - ICH",
    "image1": "https://cdn.mawaqit.net/images/backend/mosque/d4d34ebe-f11b-44e6-abc0-4ec17c6bcaec/mosque/1eea8e1f-6f22-6e04-b7a6-066ed47a7584.jpg",
    "address": "9935 Av Lausanne",
    "city": "Montréal-Nord",
    "zipcode": "H1H 5A6",
    "countryFullName": "Canada",
    "lng": -73.6382701,
    "lat": 45.5779019
  },
  {
    "slug": "cio-gatineau",
    "name": "Mosquée de Gatineau - CIO",
    "image1": "https://cdn.mawaqit.net/images/backend/mosque/e9601e9b-2d64-482d-9748-4d2da8d3f2da/mosque/1eea8e20-bf87-64ac-9987-066ed47a7584.jpg",
    "address": "4 rue Lois",
    "city": "Gatineau",
    "zipcode": "QC J8Y 3R1",
    "countryFullName": "Canada",
    "lng": -75.732133,
    "lat": 45.4290189
  },
  {
    "slug": "cio-meriam",
    "name": "Mosquée Meriam - CIO",
    "image1": "https://cdn.mawaqit.net/images/backend/mosque/3749df76-00bf-4702-ae30-ba40067184a9/mosque/1efc1eed-e9d3-6890-8e5c-0a21b15e7a1f.jpg",
    "address": "355 Rue Notre Dame, Gatineau, QC J8P 1L4, Canada",
    "city": "Gatineau",
    "zipcode": "QC J8P 1L4",
    "countryFullName": "Canada",
    "lng": -75.6419534,
    "lat": 45.4815806
  },
  {
    "slug": "assalam-mtl",
    "name": "Centre Culturel Islamique Assalam",
    "image1": "https://cdn.mawaqit.net/images/backend/mosque/58380fb4-17ba-4aee-9765-cd59c9e5f836/mosque/1ef9d455-b93c-60d6-a99e-0a0389a4e0f5.jpg",
    "address": "8988 Boulevard Saint-Michel",
    "city": "Montréal",
    "zipcode": "H1Z 3G4",
    "countryFullName": "Canada",
    "lng": -73.6267895,
    "lat": 45.5711311
  },
  {
    "slug": "islam-care-center-ottawa-k2p-0k1-canada",
    "name": "Islam Care Centre",
    "image1": "https://cdn.mawaqit.net/images/backend/mosque/ccb1c1cb-edc3-4235-873c-21eca151dfcb/mosque/1eea8e28-5e01-6b80-9c7c-066ed47a7584.jpg",
    "address": "375 Somerset st W",
    "city": "Ottawa",
    "zipcode": "K2P 0K1",
    "countryFullName": "Canada",
    "lng": -75.6969286,
    "lat": 45.415258
  },
  {
    "slug": "val-dor",
    "name": "Mosquée de Val-d'Or    -    مسجد فال دور",
    "image1": "https://cdn.mawaqit.net/images/backend/mosque/1d88bc95-b938-41e6-8122-7688caad166d/mosque/1eea8e2a-6c87-648c-9ec3-066ed47a7584.jpg",
    "address": "1153 4e Avenue",
    "city": "Val-D'or",
    "zipcode": "J9P1K1",
    "countryFullName": "Canada",
    "lng": -77.7667,
    "lat": 48.1167
  },
  {
    "slug": "markaz-al-imam-malik-edmonton-t5x-1t3-canada-1",
    "name": "Markaz Al Imam Malik",
    "image1": "https://cdn.mawaqit.net/images/backend/mosque/c6fe1804-81f3-4ce6-86fe-5e83d079605f/mosque/1ef0bc01-0f2a-6996-a4cc-0e8f4a8ce035.png",
    "address": "14504 118 st",
    "city": "Edmonton",
    "zipcode": "AB T5X 1T3",
    "countryFullName": "Canada",
    "lng": -113.526027,
    "lat": 53.6080282
  },
  {
    "slug": "masjid-bayane-mtl",
    "name": "Masjid Bayane",
    "image1": "https://cdn.mawaqit.net/images/backend/mosque/d0ef0c90-c9a7-46ef-8b73-5a96ac1f1ed5/mosque/1ef9d496-adc9-6578-a6e1-0a0389a4e0f5.jpg",
    "address": "2468 Rue Sauvé",
    "city": "Montréal",
    "zipcode": "H2B 1B9",
    "countryFullName": "Canada",
    "lng": -73.6418235,
    "lat": 45.5726263
  },
  {
    "slug": "ccil",
    "name": "CCIL - مسجد التسامح",
    "image1": "https://cdn.mawaqit.net/images/backend/mosque/93cb32bf-29f0-4201-b886-f1a377f32c8f/mosque/1eff6161-4e49-6be0-b95f-06ef9144e88f.jpg",
    "address": "589 Rue Leclerc",
    "city": "Repentigny",
    "zipcode": "QC J6A 6B9",
    "countryFullName": "Canada",
    "lng": -73.4464,
    "lat": 45.75288
  },
  {
    "slug": "masjid-al-rayyan-edmonton-t5t-5x8-canada",
    "name": "Masjid Al Rayyan",
    "image1": "https://cdn.mawaqit.net/images/backend/mosque/d80abb37-b688-4aa9-a8e2-80e43a955298/mosque/1eea8e5c-62e1-6e1e-8ebc-066ed47a7584.jpg",
    "address": "2, 21406 100 Ave NW,",
    "city": "Edmonton",
    "zipcode": "AB T5T 5X8",
    "countryFullName": "Canada",
    "lng": -113.68676,
    "lat": 53.54037
  },
  {
    "slug": "qic-mousque-ottawa-k2g-5t5-canada",
    "name": "MAC QIC",
    "image1": "https://cdn.mawaqit.net/images/backend/mosque/d549d39c-149c-446c-861a-a89a2af5ba88/mosque/1eea8e5e-9f8d-64a6-bf60-066ed47a7584.jpg",
    "address": "1950 Merivale Rd, Nepean,",
    "city": "Ottawa",
    "zipcode": "K2G 5T5",
    "countryFullName": "Canada",
    "lng": -75.7198339,
    "lat": 45.326052
  },
  {
    "slug": "masjid-al-hak-saint-jerome-j7z-5m2-canada",
    "name": "Masjid Al-Hak",
    "image1": "https://cdn.mawaqit.net/images/backend/mosque/40be01c1-d268-4f2f-8a5b-141c88b78720/mosque/1eea8e61-0390-63d4-8e1b-066ed47a7584.jpg",
    "address": "735 A Rue Labelle",
    "city": "Saint-Jérôme",
    "zipcode": "J7Z 5M2",
    "countryFullName": "Canada",
    "lng": -74.003776,
    "lat": 45.7865565
  },
  {
    "slug": "ascil",
    "name": "ASCIL RDL",
    "image1": "https://cdn.mawaqit.net/images/backend/mosque/1a252315-db91-4fb0-8bfe-08a8ce8dfae1/mosque/1eea8e63-b535-6d4e-ac07-066ed47a7584.jpg",
    "address": "174 rue la fontaine",
    "city": "Riviere-Du-Loup",
    "zipcode": "G5R3A7",
    "countryFullName": "Canada",
    "lng": -69.5375218,
    "lat": 47.8360073
  },
  {
    "slug": "south-nepean-muslim-community-snmc-ottawa-k2j-4g3-canada",
    "name": "South Nepean Muslim Community (SNMC)",
    "image1": "https://cdn.mawaqit.net/images/backend/mosque/9152608e-a0af-4dc9-a752-019f69054ff1/mosque/1eea8e80-30e9-62f8-897b-066ed47a7584.jpg",
    "address": "3020 Woodroffe Ave.",
    "city": "Ottawa",
    "zipcode": "K2J 4G3",
    "countryFullName": "Canada",
    "lng": -75.7267016,
    "lat": 45.2890281
  },
  {
    "slug": "cci-de-la-beauce-saint-georges-g5y-1v9-canada",
    "name": "CCI de la Beauce",
    "image1": "https://cdn.mawaqit.net/images/backend/mosque/9fbc4078-5d3f-46e2-bde6-ac9b3ae8edb1/mosque/1eea8e89-d43a-69d0-8e43-066ed47a7584.jpg",
    "address": "10949 2ème Avenue",
    "city": "SAINT-GEORGES",
    "zipcode": "G5Y 1V9",
    "countryFullName": "Canada",
    "lng": -70.6814188,
    "lat": 46.1254579
  },
  {
    "slug": "masjid-boucherville-boucherville-j4b-5e4-canada",
    "name": "Masjid Boucherville",
    "image1": "https://cdn.mawaqit.net/images/backend/mosque/7c2856b2-d85e-456c-90e8-8188a126dd28/mosque/1eea8e93-163c-6db6-a11d-066ed47a7584.jpg",
    "address": "550 de Mortagne",
    "city": "BOUCHERVILLE",
    "zipcode": "J4b 5e4",
    "countryFullName": "Canada",
    "lng": -73.4343752,
    "lat": 45.5921298
  },
  {
    "slug": "mac-barrhaven-islamic-centre-ottawa-k2c-3h2-canada",
    "name": "Barrhaven Islamic Centre",
    "image1": "https://cdn.mawaqit.net/images/backend/mosque/540f0cb2-b76d-4b88-ac64-78729c58d6d1/mosque/1eea8ea5-ce82-6062-9a36-066ed47a7584.jpg",
    "address": "3971 Greenbank Road",
    "city": "OTTAWA",
    "zipcode": "K2C 3H2",
    "countryFullName": "Canada",
    "lng": -75.7255711,
    "lat": 45.2364361
  },
  {
    "slug": "ccmi-centre-communautaire-musulman-iqra-laval-h7v-2v5-canada",
    "name": "Centre IQRA   مركز إقرأ",
    "image1": "https://cdn.mawaqit.net/images/backend/mosque/d617aad3-4ad5-47ea-a971-79ef4eaf1d6d/mosque/1eea8eb6-6629-67f2-a87b-066ed47a7584.jpg",
    "address": "960 Bd du Curé-Labelle, Laval, QC",
    "city": "LAVAL",
    "zipcode": "H7V 2V5",
    "countryFullName": "Canada",
    "lng": -73.750466,
    "lat": 45.5423479
  },
  {
    "slug": "fondation-du-message-de-l-islam-montreal-h3l2p5-canada",
    "name": "Fondation du message de l'Islam",
    "image1": "https://cdn.mawaqit.net/images/backend/mosque/b4b4c9ae-e4a3-463f-972a-d4e5c89b087d/mosque/1eea8ec2-c850-6a3c-ad89-066ed47a7584.jpg",
    "address": "10555 Boulevard St-Laurent",
    "city": "MONTRéAL",
    "zipcode": "H3L2P5",
    "countryFullName": "Canada",
    "lng": -73.6687953,
    "lat": 45.5498869
  },
  {
    "slug": "centre-islamique-dedmundston-edmundston-e3v-3s2-canada",
    "name": "Centre Islamique d’Edmundston",
    "image1": "https://cdn.mawaqit.net/images/backend/mosque/f5368a9d-aee4-41f9-a7d0-9bbecc45aa78/mosque/1ef73858-74c8-6e7c-a8e5-0ecd6770c589.jpg",
    "address": "34, 37ème avenue",
    "city": "EDMUNDSTON",
    "zipcode": "NB E3V 3S2",
    "countryFullName": "Canada",
    "lng": -68.3244424,
    "lat": 47.3720352
  },
  {
    "slug": "kbw",
    "name": "Centre Culturel Islamique Laval - KBW",
    "image1": "https://cdn.mawaqit.net/images/backend/mosque/45c27b54-9afe-45ca-80d8-8d77ce23429a/mosque/1efd8bbb-3dde-665c-bf2a-06bada7b305f.jpg",
    "address": "1330 rue Antonio",
    "city": "LAVAL",
    "zipcode": "H7V3N4",
    "countryFullName": "Canada",
    "lng": -73.7542296,
    "lat": 45.5475553
  },
  {
    "slug": "cci-st-jean",
    "name": "Centre Communautaire Al Imane",
    "image1": "https://cdn.mawaqit.net/images/backend/mosque/1ef0f8ae-3983-4ad2-9670-1bf97bb02e4b/mosque/1ef7f769-1449-62a6-b1b9-0affcb0701ab.jpg",
    "address": "1073 Seminaire Nord",
    "city": "ST-JEAN-SUR-RICHELIEU",
    "zipcode": "QC J3A 1R2",
    "countryFullName": "Canada",
    "lng": -73.2679964,
    "lat": 45.339429
  },
  {
    "slug": "masjid-al-salaam-edmonton-t5a-4h2-canada",
    "name": "Masjid Al-Salaam",
    "image1": "https://cdn.mawaqit.net/images/backend/mosque/fdcfaa5c-6735-440a-b739-be1b0421f669/mosque/1eeae88c-a807-634c-9f44-06acfcd1c88a.jpg",
    "address": "550 Clareview Rd NW",
    "city": "EDMONTON",
    "zipcode": "AB T5A 4H2",
    "countryFullName": "Canada",
    "lng": -113.3849713,
    "lat": 53.5940098
  },
  {
    "slug": "aylmer-mosque-gatineau-j9h-4j6-canada",
    "name": "Aylmer Mosque",
    "image1": "https://cdn.mawaqit.net/images/backend/mosque/3ff81d7f-b056-4c5f-852e-f1fd51257628/mosque/1eec87b3-232a-631e-aff9-0a7eba2dd6b3.jpeg",
    "address": "21 rue park",
    "city": "GATINEAU",
    "zipcode": "J9H 4J6",
    "countryFullName": "Canada",
    "lng": -75.8448102,
    "lat": 45.3956226
  },
  {
    "slug": "islamic-center-of-nanaimo-nanaimo-v9r-4v4-canada",
    "name": "Islamic Center of Nanaimo",
    "image1": "https://cdn.mawaqit.net/images/backend/mosque/ff51dfe8-d984-4c15-8c46-1d511c057fb4/mosque/1eee0390-2e54-626c-9c7a-0a31891e655f.jpg",
    "address": "897 Harbour View St",
    "city": "NANAIMO",
    "zipcode": "BC V9R 4V4",
    "countryFullName": "Canada",
    "lng": -123.9330005,
    "lat": 49.1458821
  },
  {
    "slug": "anatolia-islamic-centre-mississauga-l4w-1g5-canada",
    "name": "Anatolia Islamic Centre",
    "image1": "https://cdn.mawaqit.net/images/backend/mosque/2071a73f-14eb-44c7-a9ec-153014072ee4/mosque/1eedf0cf-6da3-6072-aed8-06acfcd1c88a.jpg",
    "address": "5280 Maingate Dr.",
    "city": "MISSISSAUGA",
    "zipcode": "L4W 1G5",
    "countryFullName": "Canada",
    "lng": -79.6324023,
    "lat": 43.6332134
  },
  {
    "slug": "ccm-sorel-tracy",
    "name": "CCM Sorel-Tracy",
    "image1": "https://cdn.mawaqit.net/images/backend/mosque/d7adb0a6-95f3-498e-a339-8a8ddd5b801d/mosque/1eedfcce-2f4f-6dd8-8c16-0e17d9c79775.jpg",
    "address": "351 Bd Fiset,",
    "city": "SOREL-TRACY",
    "zipcode": "J3P 3R3",
    "countryFullName": "Canada",
    "lng": -73.094824,
    "lat": 46.0370878
  },
  {
    "slug": "al-hidayah-mtl",
    "name": "Centre Communautaire Al-Hidayah",
    "image1": "https://cdn.mawaqit.net/images/backend/mosque/37f57ce0-1143-4ae1-aaf0-e77a2861c310/mosque/1eee16d7-80a7-63fc-a2b4-06fa31cb4c33.jpg",
    "address": "5955 Rue Hochelaga",
    "city": "MONTREAL",
    "zipcode": "H1N 1X3",
    "countryFullName": "Canada",
    "lng": -73.536324,
    "lat": 45.5728131
  },
  {
    "slug": "the-islamic-society-of-gloucester-gloucester-k1b-3k9-canada-1",
    "name": "The Islamic Society of Gloucester",
    "image1": "https://cdn.mawaqit.net/images/backend/mosque/86641db3-676e-4e82-9b7e-a140d9244d76/mosque/1eee2152-836e-6ea2-ac90-0600496b1db1.jpeg",
    "address": "1627 Maxime street",
    "city": "GLOUCESTER",
    "zipcode": "K1B 3K9",
    "countryFullName": "Canada",
    "lng": -75.604409349594,
    "lat": 45.417415920526
  },
  {
    "slug": "nour-al-islam-montreal-nord-h1h-3r2-canada",
    "name": "Noor Al-Islam - نور الإسلام",
    "image1": "https://cdn.mawaqit.net/images/backend/mosque/56e1a10e-dbc8-45bd-bbd1-31b17da85af9/mosque/1eee5443-8acb-6456-a5ef-060bd329544b.png",
    "address": "10395 Av. Pelletier",
    "city": "MONTREAL-NORD",
    "zipcode": "H1H 3R2",
    "countryFullName": "Canada",
    "lng": -73.6293528,
    "lat": 45.5892472
  },
  {
    "slug": "icq",
    "name": "Islamic Center of Quebec - ICQ",
    "image1": "https://cdn.mawaqit.net/images/backend/mosque/07e2b547-effc-47c8-85fe-f2946d8818d4/mosque/1f00c27f-836e-6cb4-8fd0-0e61b0058d45.jpg",
    "address": "2520 Laval Road",
    "city": "MONTREAL",
    "zipcode": "H4L 2Z9",
    "countryFullName": "Canada",
    "lng": -73.7054905,
    "lat": 45.5212871
  },
  {
    "slug": "al-baina-mtl",
    "name": "Centre Islamique Al-Baina - البيّنة",
    "image1": "https://cdn.mawaqit.net/images/backend/mosque/a8ba710e-9f5b-41a2-a26a-60fb94d88a64/mosque/1eee5f39-6776-6a9a-867f-060bd329544b.jpg",
    "address": "10155 Boul. Saint-Laurent",
    "city": "MONTREAL",
    "zipcode": "QC H3L 2N5",
    "countryFullName": "Canada",
    "lng": -73.6626911,
    "lat": 45.5480519
  },
  {
    "slug": "ccm-chateauguay",
    "name": "CCM - Châteauguay",
    "image1": "https://cdn.mawaqit.net/images/backend/mosque/cc13fed0-5c4b-4d3b-87df-b49d0210dc81/mosque/1eee62f4-2c1f-6e38-a294-0e8f4a8ce035.jpg",
    "address": "161 Bd Saint-Jean-Baptiste",
    "city": "CHâTEAUGUAY",
    "zipcode": "QC J6K 3B4",
    "countryFullName": "Canada",
    "lng": -73.7185135,
    "lat": 45.354963
  },
  {
    "slug": "assafae-mtl",
    "name": "CCSC As-Safae",
    "image1": "https://cdn.mawaqit.net/images/backend/mosque/36cabb09-cd82-43eb-a1fb-f21c3505c9b0/mosque/1eee73e0-9e9a-62ae-90db-0e8f4a8ce035.jpg",
    "address": "13201 Rue Sherbrooke Est",
    "city": "MONTREAL",
    "zipcode": "QC H1A 1C2",
    "countryFullName": "Canada",
    "lng": -73.5092157,
    "lat": 45.6587139
  },
  {
    "slug": "siddiquia-laval",
    "name": "Community Center Siddiquia",
    "image1": "https://cdn.mawaqit.net/images/backend/mosque/51f14209-7fbb-47e2-887d-8abde48ccd26/mosque/1eeec970-1a1b-67f4-89bc-0e8f4a8ce035.jpg",
    "address": "1655 Rue du Couvent",
    "city": "LAVAL",
    "zipcode": "QC H7W 3A8",
    "countryFullName": "Canada",
    "lng": -73.7618975,
    "lat": 45.5494344
  },
  {
    "slug": "attakwa-vaudreuil",
    "name": "Masjid Attakwa - مسجد التقوى",
    "image1": "https://cdn.mawaqit.net/images/backend/mosque/49db663e-8d94-41ef-b164-5dd4466be0b1/mosque/1eeefdee-eac8-61ba-8c1f-0a9258a77f81.jpg",
    "address": "2400,Rang st Antoine,vaudreuil-dorion",
    "city": "VAUDREUIL-DORION",
    "zipcode": "J7V 8P2",
    "countryFullName": "Canada",
    "lng": -74.035538,
    "lat": 45.3660708
  },
  {
    "slug": "jamii-salam-chambly-qcj3l1x1-canada",
    "name": "Association de la paix - Chambly",
    "image1": "https://cdn.mawaqit.net/images/backend/mosque/f5d7b8b9-6306-4a18-83d1-c97d975a1f38/mosque/1eef60d4-979a-64f4-b946-0a9258a77f81.jpg",
    "address": "1691 C Bd de Perigny",
    "city": "CHAMBLY",
    "zipcode": "QC J3L 1X1",
    "countryFullName": "Canada",
    "lng": -73.2787034,
    "lat": 45.4440309
  },
  {
    "slug": "al-firdaws-terrebonne",
    "name": "مسجد الفردوس - Terrebonne",
    "image1": "https://cdn.mawaqit.net/images/backend/mosque/7416e1ce-6f13-49d6-be84-3181d9949c07/mosque/1eefda23-1330-6bd2-a592-0621eb7171ad.jpg",
    "address": "3660 Chem. Gascon",
    "city": "TERREBONNE",
    "zipcode": "QC J6X 4J1",
    "countryFullName": "Canada",
    "lng": -73.6831644,
    "lat": 45.7358587
  },
  {
    "slug": "al-arkam-mtl",
    "name": "دار  الأرقم - Montréal",
    "image1": "https://cdn.mawaqit.net/images/backend/mosque/01cbce4c-3c9a-4ab4-894e-7728cdd78803/mosque/1eefdd48-decd-6cea-83d3-0e8f4a8ce035.jpg",
    "address": "3661 Rue Jean-Talon Est",
    "city": "MONTREAL",
    "zipcode": "QC H2A 1X7",
    "countryFullName": "Canada",
    "lng": -73.5949641,
    "lat": 45.5629254
  },
  {
    "slug": "centre-culturel-musulman-de-shawinigan-shawinigan-g9n-2j5-canada",
    "name": "CCM de Shawinigan",
    "image1": "https://cdn.mawaqit.net/images/backend/mosque/c68261cc-5477-4be1-aa8c-115a83e25cba/mosque/1efe7d19-16a9-6d84-ac1a-063aa5df5c67.png",
    "address": "2263 Av. Saint-Marc",
    "city": "SHAWINIGAN",
    "zipcode": "QC G9N 2J4",
    "countryFullName": "Canada",
    "lng": -72.7406318,
    "lat": 46.5550815
  },
  {
    "slug": "al-madinah-center-mtl",
    "name": "Al-Madinah Center - مركز المدينة",
    "image1": "https://cdn.mawaqit.net/images/backend/mosque/f8777e7c-e3a4-4f55-b46e-6711846128e7/mosque/1ef168e8-ef24-62a6-8f98-06724289ed6b.jpg",
    "address": "1260 Rue Mackay",
    "city": "MONTREAL",
    "zipcode": "QC H3G 2H4",
    "countryFullName": "Canada",
    "lng": -73.5766415,
    "lat": 45.495353
  },
  {
    "slug": "aisha-ic-mtl",
    "name": "Aisha Islamic Center - مسجد عائشة",
    "image1": "https://cdn.mawaqit.net/images/backend/mosque/b111ebf9-466a-4595-93f8-d1b60c5498e0/mosque/1ef168f2-d99f-61a6-8bb3-06724289ed6b.jpg",
    "address": "425 Rue de l'Aqueduc",
    "city": "MONTREAL",
    "zipcode": "QC H3C 4J8",
    "countryFullName": "Canada",
    "lng": -73.5647552,
    "lat": 45.4921569
  },
  {
    "slug": "ciic-montreal-qc-h3b-2l8-canada",
    "name": "CIIC - المعهد الكندي للحضارة الاسلامية",
    "image1": "https://cdn.mawaqit.net/images/backend/mosque/9342aba0-0cf9-47c2-89da-bf1e326c77de/mosque/1ef16915-1c46-665e-8418-062e9289e1d4.jpg",
    "address": "615 Rue Belmont",
    "city": "MONTREAL",
    "zipcode": "QC H3B 2L8",
    "countryFullName": "Canada",
    "lng": -73.5657778,
    "lat": 45.5020759
  },
  {
    "slug": "alsalam-mtl",
    "name": "مسجد السلام - Montréal",
    "image1": "https://cdn.mawaqit.net/images/backend/mosque/8519b8b6-4a66-4369-8044-a654f99f1a7d/mosque/1ef1c770-d57f-69d6-8f6f-0e16b454dc53.jpg",
    "address": "1232 Rue Stanley",
    "city": "MONTREAL",
    "zipcode": "QC H3B 2S7",
    "countryFullName": "Canada",
    "lng": -73.5725767,
    "lat": 45.4987404
  },
  {
    "slug": "ach-choura-mtl",
    "name": "Mosquée Ach-Choura - مسجد الشورى",
    "image1": "https://cdn.mawaqit.net/images/backend/mosque/a5393d06-152c-4ba7-8550-604d2e994da4/mosque/1ef1c7b1-6c5e-6182-bdfa-0e16b454dc53.jpg",
    "address": "5434 Boul Henri-Bourassa Est",
    "city": "MONTREAL",
    "zipcode": "QC H1G 2S9",
    "countryFullName": "Canada",
    "lng": -73.6242197,
    "lat": 45.6046653
  },
  {
    "slug": "alirfane-mtl",
    "name": "Mosquée Al Irfane - مسجد العرفان",
    "image1": "https://cdn.mawaqit.net/images/backend/mosque/4f3c872e-4f77-46dc-bf1a-90ced197b6c2/mosque/1ef1c7ba-adea-6b9c-b2ff-0aca279fa1dd.jpg",
    "address": "10963 Rue Massé",
    "city": "MONTREAL-NORD",
    "zipcode": "QC H1G 3J2",
    "countryFullName": "Canada",
    "lng": -73.6138101,
    "lat": 45.6040414
  },
  {
    "slug": "mac-ottawa-islamic-centre-abrar-masjid-ottawa-k2b-8n1-canada",
    "name": "MAC MIC - Abrar Masjid",
    "image1": "https://cdn.mawaqit.net/images/backend/mosque/f9fff570-085c-45fe-b994-bbeca99ef080/mosque/1ef20cb9-e2cf-6e5e-96ed-069cfb0c4e97.jpeg",
    "address": "1085 Grenon Ave.",
    "city": "OTTAWA",
    "zipcode": "K2B 8N1",
    "countryFullName": "Canada",
    "lng": -75.795536,
    "lat": 45.3516404
  },
  {
    "slug": "centretownmosque",
    "name": "Centretown Mosque",
    "image1": "https://cdn.mawaqit.net/images/backend/mosque/9527f105-21eb-441c-a4e9-20cc58a5c5b8/mosque/1efd1882-b1f7-691e-b282-0a21b15e7a1f.jpg",
    "address": "397 Kent Street",
    "city": "OTTAWA",
    "zipcode": "K2P 2B1",
    "countryFullName": "Canada",
    "lng": -75.6962705,
    "lat": 45.412047
  },
  {
    "slug": "alshareef-islamic-centre-ottawa-k2c0c7-canada",
    "name": "Alshareef Islamic Centre",
    "image1": "https://cdn.mawaqit.net/images/backend/mosque/7f10f933-5b9f-4805-802e-6bf76ce7d86e/mosque/1ef2b78f-1030-6896-8251-0ecb5e3f0f5f.jpg",
    "address": "1893 Baseline Rd",
    "city": "OTTAWA",
    "zipcode": "K2C0C7",
    "countryFullName": "Canada",
    "lng": -75.7590002,
    "lat": 45.3535198
  },
  {
    "slug": "icwestisland",
    "name": "Islamic Center of West Island",
    "image1": "https://cdn.mawaqit.net/images/backend/mosque/179c2182-fc15-42f2-8a1b-3e0b4df0afcd/mosque/1f0314d5-661d-64f8-a3e2-0e325d5c4035.jpg",
    "address": "31 Rue Montrose",
    "city": "DOLLARD-DES-ORMEAUX",
    "zipcode": "QC H9B 2J5",
    "countryFullName": "Canada",
    "lng": -73.8129585,
    "lat": 45.4789319
  },
  {
    "slug": "ottawa-uyghur-centre-orleans-k4a0z7-canada",
    "name": "Ottawa Uyghur Centre",
    "image1": "https://cdn.mawaqit.net/images/backend/mosque/a838f0c7-3242-430d-8ba6-4f55f61ba2bd/mosque/1ef446d6-74ec-6dd4-9fbd-0a67bcb0d635.jpeg",
    "address": "3555 Saint Joseph Blvd",
    "city": "ORLEANS",
    "zipcode": "K4A0Z7",
    "countryFullName": "Canada",
    "lng": -75.490594,
    "lat": 45.4878375
  },
  {
    "slug": "mosquee-rahma-montreal-qc-h2g-2h7-canada",
    "name": "Mosquée Rahma du CDS BALIMAYA",
    "image1": "https://cdn.mawaqit.net/images/backend/mosque/e520623f-2634-47a4-b711-e13cdd504ee0/mosque/1ef457f4-4aa8-6044-aebd-0a67bcb0d635.jpg",
    "address": "5690 Rue Fullum",
    "city": "MONTREAL",
    "zipcode": "QC H2G 2H7",
    "countryFullName": "Canada",
    "lng": -73.5835812,
    "lat": 45.5435554
  },
  {
    "slug": "alfalah-cdn-mtl",
    "name": "Al Falah - Côte-des-Neiges",
    "image1": "https://cdn.mawaqit.net/images/backend/mosque/d25b014f-91cd-42d2-b4e2-4128c0f07165/mosque/1ef46c8a-92da-648e-9aed-0eccd22c0f01.jpg",
    "address": "6550 Av. de Darlington",
    "city": "MONTREAL",
    "zipcode": "QC H3S 2J3",
    "countryFullName": "Canada",
    "lng": -73.6294905,
    "lat": 45.5088178
  },
  {
    "slug": "alfalah-st-hubert",
    "name": "Masjid Alfalah - St-Hubert",
    "image1": "https://cdn.mawaqit.net/images/backend/mosque/48cd6870-98a9-4002-9ad6-e7579a2eba6e/mosque/1ef46c96-df35-6836-bf61-0eccd22c0f01.jpg",
    "address": "1885 Rue Nielsen",
    "city": "SAINT-HUBERT",
    "zipcode": "QC J4T 1P1",
    "countryFullName": "Canada",
    "lng": -73.4712739,
    "lat": 45.4945828
  },
  {
    "slug": "jamia-islamia-longueuil",
    "name": "Jamia Islamia - جمعية الاسلامية",
    "image1": "https://cdn.mawaqit.net/images/backend/mosque/c24d02ee-57e9-49a7-8b37-ab0523575970/mosque/1ef46ca0-b7a1-6de2-b5a3-0eccd22c0f01.jpg",
    "address": "2144 Rue Sainte-Hélène",
    "city": "LONGUEUIL",
    "zipcode": "QC J4K 3T6",
    "countryFullName": "Canada",
    "lng": -73.4855621,
    "lat": 45.5133816
  },
  {
    "slug": "baitul-muqaddas-mtl",
    "name": "Baitul Muqaddas - بيت المقدس",
    "image1": "https://cdn.mawaqit.net/images/backend/mosque/60328256-5604-45c7-a5c1-cbe033ab2b41/mosque/1ef49798-0359-6da8-90b3-0a67bcb0d635.jpg",
    "address": "9085 45e Rue",
    "city": "MONTREAL",
    "zipcode": "QC H1Z 1M6",
    "countryFullName": "Canada",
    "lng": -73.620065,
    "lat": 45.5797879
  },
  {
    "slug": "icc-brossard",
    "name": "Islamic Community Center",
    "image1": "https://cdn.mawaqit.net/images/backend/mosque/5d623ea5-e932-4a58-a36c-31926f68a21a/mosque/1ef4b414-863f-6c8e-9a64-0edab2d3ef43.jpg",
    "address": "5905 Grande Allée",
    "city": "BROSSARD",
    "zipcode": "QC J4Z 3G4",
    "countryFullName": "Canada",
    "lng": -73.4366783,
    "lat": 45.4696161
  },
  {
    "slug": "icc-mtl",
    "name": "Imani Community Center - ICC",
    "image1": "https://cdn.mawaqit.net/images/backend/mosque/ed5a1536-9671-4847-889a-cfee1fef53e6/mosque/1ef52468-8e51-6390-9228-0a67bcb0d635.jpg",
    "address": "552 Rue Richmond",
    "city": "MONTREAL",
    "zipcode": "QC H3J 1V3",
    "countryFullName": "Canada",
    "lng": -73.5692253,
    "lat": 45.4891752
  },
  {
    "slug": "khadijah-mosque-mtl",
    "name": "Khadijah Mosque -  مسجد خديجة",
    "image1": "https://cdn.mawaqit.net/images/backend/mosque/68f6031e-d75e-474f-8ad5-5efe1fd6f1d7/mosque/1ef52482-5680-60dc-a30f-0eccd22c0f01.jpg",
    "address": "2385 Rue Centre",
    "city": "MONTREAL",
    "zipcode": "QC H3K 1J6",
    "countryFullName": "Canada",
    "lng": -73.5671547,
    "lat": 45.4800127
  },
  {
    "slug": "isq",
    "name": "Islamic Services of Quebec - ISQ",
    "image1": "https://cdn.mawaqit.net/images/backend/mosque/a3abc1d1-cef7-4259-b4b4-07283b6177e6/mosque/1ef577a9-ad24-668e-a54b-0600dbafaeef.jpg",
    "address": "2038 Boulevard.Saint-Laurent",
    "city": "MONTREAL",
    "zipcode": "QC H2X 2T2",
    "countryFullName": "Canada",
    "lng": -73.5678776,
    "lat": 45.5116051
  },
  {
    "slug": "alitissam-laval",
    "name": "Masjid Al-Itissam -  مسجد الإعتصام",
    "image1": "https://cdn.mawaqit.net/images/backend/mosque/57a6a6eb-9e8a-493a-a92b-9f367b3092de/mosque/1ef58f79-880f-66b8-b09a-0eccd22c0f01.jpg",
    "address": "600 Boulevard des Laurentides",
    "city": "LAVAL",
    "zipcode": "QC H7G 2V5",
    "countryFullName": "Canada",
    "lng": -73.6942384,
    "lat": 45.5719393
  },
  {
    "slug": "al-ansar-laval",
    "name": "Masjid Al Ansar - مسجد الأنصار",
    "image1": "https://cdn.mawaqit.net/images/backend/mosque/e9d315f2-4f7a-4367-a990-f7cbc172698a/mosque/1ef5bdbb-3b6a-62d4-99b6-0600dbafaeef.jpg",
    "address": "221 Boulevard des Laurentides",
    "city": "LAVAL",
    "zipcode": "QC H7G 2T7",
    "countryFullName": "Canada",
    "lng": -73.687141,
    "lat": 45.5661353
  },
  {
    "slug": "masjid-brossard-qc-j4z-2k8-canada",
    "name": "Fondation Al ummah Ibrahim",
    "image1": "https://cdn.mawaqit.net/images/backend/mosque/78f4bf6b-9454-4d30-b325-86a2eabefdd0/mosque/1ef5cabf-bf2c-685e-afb8-0e4a41cdad45.jpg",
    "address": "2405 Boul. Lapinière",
    "city": "BROSSARD",
    "zipcode": "QC J4Z 2K8",
    "countryFullName": "Canada",
    "lng": -73.465828,
    "lat": 45.469925
  },
  {
    "slug": "capitale-qc",
    "name": "Mosquée de la Capitale",
    "image1": "https://cdn.mawaqit.net/images/backend/mosque/20096e00-33e6-40f8-98a7-8b9cd6776f93/mosque/1ef5cf33-318e-6524-bf7c-0afeeb7ee923.jpg",
    "address": "270 Rue Marie-de-l'Incarnation",
    "city": "QUEBEC",
    "zipcode": "QC G1N 3G6",
    "countryFullName": "Canada",
    "lng": -71.2454895,
    "lat": 46.8077986
  },
  {
    "slug": "alfalah-mtl",
    "name": "Mosquée Al Falah - Islamic Center",
    "image1": "https://cdn.mawaqit.net/images/backend/mosque/4746b43e-9e82-4e9d-af8a-e21bbb038fab/mosque/1ef5d4ab-d5d6-6c26-ba77-0600dbafaeef.jpg",
    "address": "1 Rue Legendre Ouest",
    "city": "MONTREAL",
    "zipcode": "QC H2N 1G9",
    "countryFullName": "Canada",
    "lng": -73.6482336,
    "lat": 45.5433786
  },
  {
    "slug": "islamic-center-oshawa",
    "name": "Islamic Center of Oshawa",
    "image1": "https://cdn.mawaqit.net/images/backend/mosque/a48e1ef1-fad3-482f-b675-4109d7d1106d/mosque/1ef605af-4612-68bc-8067-0e4a41cdad45.jpg",
    "address": "23 Lloyd St",
    "city": "OSHAWA",
    "zipcode": "ON L1H 1X2",
    "countryFullName": "Canada",
    "lng": -78.8625565,
    "lat": 43.8929132
  },
  {
    "slug": "al-rahman-toronto",
    "name": "Masjid Al-Rahman",
    "image1": "https://cdn.mawaqit.net/images/backend/mosque/3196bd84-810e-4d0d-a052-e5c18c42d915/mosque/1ef5e737-5f7c-62c6-ade4-0e4a41cdad45.jpg",
    "address": "98 Bond St",
    "city": "TORONTO",
    "zipcode": "ON M5B 1C7",
    "countryFullName": "Canada",
    "lng": -79.3785435,
    "lat": 43.656487
  },
  {
    "slug": "aisha-niagara-falls",
    "name": "Masjid Aisha - مسجد عائشة",
    "image1": "https://cdn.mawaqit.net/images/backend/mosque/aad2753d-9bf4-43ed-8df5-b1bd7c1d666d/mosque/1ef5fa5f-4229-6918-be91-0600dbafaeef.jpg",
    "address": "5550 Stanley Ave",
    "city": "NIAGARA FALLS",
    "zipcode": "ON L2G 3X2",
    "countryFullName": "Canada",
    "lng": -79.0848405,
    "lat": 43.0940153
  },
  {
    "slug": "cic-caledonia-on-n3w-1b7-canada",
    "name": "Caledonia Islamic Center - CIC",
    "image1": "https://cdn.mawaqit.net/images/backend/mosque/50d54e72-df02-4bbe-b512-36965bfc4397/mosque/1ef5fa80-b53d-6bfe-a277-0e4a41cdad45.jpg",
    "address": "29 Caithness St E 2nd floor",
    "city": "CALEDONIA",
    "zipcode": "ON N3W 1B7",
    "countryFullName": "Canada",
    "lng": -79.9509448,
    "lat": 43.0732708
  },
  {
    "slug": "noor-st-catharines",
    "name": "Masjid An Noor",
    "image1": "https://cdn.mawaqit.net/images/backend/mosque/99724d33-7bf8-450b-b3b5-e6bf1f2b1926/mosque/1ef5fd14-c769-6ff8-a967-0afeeb7ee923.jpg",
    "address": "117 Geneva St",
    "city": "ST. CATHARINES",
    "zipcode": "ON L2R 4N3",
    "countryFullName": "Canada",
    "lng": -79.2407487,
    "lat": 43.1663928
  },
  {
    "slug": "masjid-toronto-mac",
    "name": "Masjid Toronto",
    "image1": "https://cdn.mawaqit.net/images/backend/mosque/0f22ae1b-64b3-43eb-ab28-d71119d4123f/mosque/1ef5fd6d-70e3-6c0c-8453-0e4a41cdad45.jpg",
    "address": "168 Dundas St W",
    "city": "TORONTO",
    "zipcode": "ON M5G 1C6",
    "countryFullName": "Canada",
    "lng": -79.3857551,
    "lat": 43.6554647
  },
  {
    "slug": "sayyidah-aminah-islamic-center",
    "name": "Sayyidah Aminah Islamic Centrer",
    "image1": "https://cdn.mawaqit.net/images/backend/mosque/d6721dbe-3314-4531-9e4d-c29d96ddefad/mosque/1ef6079d-892d-63fa-883b-0600dbafaeef.jpg",
    "address": "1085 Southcote Rd",
    "city": "ANCASTER",
    "zipcode": "ON L9G 3L1",
    "countryFullName": "Canada",
    "lng": -79.9515844,
    "lat": 43.1877221
  },
  {
    "slug": "dar-fondation",
    "name": "DAR Foundation - Oakville",
    "image1": "https://cdn.mawaqit.net/images/backend/mosque/2fa9859a-b0f6-4ebc-aec9-a022a2649c3c/mosque/1ef607ac-1cc6-66a8-9a28-0a30a0d770d7.jpg",
    "address": "485 Morden Rd",
    "city": "OAKVILLE",
    "zipcode": "ON L6K 3W6",
    "countryFullName": "Canada",
    "lng": -79.6947601,
    "lat": 43.4423622
  },
  {
    "slug": "musallah-hamza-mtl",
    "name": "Musallah Syedena Hamza",
    "image1": "https://cdn.mawaqit.net/images/backend/mosque/3de2c2e8-c74b-4597-b3ef-4e2fbfc23ab4/mosque/1effffba-6c52-6cac-9a5f-0e4fa23cf9cb.jpg",
    "address": "569 Rue Jarry O",
    "city": "MONTREAL",
    "zipcode": "QC H3N 1G1",
    "countryFullName": "Canada",
    "lng": -73.6357948,
    "lat": 45.5315259
  },
  {
    "slug": "muslim-association-of-st-albert-st-albert-t5n7l1-canada",
    "name": "Muslim Association of St Albert",
    "image1": "https://cdn.mawaqit.net/images/backend/mosque/a115d391-adf3-4881-8d09-d0336fff7d70/mosque/1ef744af-c78e-63d8-8f57-0600dbafaeef.jpeg",
    "address": "315 Carleton drive",
    "city": "ST.ALBERT",
    "zipcode": "À T5N 7L1",
    "countryFullName": "Canada",
    "lng": -113.568204,
    "lat": 53.647468
  },
  {
    "slug": "bel-agir-mtl",
    "name": "Bel Agir - الإحسان - Montréal",
    "image1": "https://cdn.mawaqit.net/images/backend/mosque/20dd86d4-ea07-4a38-9e0a-4ddecc2a7190/mosque/1ef74dfc-c42f-6902-9388-0600dbafaeef.jpg",
    "address": "8390 Rue St-Hubert",
    "city": "MONTREAL",
    "zipcode": "QC H2P 1Z3",
    "countryFullName": "Canada",
    "lng": -73.6305669,
    "lat": 45.5476166
  },
  {
    "slug": "mah",
    "name": "Muslim Association of Hamilton",
    "image1": "https://cdn.mawaqit.net/images/backend/mosque/7426a20b-377b-4c75-82b4-160c3bd89d36/mosque/1ef75032-4ac0-6322-ae16-0affcb0701ab.jpg",
    "address": "1545 Stone Church Rd E",
    "city": "HAMILTON",
    "zipcode": "ON L8W 3P8",
    "countryFullName": "Canada",
    "lng": -79.8207063,
    "lat": 43.1949296
  },
  {
    "slug": "tawheed-ottawa",
    "name": "Markaz At-Tawheed - Ottawa",
    "image1": "https://cdn.mawaqit.net/images/backend/mosque/331881c9-439b-42e6-8a07-6366a9ae9158/mosque/1ef7506b-3c11-6da6-8460-0affcb0701ab.jpg",
    "address": "2835 Dumaurier Ave",
    "city": "OTTAWA",
    "zipcode": "ON K2B 7W3",
    "countryFullName": "Canada",
    "lng": -75.7936776,
    "lat": 45.3506472
  },
  {
    "slug": "taric-ny",
    "name": "TARIC Islamic Center",
    "image1": "https://cdn.mawaqit.net/images/backend/mosque/810fb3a5-eeb5-400c-8a82-97f00256222c/mosque/1ef75166-1744-6bbc-9b51-0affcb0701ab.jpg",
    "address": "99 Beverly Hills Dr",
    "city": "NORTH YORK",
    "zipcode": "ON M3L 1A2",
    "countryFullName": "Canada",
    "lng": -79.5160615,
    "lat": 43.7179803
  },
  {
    "slug": "islamic-centre-of-kingston-kingston-k7l-4v4-canada",
    "name": "Islamic Centre of Kingston",
    "image1": "https://cdn.mawaqit.net/images/backend/mosque/e00fbcd1-fa3d-4dcf-8f6c-c090c28cbfbd/mosque/1ef77714-5049-6a2e-aea4-0600dbafaeef.jpg",
    "address": "1477 Sydenham Rd",
    "city": "KINGSTON",
    "zipcode": "K7L 4V4",
    "countryFullName": "Canada",
    "lng": -76.542028337717,
    "lat": 44.284464700612
  },
  {
    "slug": "icco-mississauga",
    "name": "ICCO - Mississauga",
    "image1": "https://cdn.mawaqit.net/images/backend/mosque/04322bcb-aecd-40af-b5b7-2520b59be1de/mosque/1f004d3a-eb77-69c4-aaa5-0e4fa23cf9cb.png",
    "address": "2550 Dunwin Dr",
    "city": "MISSISSAUGA",
    "zipcode": "ON L5L 1T1",
    "countryFullName": "Canada",
    "lng": -79.6809874,
    "lat": 43.5285566
  },
  {
    "slug": "el-houda-valleyfield",
    "name": "مسجد الهدى - Valleyfield",
    "image1": "https://cdn.mawaqit.net/images/backend/mosque/7ba2bcb9-a7c0-4a0f-a4fe-4edede4c2ce1/mosque/1ef7e932-79ab-69cc-a1e0-061177f8ea3f.jpg",
    "address": "55 Rue du Marché",
    "city": "SALABERRY-DE-VALLEYFIELD",
    "zipcode": "QC J6T 1P3",
    "countryFullName": "Canada",
    "lng": -74.1337151,
    "lat": 45.2542684
  },
  {
    "slug": "east-ottawa-masjid-and-community-centre-ottawa-k1k-3b1-canada",
    "name": "East Ottawa Masjid and Community Center",
    "image1": "https://cdn.mawaqit.net/images/backend/mosque/232fa82a-6d7a-4b32-abb7-3b238d04ac4b/mosque/1ef80778-7bd4-60f0-bf54-0ecd6770c589.",
    "address": "967 St Laurent Blvd",
    "city": "OTTAWA",
    "zipcode": "ON K1K 3B1",
    "countryFullName": "Canada",
    "lng": -75.6401111,
    "lat": 45.4298224
  },
  {
    "slug": "mosquee-de-beauport-quebec-g1c-1k1-canada",
    "name": "Mosquée de Beauport",
    "image1": "https://cdn.mawaqit.net/images/backend/mosque/9c19a02e-b153-4ca5-9701-53427d503d00/mosque/1ef82a06-5362-6d1e-a199-0affcb0701ab.jpg",
    "address": "2268 Avenue Larue",
    "city": "QUEBEC",
    "zipcode": "QC G1C 1K1",
    "countryFullName": "Canada",
    "lng": -71.1626529,
    "lat": 46.8883115
  },
  {
    "slug": "ccim3r",
    "name": "Islamic Cultural Center of Mauricie",
    "image1": "https://cdn.mawaqit.net/images/backend/mosque/c44d0f51-673d-4155-ae15-a6b3c3d54fd2/mosque/1ef8f56f-59e3-64ec-9bc2-0affcb0701ab.jpg",
    "address": "5375 Rue St Joseph",
    "city": "TROIS-RIVIèRES",
    "zipcode": "QC G8Z 4M5",
    "countryFullName": "Canada",
    "lng": -72.5861298,
    "lat": 46.3330911
  },
  {
    "slug": "rahma-mac-qc",
    "name": "Mosquée Al-Rahma - جامع الرحمة",
    "image1": "https://cdn.mawaqit.net/images/backend/mosque/1effa8da-16fa-43c7-99ca-302549046f72/mosque/1ef8f57b-9348-6de8-94c5-0671c73660c5.jpg",
    "address": "363 R. de la Couronne",
    "city": "QUEBEC",
    "zipcode": "QC G1K 6E9",
    "countryFullName": "Canada",
    "lng": -71.2249071,
    "lat": 46.8147764
  },
  {
    "slug": "madani-mtl",
    "name": "Mosquée Madani - مسجد المدني",
    "image1": "https://cdn.mawaqit.net/images/backend/mosque/474ab7ec-2d9c-4507-bddf-1681a2b4b558/mosque/1ef90e62-b755-6056-ba6a-0e9d077f5bb1.jpg",
    "address": "12080 Blvd. Laurentien",
    "city": "MONTREAL",
    "zipcode": "QC H4K 1M9",
    "countryFullName": "Canada",
    "lng": -73.7181535,
    "lat": 45.5268587
  },
  {
    "slug": "victoria-bcma-masjid",
    "name": "BCMA Masjid Al Iman",
    "image1": "https://cdn.mawaqit.net/images/backend/mosque/a25786bd-0b9c-4a80-b778-c2c7e521b2e3/mosque/1ef91c00-eecc-6f9c-8d52-0671c73660c5.jpg",
    "address": "2218 Quadra Street",
    "city": "VICTORIA",
    "zipcode": "BC V8T 4C6",
    "countryFullName": "Canada",
    "lng": -123.3585848,
    "lat": 48.4336331
  },
  {
    "slug": "noor-e-madina-mtl",
    "name": "Mosquée Noor-E-Madina",
    "image1": "https://cdn.mawaqit.net/images/backend/mosque/74d4689a-67b0-4a58-939f-16a6654a5edb/mosque/1ef954cb-1c5f-6e98-9267-0e9d077f5bb1.jpg",
    "address": "692 Rue Jean-Talon O",
    "city": "MONTREAL",
    "zipcode": "QC H3N 1R8",
    "countryFullName": "Canada",
    "lng": -73.6240347,
    "lat": 45.5270056
  },
  {
    "slug": "al-amin-mtl",
    "name": "Musalla Al-Amin - Montréal",
    "image1": "https://cdn.mawaqit.net/images/backend/mosque/592ee41f-3caf-4fa8-b68c-7dc2826f49de/mosque/1ef95710-6f16-66f4-9267-0e9d077f5bb1.jpg",
    "address": "774 Rue Jean-Talon O",
    "city": "MONTREAL",
    "zipcode": "QC H3N 1S2",
    "countryFullName": "Canada",
    "lng": -73.6243823,
    "lat": 45.5264254
  },
  {
    "slug": "al-andalous-mtl",
    "name": "Al Andalous Islamic Center",
    "image1": "https://cdn.mawaqit.net/images/backend/mosque/d43ec1ac-641c-4333-90f0-63ef3f340478/mosque/1ef961dc-f5ab-6e72-b688-0e9d077f5bb1.jpg",
    "address": "816 Av. Sainte-Croix",
    "city": "MONTREAL",
    "zipcode": "QC H4L 3Y4",
    "countryFullName": "Canada",
    "lng": -73.6762395,
    "lat": 45.5135959
  },
  {
    "slug": "darlington-mtl",
    "name": "Darlington Community Center",
    "image1": "https://cdn.mawaqit.net/images/backend/mosque/393440eb-ff2e-4a7a-b31b-c4be6e1e9176/mosque/1ef9aeff-2457-68ce-95ba-0e9d077f5bb1.jpg",
    "address": "2876 Rue Goyer",
    "city": "MONTREAL",
    "zipcode": "QC H3S 1H3",
    "countryFullName": "Canada",
    "lng": -73.630159,
    "lat": 45.509962
  },
  {
    "slug": "faizan-e-madinah-mtl",
    "name": "FAIZAN-E-MADINAH - Montréal",
    "image1": "https://cdn.mawaqit.net/images/backend/mosque/dc645de7-e507-4c4e-a9f0-38d881030174/mosque/1ef9b84e-480d-6e3c-8074-0671c73660c5.jpg",
    "address": "810 Rue Saint-Roch",
    "city": "MONTREAL",
    "zipcode": "QC H3N 1L4",
    "countryFullName": "Canada",
    "lng": -73.6303248,
    "lat": 45.5277538
  },
  {
    "slug": "attawhid-mtl",
    "name": "Centre Attawhid - مركز التوحيد",
    "image1": "https://cdn.mawaqit.net/images/backend/mosque/a2eaab96-ce94-4afa-bc33-8f40c86db1fe/mosque/1ef9c4f6-bb3e-6e1a-ac49-0671c73660c5.jpg",
    "address": "5950 Rue Jean-Talon E",
    "city": "MONTREAL",
    "zipcode": "QC H1S 1M2",
    "countryFullName": "Canada",
    "lng": -73.5790509,
    "lat": 45.5863164
  },
  {
    "slug": "anatolia-north-york",
    "name": "Anatolia Islamic Center North York",
    "image1": "https://cdn.mawaqit.net/images/backend/mosque/2f23ae01-56bf-412c-885a-006bfd089a97/mosque/1f0206cf-05e1-6e8c-b60c-0e61b0058d45.png",
    "address": "73 Alness St, North York, ON M3J 2H2",
    "city": "TORONTO",
    "zipcode": "M3J 2H2",
    "countryFullName": "Canada",
    "lng": -79.4727502,
    "lat": 43.7741156
  },
  {
    "slug": "masjid-abubakr-guelph-n1e-2g7-canada",
    "name": "Masjid Abubakr",
    "image1": "https://cdn.mawaqit.net/images/backend/mosque/45ca1fba-7157-41e5-ba32-9c476410a4ba/mosque/1efa1e04-28d9-64fa-bbfa-0671c73660c5.jpg",
    "address": "126 Norwich Street East",
    "city": "GUELPH",
    "zipcode": "ON N1E 2G7",
    "countryFullName": "Canada",
    "lng": -80.2519536,
    "lat": 43.5515078
  },
  {
    "slug": "badr-mtl",
    "name": "Centre Islamique Badr",
    "image1": "https://cdn.mawaqit.net/images/backend/mosque/d10042a1-635e-4c97-894f-78c4e2527974/mosque/1ef9f9b0-6ac8-6442-8171-0671c73660c5.jpg",
    "address": "8625 Boul Langelier",
    "city": "MONTREAL",
    "zipcode": "QC H1P 2C6",
    "countryFullName": "Canada",
    "lng": -73.5908776,
    "lat": 45.5989192
  },
  {
    "slug": "taiba-mtl",
    "name": "Masjid Taiba - مسجد طيبة",
    "image1": "https://cdn.mawaqit.net/images/backend/mosque/9edfbb5c-862a-4757-8fe8-8836039752c2/mosque/1efa38c4-a8a3-64da-9a1b-0671c73660c5.jpg",
    "address": "3560 Av. Van Horne",
    "city": "MONTREAL",
    "zipcode": "QC H3S 1R4",
    "countryFullName": "Canada",
    "lng": -73.6316791,
    "lat": 45.5012107
  },
  {
    "slug": "baitul-mukarram-mtl",
    "name": "Baitul Mukarram - بيت المكرمة",
    "image1": "https://cdn.mawaqit.net/images/backend/mosque/4f5599e2-e114-4c58-a710-3742e4eeb1dc/mosque/1efa3a62-282f-639a-a800-0671c73660c5.jpg",
    "address": "4225 Av. de Courtrai",
    "city": "MONTREAL",
    "zipcode": "QC H3S 1B8",
    "countryFullName": "Canada",
    "lng": -73.6430107,
    "lat": 45.500619
  },
  {
    "slug": "minaret-du-nord",
    "name": "Mosquée Minaret du Nord",
    "image1": "https://cdn.mawaqit.net/images/backend/mosque/040b346e-5197-4052-a23d-90a5afffb72d/mosque/1efa82d9-4217-641e-87f3-0a0389a4e0f5.jpg",
    "address": "293 Rue Labelle",
    "city": "Saint-Jérôme",
    "zipcode": "QC J7Z 2B6",
    "countryFullName": "Canada",
    "lng": -74.0041518,
    "lat": 45.7760977
  },
  {
    "slug": "centrelemessage",
    "name": "Centre le Message",
    "image1": "https://cdn.mawaqit.net/images/backend/mosque/1748243a-c707-42a4-989c-aaec2e9474d5/mosque/1efac68d-989b-6734-9fad-0671c73660c5.jpg",
    "address": "3321 Bd Dagenais Ouest",
    "city": "LAVAL",
    "zipcode": "QC H7P 1V5",
    "countryFullName": "Canada",
    "lng": -73.8039946,
    "lat": 45.5798022
  },
  {
    "slug": "alqods-mtl",
    "name": "Mosquée Al Qods - مسجد القدس",
    "image1": "https://cdn.mawaqit.net/images/backend/mosque/b9fff367-11d1-4f53-b457-b7a55021f0a1/mosque/1efade59-fa40-6672-89e0-0e9d077f5bb1.jpg",
    "address": "2465 Rue Bélanger",
    "city": "MONTREAL",
    "zipcode": "QC H2G 1E6",
    "countryFullName": "Canada",
    "lng": -73.59905,
    "lat": 45.55208
  },
  {
    "slug": "al-falah-islamic-centre-kitchener-on-n2r-1h3-canada",
    "name": "Al-Falah Centre - Kitchener",
    "image1": "https://cdn.mawaqit.net/images/backend/mosque/50a8f5c4-1be8-498f-b90c-03e12a55dd48/mosque/1efb0d6c-6f71-687e-8040-066b4b62726d.jpg",
    "address": "62 Mcbrine Pl unit 3",
    "city": "KITCHENER",
    "zipcode": "ON N2R 1H3",
    "countryFullName": "Canada",
    "lng": -80.4768551,
    "lat": 43.4012952
  },
  {
    "slug": "darul-arqum-ottawa-canada-ottawa-k1v-1g5-canada",
    "name": "Darul Arqum - Ottawa Canada",
    "image1": "https://cdn.mawaqit.net/images/backend/mosque/7d03d19a-ca72-4976-8cbd-751daa528cdf/mosque/1efb2567-a5ba-6b3e-870e-0e9d077f5bb1.png",
    "address": "4269 Limebank Road",
    "city": "OTTAWA",
    "zipcode": "K1V 1G5",
    "countryFullName": "Canada",
    "lng": -75.6716299,
    "lat": 45.29024
  },
  {
    "slug": "cct-mtl",
    "name": "Yunus Camii - مسجد يونس",
    "image1": "https://cdn.mawaqit.net/images/backend/mosque/0189dd82-18dd-46e0-9aba-432be21a8e6b/mosque/1efb87fb-0bba-6bdc-96b7-069dbb1b261f.jpg",
    "address": "3785 Rue Villeray",
    "city": "MONTREAL",
    "zipcode": "QC H2A 1G5",
    "countryFullName": "Canada",
    "lng": -73.5995749,
    "lat": 45.5661341
  },
  {
    "slug": "ottawa-main-mosque-oma-ottawa-k1y-0m1-canada",
    "name": "Ottawa Main Mosque (OMA)",
    "image1": "https://cdn.mawaqit.net/images/backend/mosque/4cfddc7e-744a-4bfa-918c-ac98f547e256/mosque/1efb8dbb-f6a3-628c-b113-069dbb1b261f.jpg",
    "address": "251 Northwestern Ave",
    "city": "OTTAWA",
    "zipcode": "K1Y 0M1",
    "countryFullName": "Canada",
    "lng": -75.7413215,
    "lat": 45.4014817
  },
  {
    "slug": "mosquee-de-chateauguay",
    "name": "Mosquée De Châteauguay",
    "image1": "https://cdn.mawaqit.net/images/backend/mosque/a0ce13e5-794e-4a2b-bd54-ce4c9c001a5e/mosque/1efb7953-9c25-61e2-b286-069dbb1b261f.jpg",
    "address": "215C Bd D'Anjou",
    "city": "CHATEAUGUAY",
    "zipcode": "QC J6J 2R3",
    "countryFullName": "Canada",
    "lng": -73.7250958,
    "lat": 45.3599284
  },
  {
    "slug": "al-amal-chateauguay",
    "name": "Mosquée Al Amal",
    "image1": "https://cdn.mawaqit.net/images/backend/mosque/c1c76fda-1306-40e5-a306-1b4399328752/mosque/1efb799e-43be-6206-8b42-0ef2881d9837.jpg",
    "address": "120 Bd Saint-Jean-Baptiste",
    "city": "CHATEAUGUAY",
    "zipcode": "QC J6K 3A9",
    "countryFullName": "Canada",
    "lng": -73.716088198447,
    "lat": 45.357078751974
  },
  {
    "slug": "ommah",
    "name": "مسجد الأمة الإسلامية - Montréal",
    "image1": "https://cdn.mawaqit.net/images/backend/mosque/6dd09439-27b2-45bd-b401-ade15d900161/mosque/1efbbf1a-d2c9-602e-9955-069dbb1b261f.jpg",
    "address": "1245 Rue Saint-Dominique",
    "city": "MONTREAL",
    "zipcode": "QC H2X 2W4",
    "countryFullName": "Canada",
    "lng": -73.5623516,
    "lat": 45.5100971
  },
  {
    "slug": "elhidjra-mtl",
    "name": "ASEC - مركز الهجرة",
    "image1": "https://cdn.mawaqit.net/images/backend/mosque/c68505bf-a0b2-4647-a223-8660db657d40/mosque/1efc55a5-fe74-6df0-885b-0a21b15e7a1f.jpg",
    "address": "8750 Bd Métropolitain E",
    "city": "ANJOU",
    "zipcode": "QC H1K 4Y9",
    "countryFullName": "Canada",
    "lng": -73.556251,
    "lat": 45.6154831
  },
  {
    "slug": "baitul-ma3moor-mtl",
    "name": "Baitul Ma'Moor - بيت المعمور",
    "image1": "https://cdn.mawaqit.net/images/backend/mosque/bc00d0cd-7278-44b0-a90d-47823d02a17b/mosque/1efcaca9-a9ce-6ad4-8231-0a21b15e7a1f.jpg",
    "address": "2833, rue ontario",
    "city": "MONTREAL",
    "zipcode": "QC H2K1X3",
    "countryFullName": "Canada",
    "lng": -73.5505011,
    "lat": 45.5363374
  },
  {
    "slug": "cci-ste-marie",
    "name": "CCI Sainte-Marie",
    "image1": "https://cdn.mawaqit.net/images/backend/mosque/92ae21f1-ebbd-4742-9159-931a62dba0f7/mosque/1efcc9ff-a395-653c-95fc-0a21b15e7a1f.jpg",
    "address": "323 Av. du Collège",
    "city": "SAINTE-MARIE",
    "zipcode": "QC G6E 3Y2",
    "countryFullName": "Canada",
    "lng": -71.0219102,
    "lat": 46.4395771
  },
  {
    "slug": "rahma-wpg",
    "name": "Rahma Masjid",
    "image1": "https://cdn.mawaqit.net/images/backend/mosque/6632d475-e04e-46ea-9f18-4d854a26fc79/mosque/1efcdf32-4528-6dbc-afcd-0e61b0058d45.png",
    "address": "574 watt st",
    "city": "WINNIPEG",
    "zipcode": "MB R2K 4K1",
    "countryFullName": "Canada",
    "lng": -97.0968944,
    "lat": 49.9192886
  },
  {
    "slug": "al-salaam-islamic-centre-kitchener-n2m-3r8-canada",
    "name": "Al-Salaam Islamic Centre",
    "image1": "https://cdn.mawaqit.net/images/backend/mosque/f6a4eccf-513d-40c2-9950-96256c0e4bda/mosque/1efd04e8-446d-6b1c-9180-0e61b0058d45.jpeg",
    "address": "300 Mill St #10",
    "city": "KITCHENER",
    "zipcode": "N2M 3R8",
    "countryFullName": "Canada",
    "lng": -80.4843,
    "lat": 43.43675
  },
  {
    "slug": "hamza-toronto",
    "name": "Hamza Mosque - مسجد حمزة",
    "image1": "https://cdn.mawaqit.net/images/backend/mosque/9d773ea6-8bf2-40bc-8104-50fe7fedfa36/mosque/1efd34ef-1fd1-6812-8bda-06bada7b305f.jpg",
    "address": "1287 Queen Street West",
    "city": "TORONTO",
    "zipcode": "ON M6K1L6",
    "countryFullName": "Canada",
    "lng": -79.4320601,
    "lat": 43.6413106
  },
  {
    "slug": "tawuba-mtl",
    "name": "Mosquée Tawuba - مسجد التوبة",
    "image1": "https://cdn.mawaqit.net/images/backend/mosque/83d50929-6cc0-4754-b635-5ff8c725dcdf/mosque/1efd4165-1ad9-6e68-b247-0e61b0058d45.jpg",
    "address": "2361 Rue Ontario E",
    "city": "MONTRéAL",
    "zipcode": "QC H2K 1W2",
    "countryFullName": "Canada",
    "lng": -73.5545915,
    "lat": 45.5311387
  },
  {
    "slug": "aljazira-mtl",
    "name": "Aljazira Islamic Center",
    "image1": "https://cdn.mawaqit.net/images/backend/mosque/fa9bdf88-7e0c-43a7-9f3a-bfb94defb07e/mosque/1efd4186-1c6f-6a9a-b22b-0e61b0058d45.jpg",
    "address": "280 Rue Elgar, Verdun, QC H3E 1C9",
    "city": "MONTREAL",
    "zipcode": "QC H3E 1C9",
    "countryFullName": "Canada",
    "lng": -73.54718,
    "lat": 45.45653
  },
  {
    "slug": "cmq-mtl",
    "name": "Communauté Musulmane du Québec - CMQ",
    "image1": "https://cdn.mawaqit.net/images/backend/mosque/f85f40a2-e107-4bf2-b9d2-9eba454db4a1/mosque/1efd41a3-e200-6bb6-be44-0e61b0058d45.jpg",
    "address": "7445 Av. Chester",
    "city": "MONTREAL",
    "zipcode": "QC H4V 1M4",
    "countryFullName": "Canada",
    "lng": -73.6547274,
    "lat": 45.4596417
  },
  {
    "slug": "cim-qc",
    "name": "Centre Islamique de Maskoutain - CIM",
    "image1": "https://cdn.mawaqit.net/images/backend/mosque/49ead637-57d7-49ce-9503-6999e2e02af7/mosque/1efd5f44-12e4-6f76-b7e4-0e61b0058d45.jpg",
    "address": "2340 Av. Saint-Joseph",
    "city": "SAINT-HYACINTHE",
    "zipcode": "QC J2S 5L5",
    "countryFullName": "Canada",
    "lng": -72.9558468,
    "lat": 45.6298702
  },
  {
    "slug": "ccm-sept-iles",
    "name": "CCM de la Côte Nord",
    "image1": "https://cdn.mawaqit.net/images/backend/mosque/6e841ef2-ece9-4b23-9fd4-99005fb42863/mosque/1efe3721-0b0a-6994-8810-063aa5df5c67.jpg",
    "address": "298 Av. Brochu",
    "city": "SEPT-ÎLES",
    "zipcode": "QC G4R 2W3",
    "countryFullName": "Canada",
    "lng": -66.3806798,
    "lat": 50.2029866
  },
  {
    "slug": "masjid-bilal-winnipeg-r3e-3l6-canada",
    "name": "Masjid Bilal",
    "image1": "https://cdn.mawaqit.net/images/backend/mosque/c3473dbd-da0a-453a-a56b-5841941aea16/mosque/1efeaf7a-ccea-6b46-aaa8-06ef9144e88f.jpg",
    "address": "33 Warnock St.",
    "city": "WINNIPEG",
    "zipcode": "MB R3E 3L6",
    "countryFullName": "Canada",
    "lng": -97.1676656,
    "lat": 49.9137691
  },
  {
    "slug": "al-madinah-rn",
    "name": "AL Madinah Rouyn-Noranda",
    "image1": "https://cdn.mawaqit.net/images/backend/mosque/f3282a29-e458-44b2-8e63-cddb7f81bf81/mosque/1efe9c1e-dd7d-627a-9871-0e61b0058d45.heic",
    "address": "20 Rue Mgr Tessier O",
    "city": "ROUYN-NORANDA",
    "zipcode": "QC J9X 2S4",
    "countryFullName": "Canada",
    "lng": -79.0207184,
    "lat": 48.2391808
  },
  {
    "slug": "jami-omar-ottawa",
    "name": "Jami Omar - جامع عمر",
    "image1": "https://cdn.mawaqit.net/images/backend/mosque/95ab8abe-b62a-45d7-811b-c3af7ce6e2bf/mosque/1efec835-db29-6760-b1d2-06ef9144e88f.jpg",
    "address": "3990 Old Richmond Rd",
    "city": "OTTAWA",
    "zipcode": "K2H8R5",
    "countryFullName": "Canada",
    "lng": -75.828449,
    "lat": 45.311606
  },
  {
    "slug": "acml-qc",
    "name": "Mosquée De Joliette - ACML",
    "image1": "https://cdn.mawaqit.net/images/backend/mosque/0f1af9c7-72a6-40ac-ac59-528a0573f65f/mosque/1efed4a3-f4cf-6604-8548-06ef9144e88f.jpg",
    "address": "1260 Rue Notre Dame",
    "city": "JOLIETTE",
    "zipcode": "QC J6E 7L2",
    "countryFullName": "Canada",
    "lng": -73.4528096,
    "lat": 46.0147031
  },
  {
    "slug": "victoria-bcma-musallah",
    "name": "BCMA Westshore Musallah",
    "image1": "https://cdn.mawaqit.net/images/backend/mosque/47cc6df7-d8de-4a19-99a3-26d003ab368f/mosque/1efedb74-df28-68c8-a6d9-0a7d06691847.jpg",
    "address": "1830 Island Hwy unit 105",
    "city": "VICTORIA",
    "zipcode": "BC V9B 1J2",
    "countryFullName": "Canada",
    "lng": -123.4692116,
    "lat": 48.4441227
  },
  {
    "slug": "wilmot-muslim-centre-waterloo-on-n0b-1e0-canada",
    "name": "Wilmot Muslim Centre",
    "image1": "https://cdn.mawaqit.net/images/backend/mosque/a7583b3a-fec0-4b5e-8460-9505923a34f2/mosque/1efee3b7-483a-6448-8e93-0a7d06691847.png",
    "address": "1000 Knechtel Ct, Wilmot",
    "city": "WATERLOO, ON",
    "zipcode": "N0B 1E0",
    "countryFullName": "Canada",
    "lng": -80.538277,
    "lat": 43.3993617
  },
  {
    "slug": "assiddiq-edmonton",
    "name": "Assiddiq Islamic Center",
    "image1": "https://cdn.mawaqit.net/images/backend/mosque/09efec81-3971-4e6d-a53e-6f02e33a8e54/mosque/1eff631f-0e4d-640a-9b2b-0adf9413746d.jpg",
    "address": "5525 Gateway Blvd NW",
    "city": "EDMONTON",
    "zipcode": "T6H 2H3",
    "countryFullName": "Canada",
    "lng": -113.4911975,
    "lat": 53.492803
  },
  {
    "slug": "waverley-grand-masjid-winnipeg-r3y-1s3-canada",
    "name": "Waverley Grand Mosque",
    "image1": "https://cdn.mawaqit.net/images/backend/mosque/2eacaa16-7390-482e-bb6c-fe5a02af8bcf/mosque/1eff177d-be89-6c44-a162-0a7d06691847.jpg",
    "address": "2445 Waverley St.",
    "city": "WINNIPEG",
    "zipcode": "MB R3Y 1S3",
    "countryFullName": "Canada",
    "lng": -97.1752236,
    "lat": 49.7915578
  },
  {
    "slug": "ccir-delson",
    "name": "CCIR - مسجد التواصل",
    "image1": "https://cdn.mawaqit.net/images/backend/mosque/0674dc53-d585-48c6-9ebe-6a2da03a4b03/mosque/1eff6aa0-2e71-623a-95ef-06ef9144e88f.png",
    "address": "11 4e Avenue Delson",
    "city": "DELSON",
    "zipcode": "QC J5B 1P9",
    "countryFullName": "Canada",
    "lng": -73.5423086,
    "lat": 45.3729002
  },
  {
    "slug": "madina-musallah-mtl",
    "name": "Madina Muslim Foundation",
    "image1": "https://cdn.mawaqit.net/images/backend/mosque/8abb9c74-4aa8-4f93-8d0a-50a502fd3b31/mosque/1f00c0e0-178b-64e8-9acb-0ac73cfd41db.jpg",
    "address": "764 Rue de Liège O",
    "city": "MONTREAL",
    "zipcode": "QC H3N 1B2",
    "countryFullName": "Canada",
    "lng": -73.64242,
    "lat": 45.53183
  },
  {
    "slug": "al-nassr-laval",
    "name": "Al Nassr - النصر",
    "image1": "https://cdn.mawaqit.net/images/backend/mosque/bef414a3-2ba1-428b-bf22-a23f8cf99352/mosque/1f00e1d6-f0a2-6724-b539-06bdda781935.jpg",
    "address": "5045 Boulevard Lévesque E",
    "city": "LAVAL",
    "zipcode": "QC H7C 1N3",
    "countryFullName": "Canada",
    "lng": -73.6452615,
    "lat": 45.6105245
  },
  {
    "slug": "beit-naballa-mosque-winnipeg-r3j-3c3-canada",
    "name": "Beit Naballa Mosque",
    "image1": "https://cdn.mawaqit.net/images/backend/mosque/0088c034-8e53-4523-af02-746d688f8159/mosque/1f0119c5-ed75-68e0-b2ea-0ac73cfd41db.jpg",
    "address": "325 Wallasey Street",
    "city": "WINNIPEG",
    "zipcode": "MB R3J 3C3",
    "countryFullName": "Canada",
    "lng": -97.2645647,
    "lat": 49.8811009
  },
  {
    "slug": "al-sahabah-lachine",
    "name": "Mosquée Al-sahabah",
    "image1": "https://cdn.mawaqit.net/images/backend/mosque/81a3ad4f-63fb-4be4-bf52-17696b927fed/mosque/1f013471-e946-6b86-8c44-06bdda781935.jpg",
    "address": "1212 Rue Notre Dame",
    "city": "LACHINE",
    "zipcode": "QC H8S 2C6",
    "countryFullName": "Canada",
    "lng": -73.6747625,
    "lat": 45.4350786
  },
  {
    "slug": "tci-windsor",
    "name": "The Clear Islam Information Center",
    "image1": "https://cdn.mawaqit.net/images/backend/mosque/13ed9c89-3283-4cd9-8915-6b000cfd5eec/mosque/1f013e82-5323-6972-91c7-0e61b0058d45.jpg",
    "address": "471 Pelissier St",
    "city": "WINDSOR",
    "zipcode": "ON N9A 4L2",
    "countryFullName": "Canada",
    "lng": -83.0389182,
    "lat": 42.3151234
  },
  {
    "slug": "centre-orchidees-laval",
    "name": "Masjid Ammar - Centre Orchidées",
    "image1": "https://cdn.mawaqit.net/images/backend/mosque/d4088786-b960-4dfc-afd4-d6924f20eeaa/mosque/1f0283b8-f42c-6ca2-bd4d-0e31fcfe1275.jpg",
    "address": "911 Montée Gravel",
    "city": "LAVAL",
    "zipcode": "QC H7X 2B6",
    "countryFullName": "Canada",
    "lng": -73.8190208,
    "lat": 45.5265813
  },
  {
    "slug": "ummah-masjid-and-community-centre-halifax",
    "name": "Ummah Masjid & Community Centre",
    "image1": "https://cdn.mawaqit.net/images/backend/mosque/efd0c1e4-dc88-4f5c-b40c-918157f0f531/mosque/1f02a0b2-4ba7-64b2-b8a3-063f15cb3ad3.jpg",
    "address": "2510 St Matthias St",
    "city": "HALIFAX",
    "zipcode": "NS B3L 0A9",
    "countryFullName": "Canada",
    "lng": -63.5977976,
    "lat": 44.6505908
  },
  {
    "slug": "pioneer-mosque-winnipeg-r2m-4w1-canada",
    "name": "Pioneer Mosque",
    "image1": "https://cdn.mawaqit.net/images/backend/mosque/ffab3068-8c7d-4671-85e2-270f2519268d/mosque/1f028ff8-a5c3-6678-abc4-0e31fcfe1275.jpg",
    "address": "247 Hazelwood Avenue",
    "city": "WINNIPEG",
    "zipcode": "MB R2M 4W1",
    "countryFullName": "Canada",
    "lng": -97.1014172,
    "lat": 49.8267139
  },
  {
    "slug": "nova-scotia-islamic-community-nsicc-bedford-b4b-1e2-canada",
    "name": "Nova Scotia Islamic Community (NSICC)",
    "image1": "https://cdn.mawaqit.net/images/backend/mosque/7c65d411-ca4b-4277-af86-4e0d4a794d92/mosque/1f029a75-6b81-6208-9ac7-0e31fcfe1275.jpeg",
    "address": "2141 Larry Uteck Boulevard",
    "city": "BEDFORD",
    "zipcode": "NS B4B 1E2",
    "countryFullName": "Canada",
    "lng": -63.7251256,
    "lat": 44.7212617
  },
  {
    "slug": "ccml-longueuil",
    "name": "CCML - مركز الاسلامي",
    "image1": "https://cdn.mawaqit.net/images/backend/mosque/d73e0046-26a7-45c7-9b91-e1373ac798a8/mosque/1f02ab5e-1723-6bb2-b0e0-0e31fcfe1275.jpg",
    "address": "1398 Ch. de Chambly",
    "city": "LONGUEUIL",
    "zipcode": "QC J4J 3X3",
    "countryFullName": "Canada",
    "lng": -73.4868762,
    "lat": 45.5314207
  },
  {
    "slug": "assalam-laval",
    "name": "Centre Assalam",
    "image1": "https://cdn.mawaqit.net/images/backend/mosque/c978e3f4-5282-43d6-8b54-a518228082f2/mosque/1f02abb8-fe29-6494-b454-0aa0def8c88b.jpg",
    "address": "1235 Mnt du Moulin",
    "city": "LAVAL",
    "zipcode": "QC H7A 2A3",
    "countryFullName": "Canada",
    "lng": -73.5811839,
    "lat": 45.6763066
  },
  {
    "slug": "annour-sherbrooke",
    "name": "Mosquée Annour - مسجد النور",
    "image1": "https://cdn.mawaqit.net/images/backend/mosque/fe7da007-78ba-40ef-8fb4-6cf02e467c6b/mosque/1f02b461-0cd5-660e-9fa5-0635836831ef.jpg",
    "address": "3232 Rue Richard",
    "city": "SHERBROOKE",
    "zipcode": "QC J1L 1Y2",
    "countryFullName": "Canada",
    "lng": -71.9483009,
    "lat": 45.4101137
  },
  {
    "slug": "masjid-makkah-mtl",
    "name": "Masjid Makkah-Al-Mukkaramah",
    "image1": "https://cdn.mawaqit.net/images/backend/mosque/edd583f2-6e45-4931-b879-bd4720a2a11f/mosque/1f0314a4-44c7-6a32-a20b-0633aa0c74d7.jpg",
    "address": "11900 Boul Gouin O",
    "city": "PIERREFONDS - ROXBORO",
    "zipcode": "QC H8Z 1V6",
    "countryFullName": "Canada",
    "lng": -73.8249959,
    "lat": 45.5069847
  },
  {
    "slug": "ccalhuda-mtl",
    "name": "Al Huda Community Center",
    "image1": "https://cdn.mawaqit.net/images/backend/mosque/b18c3a52-6ba4-4802-b878-79ff1e31e7ca/mosque/1f038014-32e2-6d5e-824c-0e64c74f2ff1.jpg",
    "address": "9540 Boul Gouin O",
    "city": "MONTREAL",
    "zipcode": "QC H8Y 2B1",
    "countryFullName": "Canada",
    "lng": -73.7794368,
    "lat": 45.5038107
  },
  {
    "slug": "cic-aljamieh",
    "name": "Canadian Islamic Center - Al-Jamieh",
    "image1": "https://cdn.mawaqit.net/images/backend/mosque/4ea5836a-f379-4c9d-923d-1dc7814b4615/mosque/1f0314da-b2ea-6ae2-a673-0e325d5c4035.jpg",
    "address": "241 Av. Anselme-Lavigne",
    "city": "DOLLARD-DES-ORMEAUX",
    "zipcode": "QC H9A 3H6",
    "countryFullName": "Canada",
    "lng": -73.8380177,
    "lat": 45.4926203
  },
  {
    "slug": "sakina-mtl",
    "name": "Sakina Center West Island",
    "image1": "https://cdn.mawaqit.net/images/backend/mosque/2e1d57e1-01ce-4449-ac34-0cf938c75aae/mosque/1f035c8a-1751-655c-a91b-066842e15bfb.jpg",
    "address": "2111-A Boul Saint Regis",
    "city": "DOLLARD-DES-ORMEAUX",
    "zipcode": "QC H9B 2M9",
    "countryFullName": "Canada",
    "lng": -73.7879928,
    "lat": 45.485599
  },
  {
    "slug": "islamic-society-of-belleville",
    "name": "Islamic Society of Belleville",
    "image1": "https://cdn.mawaqit.net/images/backend/mosque/11da22ec-f92f-44ae-84f4-e37247bd5b86/mosque/1f03a529-b6c6-6c94-a8b8-0abb1d73129d.jpg",
    "address": "33 Moira St W, Belleville",
    "city": "BELLEVILLE",
    "zipcode": "ON K8P 1S4",
    "countryFullName": "Canada",
    "lng": -77.38808,
    "lat": 44.1682308
  }
]