[
  {
    "slug": "-23",
    "name": "Skive Masjid",
    "image1": "https://cdn.mawaqit.net/images/backend/mosque/f8bc3695-6d7a-4c9e-b383-cad67e840dd0/mosque/1ef5d6cb-709c-6578-9d1b-0600dbafaeef.png",
    "address": "H C Ørsteds Vej 10,",
    "city": "SKIVE",
    "zipcode": "7800",
    "countryFullName": "Denmark",
    "lng": 9.017296,
    "lat": 56.553214
  },
  {
    "slug": "-24",
    "name": "مسجد الياسين",
    "image1": "https://cdn.mawaqit.net/images/backend/mosque/1be69c50-ea8c-41ef-9496-86327d53990a/mosque/1ef5e1b3-c961-6ddc-8c95-0e4a41cdad45.png",
    "address": "Stokbrogade 12",
    "city": "HJøRRING",
    "zipcode": "9800",
    "countryFullName": "Denmark",
    "lng": 9.9848945,
    "lat": 57.4614577
  },
  {
    "slug": "bilali-habesi-cami-svendborg-5700-denmark",
    "name": "Bilal'i Habesi Cami",
    "image1": "https://cdn.mawaqit.net/images/backend/mosque/8d0326fc-e035-4341-ade8-072200b880f6/mosque/1ef9b09a-ffc6-6c88-a6bf-0671c73660c5.jpg",
    "address": "Nyborgvej 117",
    "city": "SVENDBORG",
    "zipcode": "5700",
    "countryFullName": "Denmark",
    "lng": 10.6307315,
    "lat": 55.0694994
  },
  {
    "slug": "iman-moske-odense-5240-denmark",
    "name": "Iman Moske",
    "image1": "https://cdn.mawaqit.net/images/backend/mosque/c75d2ac2-5f79-44e1-b4ff-0ff3b64a533d/mosque/1effdc73-453e-6bda-bd81-0e61b0058d45.jpg",
    "address": "Nordbirkvej 4 , Denmark",
    "city": "ODENSE",
    "zipcode": "5240",
    "countryFullName": "Denmark",
    "lng": 10.4412695,
    "lat": 55.431411
  }
]