[
  {
    "slug": "sondlapara-mallickpara-jama-masjid-kolkata",
    "name": "Sondla Para  Jama Masjid",
    "image1": "https://cdn.mawaqit.net/images/backend/mosque_default_picture.png",
    "address": "588, Sodla Tank Rd, Garulia",
    "city": "KOLKATA",
    "zipcode": "743133",
    "countryFullName": "INDIA",
    "lng": 88.374039,
    "lat": 22.8158959
  },
  {
    "slug": "masjid-islam-karaikal",
    "name": "மஸ்ஜிதுல் இஸ்லாம்",
    "image1": "https://cdn.mawaqit.net/images/backend/mosque_default_picture.png",
    "address": "Puduthurai Road",
    "city": "Karaikal",
    "zipcode": "609602",
    "countryFullName": "India",
    "lng": 79.825718422298,
    "lat": 10.917465270058
  },
  {
    "slug": "masjid-puducherry",
    "name": "Ambagarathur Jami'a Masjid",
    "image1": "https://cdn.mawaqit.net/images/backend/mosque_default_picture.png",
    "address": "Big Mosque Street",
    "city": "Ambagarathur",
    "zipcode": "609601",
    "countryFullName": "INDIA",
    "lng": 79.7294113,
    "lat": 10.9543588
  },
  {
    "slug": "adiyakkamangalam-jamia-masjid-adiyakkamangalam",
    "name": "Adiyakkamangalam Jami'a Masjid",
    "image1": "https://cdn.mawaqit.net/images/backend/mosque_default_picture.png",
    "address": "Big Masjid Street",
    "city": "Adiyakkamangalam",
    "zipcode": "611101",
    "countryFullName": "INDIA",
    "lng": 79.6768724,
    "lat": 10.7612556
  },
  {
    "slug": "thowheed-ambagarathur",
    "name": "Masjid-ud-Thowheed,Ambagarathur",
    "image1": "https://cdn.mawaqit.net/images/backend/mosque_default_picture.png",
    "address": "06,South street",
    "city": "Ambagarathur",
    "zipcode": "609601",
    "countryFullName": "India",
    "lng": 79.7259658,
    "lat": 10.9620576
  },
  {
    "slug": "masjid-ar-rahman-kidc-karaikal",
    "name": "மஸ்ஜிதுர் ரஹ்மான் - KIDC",
    "image1": "https://cdn.mawaqit.net/images/backend/mosque/675a9c77-9765-44e8-9054-0b1e212f859c/mosque/1eea8dfc-e29c-634e-8cd1-066ed47a7584.jpg",
    "address": "4 Rahman Road - KSR Garden - Latif Nagar",
    "city": "Karaikal",
    "zipcode": "609602",
    "countryFullName": "India",
    "lng": 79.838913693911,
    "lat": 10.924119251495
  },
  {
    "slug": "tafheemul-uloom-bhopal-462001-india",
    "name": "مدرسہ عربیہ تفہیم العلوم",
    "image1": "https://cdn.mawaqit.net/images/backend/mosque/d15f5429-9cc0-4375-8f6b-e95c12ecce64/mosque/1eea8e0a-e72b-6226-aed3-066ed47a7584.jpg",
    "address": "gurunanak colony Qaziq camp",
    "city": "Bhopal",
    "zipcode": "462001",
    "countryFullName": "India",
    "lng": 77.404653175487,
    "lat": 23.273483833072
  },
  {
    "slug": "masjid-e-ali-himatnagar-383001-india",
    "name": "MASJID E ALI",
    "image1": "https://cdn.mawaqit.net/images/backend/mosque/fe65f8e0-d9b6-4581-8593-50e3bd6067fd/mosque/1eea8e27-98a0-6dbe-922e-066ed47a7584.jpg",
    "address": "JX53+HHH Zahirabad Savgadh, Parabada",
    "city": "Himatnagar,-Gujarat",
    "zipcode": "383220",
    "countryFullName": "India",
    "lng": 72.9539844,
    "lat": 23.6089375
  },
  {
    "slug": "muhyiddeen-jamia-masjid-karaikal-609602-india",
    "name": "முஹ்யித்தீன் ஜாமிஆ மஸ்ஜித்",
    "image1": "https://cdn.mawaqit.net/images/backend/mosque/41a28b68-fa26-4705-b371-5a7a2c4f574f/mosque/1eea8e2c-8833-69b8-b277-066ed47a7584.jpg",
    "address": "Maideen Palli Street",
    "city": "Karaikal",
    "zipcode": "609602",
    "countryFullName": "India",
    "lng": 79.8357103,
    "lat": 10.9247459
  },
  {
    "slug": "masjid-alfalah-srinagar",
    "name": "Masjid Alfalah",
    "image1": "https://cdn.mawaqit.net/images/backend/mosque/f8d8f552-0320-4004-a965-6f3660c02387/mosque/1eea8e34-0e26-6b2c-814f-066ed47a7584.jpg",
    "address": "Hamdania Colony Bemina",
    "city": "Srinagar",
    "zipcode": "190010",
    "countryFullName": "India",
    "lng": 74.7600404,
    "lat": 34.0670462
  },
  {
    "slug": "masjid-e-mohammadi-visakhapatnam-530016-india",
    "name": "MASJID - E - MOHAMMADI",
    "image1": "https://cdn.mawaqit.net/images/backend/mosque/44be57ad-6785-4e20-b353-1269dd090f2c/mosque/1eea8ea1-bed5-6a28-b8f6-066ed47a7584.jpg",
    "address": "D.NO. 44-24-1, RAILWAY NEW COLONY",
    "city": "VISAKHAPATNAM",
    "zipcode": "530016",
    "countryFullName": "India",
    "lng": 83.2918972,
    "lat": 17.7298385
  },
  {
    "slug": "gm-ecity-town-prayer-hall-bangalore-560099-india",
    "name": "GM E-CITY TOWN PRAYER HALL",
    "image1": "https://cdn.mawaqit.net/images/backend/mosque/92399274-c40a-42ec-a26a-39b1e84bafb3/mosque/1eea8eba-a362-6656-962c-066ed47a7584.jpg",
    "address": "Clubhouse basement, GM E-City Town, Electronics City Phase 1,",
    "city": "BANGALORE",
    "zipcode": "560099",
    "countryFullName": "India",
    "lng": 77.665141183129,
    "lat": 12.820466631544
  },
  {
    "slug": "masjid-e-touheed-bangalore-560016-india",
    "name": "Masjid E Touheed",
    "image1": "https://cdn.mawaqit.net/images/backend/mosque/76eebc90-04bb-4af2-9f69-823653b0a494/mosque/1eea8ecd-731d-6b22-b379-066ed47a7584.jpg",
    "address": "Touheed Masjid road,3rd cross, opposite to FCI godown,vijinapura",
    "city": "BANGALORE",
    "zipcode": "560016",
    "countryFullName": "India",
    "lng": 77.6700766,
    "lat": 13.0011966
  },
  {
    "slug": "hiluru-palli-jamiya-masjid-karaikal-609602-india",
    "name": "ஹிலுருப்பள்ளி ஜாமிஆ மஸ்ஜித்",
    "image1": "https://cdn.mawaqit.net/images/backend/mosque/0d4d6bd2-2699-4a4f-a0ec-128bfdad83eb/mosque/1eec27a8-6d3e-6d44-9786-0aedfd0440f0.png",
    "address": "Kidar Masjid, Quaid-E-Millath Street",
    "city": "KARAIKAL",
    "zipcode": "609602",
    "countryFullName": "India",
    "lng": 79.8306372,
    "lat": 10.9158225
  },
  {
    "slug": "elahi-jamia-masjid-karaikal-609602-india",
    "name": "Elahi Jamia Masjid",
    "image1": "https://cdn.mawaqit.net/images/backend/mosque/22b45ec9-1f13-4725-8e97-a7c5c62c008f/mosque/1eee12c6-2f5a-68c4-b422-0611389194c7.png",
    "address": "WRFH+2F5, Karaikal, Puducherry 609602, Inde",
    "city": "KARAIKAL",
    "zipcode": "609602",
    "countryFullName": "India",
    "lng": 79.8287344,
    "lat": 10.9225125
  },
  {
    "slug": "masjid-e-ibrahim-himatnagar-383001-india",
    "name": "Masjid E Ibrahim",
    "image1": "https://cdn.mawaqit.net/images/backend/mosque/25a0c900-5c26-4652-aafa-06dacdcf51d5/mosque/1ef15f3d-193a-6348-8fe8-0a33d0408e15.jpg",
    "address": "Behind Superone Market, Paradise Complex, Panpur Patiya",
    "city": "HIMATNAGAR",
    "zipcode": "383001",
    "countryFullName": "India",
    "lng": 72.950127,
    "lat": 23.6168344
  },
  {
    "slug": "masjid-zakariya-srinagar-190011-india",
    "name": "MASJID ZAKARIYA QURESHI MOHALLAH",
    "image1": "https://cdn.mawaqit.net/images/backend/mosque/4edcb862-407f-48d6-9141-58769a2d631f/mosque/1ef44763-7c2c-6f62-bbba-0600dbafaeef.jpg",
    "address": "QURESHI MOHALLAH LAL BAZAR",
    "city": "SRINAGAR",
    "zipcode": "190011",
    "countryFullName": "India",
    "lng": 74.820660352707,
    "lat": 34.123662374583
  },
  {
    "slug": "teru-plllli-jaamiyaa-msjit-karaikal-609602-india",
    "name": "தெரு பள்ளி ஜாமியா மஸ்ஜித்",
    "image1": "https://cdn.mawaqit.net/images/backend/mosque/2dfdfdbd-3f5a-4816-8d23-492576194d50/mosque/1ef768de-395d-68cc-8acb-0600dbafaeef.jpeg",
    "address": "WRFP+46F, Mariamman Koil Street, Karaikal, Puducherry 609602, India",
    "city": "KARAIKAL",
    "zipcode": "609602",
    "countryFullName": "India",
    "lng": 79.8357373,
    "lat": 10.9229818
  },
  {
    "slug": "masjid-umar-bin-khattab-kanpur-2080004-india",
    "name": "مسجد عمر بن الخطاب",
    "image1": "https://cdn.mawaqit.net/images/backend/mosque/b816e85c-a25f-46c8-b6a9-026e4083bc4c/mosque/1ef827f3-571e-690e-a861-0affcb0701ab.jpg",
    "address": "Lakadmandi, Colonelganj, Kanpur, Uttar Pradesh",
    "city": "KANPUR",
    "zipcode": "208001",
    "countryFullName": "India",
    "lng": 80.340122133493,
    "lat": 26.47364388005
  },
  {
    "slug": "ahli-hadith-masjid-befina-pampore-192121-india",
    "name": "اھلحديث مسجد بفنہ پانپور",
    "image1": "https://cdn.mawaqit.net/images/backend/mosque/5a06d87a-e4b3-4c4f-9174-6c8c679072f9/mosque/1efa26e7-302a-6a1a-bc86-0e9d077f5bb1.png",
    "address": "Befina - Balhama Rd, Jammu and Kashmir",
    "city": "PAMPORE",
    "zipcode": "192121",
    "countryFullName": "India",
    "lng": 74.9237779,
    "lat": 34.031127
  },
  {
    "slug": "masjid-e-quba-anantapur-515701-india",
    "name": "Masjid-e-Quba",
    "image1": "https://cdn.mawaqit.net/images/backend/mosque/79968e53-3387-4e4a-9403-6910027c8d69/mosque/1efaef67-309c-69c8-856d-0e9d077f5bb1.jpg",
    "address": "Saleema Garden, C.Bandameedapalli",
    "city": "ANANTAPUR",
    "zipcode": "515701",
    "countryFullName": "India",
    "lng": 77.74004740057,
    "lat": 14.775841153646
  },
  {
    "slug": "thakva-jamiah-masjidu-karaikal-609602-india",
    "name": "தக்வா ஜாமிஆ மஸ்ஜித்-காரைக்கால்",
    "image1": "https://cdn.mawaqit.net/images/backend/mosque/be635777-cc77-411d-85fb-0d93c2619e91/mosque/1efb4770-3855-6064-8777-0eb2b01d4617.jpg",
    "address": "22,pallivasal street,1st cross,ganapathi nagar",
    "city": "KARAIKAL",
    "zipcode": "609602",
    "countryFullName": "India",
    "lng": 79.8281053,
    "lat": 10.9191051
  },
  {
    "slug": "jaamiaa-msjit-ceyytu-plllli-nagore-611002-india",
    "name": "ஜாமிஆ மஸ்ஜித் செய்யது பள்ளி",
    "image1": "https://cdn.mawaqit.net/images/backend/mosque/a63d6947-860e-479b-8716-ed72eba6964e/mosque/1efb61db-82db-6356-b2c0-069dbb1b261f.png",
    "address": "Syed Palli Street",
    "city": "NAGORE",
    "zipcode": "611002",
    "countryFullName": "India",
    "lng": 79.8413307,
    "lat": 10.8165672
  },
  {
    "slug": "masjid-un-noor-jamia-masjid-karaikal-609602-india",
    "name": "Masjid-un-Noor Jamia Masjid",
    "image1": "https://cdn.mawaqit.net/images/backend/mosque/614ad15c-7e50-453c-b2fc-923226d85906/mosque/1efb8723-4047-6c84-8ea8-0a21b15e7a1f.jpg",
    "address": "WRHR+VXR, Unnamed Road, Kilinjalmedu, Karaikal, Puducherry 609602, India",
    "city": "KARAIKAL",
    "zipcode": "609602",
    "countryFullName": "India",
    "lng": 79.8423906,
    "lat": 10.9297375
  },
  {
    "slug": "tntj-margas-neravy-karaikal-609604-india",
    "name": "TNTJ MARGAS NERAVY",
    "image1": "https://cdn.mawaqit.net/images/backend/mosque/ce532f04-aec1-4bfb-b12c-4032993c5ab2/mosque/1efbecb5-c72d-6bfc-a891-0a21b15e7a1f.jpg",
    "address": "26, VAZHAI KOLLAI STREET, NERAVY",
    "city": "KARAIKAL",
    "zipcode": "609604",
    "countryFullName": "India",
    "lng": 79.819775280652,
    "lat": 10.89131375516
  },
  {
    "slug": "hilurru-jaamiaa-msjit-kaattttupplllli-nagore-611002-india",
    "name": "ஹிலுறு ஜாமிஆ மஸ்ஜித்-காட்டுப்பள்ளி",
    "image1": "https://cdn.mawaqit.net/images/backend/mosque/8f0ca6ad-405a-4d05-b3e5-bf0601ffd16d/mosque/1efd4280-7f95-66e2-9988-0e61b0058d45.png",
    "address": "mia street, near railway station",
    "city": "NAGORE",
    "zipcode": "611002",
    "countryFullName": "India",
    "lng": 79.8391001,
    "lat": 10.8127803
  },
  {
    "slug": "masjid-e-ihsan-bardoli-394601-india-view-desktop",
    "name": "Masjid-e-ihsan",
    "image1": "https://cdn.mawaqit.net/images/backend/mosque/e8864999-6aa9-4fc7-ae78-b5ad98b0405a/mosque/1efd9557-a20f-64e6-b0e1-0ac178b258e1.png",
    "address": "Ihsan Park Nr. Kasturi Hotel, Isroli Vyara - Bardoli Highway",
    "city": "BARDOLI",
    "zipcode": "394601",
    "countryFullName": "India",
    "lng": 73.1196523,
    "lat": 21.1063834
  },
  {
    "slug": "masjid-umar-shopian-192303-india",
    "name": "Masjid Umar",
    "image1": "https://cdn.mawaqit.net/images/backend/mosque/b90a2c09-59c1-40f9-aa36-5a2dc7d30b58/mosque/1efdac47-33da-6e7e-a007-0e61b0058d45.jpg",
    "address": "Zawoora shopian jammu and kashmir India 192303",
    "city": "SHOPIAN",
    "zipcode": "192303",
    "countryFullName": "India",
    "lng": 74.810946156783,
    "lat": 33.734938983014
  },
  {
    "slug": "masjid-e-hazrath-shaikh-mohammed-bangalore-560043-india",
    "name": "Masjid e Hazrath Shaikh Mohammed (RA)",
    "image1": "https://cdn.mawaqit.net/images/backend/mosque/67c794c6-7047-4109-8093-b1a752e6367b/mosque/1efe21af-8542-6996-97e0-0ac178b258e1.jpeg",
    "address": "HN-122/G, DET Building, Chikkanna Layout, HBR Layout",
    "city": "BANGALORE",
    "zipcode": "560043",
    "countryFullName": "India",
    "lng": 77.6400098,
    "lat": 13.0393319
  },
  {
    "slug": "masjid-talha-lucknow-226021-india",
    "name": "مسجد طلحہ",
    "image1": "https://cdn.mawaqit.net/images/backend/mosque/261bcc5a-855e-4a2a-87ed-b808c71a5928/mosque/1efe45d7-d2d3-688a-9ff0-063aa5df5c67.png",
    "address": "615/74 Sitapur Road, Gayatri Nagar-3",
    "city": "LUCKNOW",
    "zipcode": "226021",
    "countryFullName": "India",
    "lng": 80.9381735,
    "lat": 26.907708
  },
  {
    "slug": "jamia-masjid-darpora-zaingeer-baramulla-193201-india",
    "name": "Jamia Masjid Darpora Zaingeer",
    "image1": "https://cdn.mawaqit.net/images/backend/mosque/4f6b9951-5b48-46f8-848b-f8247c257670/mosque/1efeabc1-bc50-6e50-9e62-0a7d06691847.png",
    "address": "Darpora Bomai Sopore",
    "city": "BARAMULLA",
    "zipcode": "193201",
    "countryFullName": "India",
    "lng": 74.3895359,
    "lat": 34.3653952
  },
  {
    "slug": "jm-mhmdyh-salla-llahu-alayhi-wasallam-msjd-shryf-twhydpwrh-khnn-srinagar-191202-india",
    "name": "جامع محمدیہﷺ مسجد شریف توحیدپورہ خانن",
    "image1": "https://cdn.mawaqit.net/images/backend/mosque/3876d623-71bd-4cd9-a7e5-3d53ef6dfc32/mosque/1efeffc9-41ec-6c3e-8145-0e61b0058d45.jpg",
    "address": "Towheedpora Khanan, Kangan, 191202",
    "city": "SRINAGAR",
    "zipcode": "191202",
    "countryFullName": "India",
    "lng": 74.925363063812,
    "lat": 34.29780245226
  },
  {
    "slug": "masjid-e-ameer-e-muaviyyah-srinagar-190006-india",
    "name": "Masjid e Ameer e Muaviyyah",
    "image1": "https://cdn.mawaqit.net/images/backend/mosque/1af4d787-36fe-4c0f-b58a-c4e007e71545/mosque/1effbc05-eb4e-6a36-a486-0e61b0058d45.jpg",
    "address": "Dar Mohalla, Tailbal",
    "city": "SRINAGAR",
    "zipcode": "190006",
    "countryFullName": "India",
    "lng": 74.824963,
    "lat": 34.0838246
  },
  {
    "slug": "masjid-e-asar-shareef-yadgir-585201-india",
    "name": "MASJID-E-ASAR SHAREEF",
    "image1": "https://cdn.mawaqit.net/images/backend/mosque/7748c378-a858-4e0f-a9a4-6ba160d64172/mosque/1f0094fd-2374-6ba6-8261-06bdda781935.jpg",
    "address": "Asar Mohalla",
    "city": "YADGIR",
    "zipcode": "585201",
    "countryFullName": "India",
    "lng": 77.13628,
    "lat": 16.7711349
  },
  {
    "slug": "therupalli-jamiya-masjid-nagapattinam-611002-india",
    "name": "Therupalli Jamiya Masjid Nagore",
    "image1": "https://cdn.mawaqit.net/images/backend/mosque/7c47a25c-809d-4d09-b5ca-5a7da77565be/mosque/1f0317eb-d07d-6708-a8cd-0e325d5c4035.webp",
    "address": "Theru Palli Street, Nagore, Nagapattinam, Tamil Nadu, India",
    "city": "NAGAPATTINAM",
    "zipcode": "611002",
    "countryFullName": "India",
    "lng": 79.842345714569,
    "lat": 10.820639486414
  },
  {
    "slug": "masjid-e-ammar-ahle-hadith-bangalore-560032-india",
    "name": "Masjid e Ammar Ahle hadith",
    "image1": "https://cdn.mawaqit.net/images/backend/mosque/0bc270ae-e55a-4e30-a7e8-89bf43d2cc5a/mosque/1f037c41-6b63-67cc-8101-06e62934e98f.jpeg",
    "address": "Kanaka Nagar, Hebbal, Bengaluru, Karnataka 560032",
    "city": "BANGALORE",
    "zipcode": "560032",
    "countryFullName": "India",
    "lng": 77.6052704,
    "lat": 13.0343995
  },
  {
    "slug": "masjid-e-khaleelullah-bengaluru-560032-india",
    "name": "Masjid-e-Khaleelullah",
    "image1": "https://cdn.mawaqit.net/images/backend/mosque/e365df94-c3a1-4d45-8cf8-4c275cca104d/mosque/1f0386c4-7def-6ca0-9fc2-0abb1d73129d.jpeg",
    "address": "Chamundi Nagar, Hebbal, Bengaluru, Karnataka, India",
    "city": "BENGALURU",
    "zipcode": "560032",
    "countryFullName": "India",
    "lng": 77.5976218,
    "lat": 13.0275325
  }
]