[
  {
    "slug": "associazione-culturale-islamica-di-treviso-villorba",
    "name": "Associazione Culturale Islamica  di TV",
    "image1": "https://cdn.mawaqit.net/images/backend/mosque_default_picture.png",
    "address": "VIA A.VOLTA N40",
    "city": "VILLORBA",
    "zipcode": "31020",
    "countryFullName": "Italy",
    "lng": 12.2498198,
    "lat": 45.7247839
  },
  {
    "slug": "kachni-modena",
    "name": "Kachni",
    "image1": "https://cdn.mawaqit.net/images/backend/mosque_default_picture.png",
    "address": null,
    "city": "Modena",
    "zipcode": "41122",
    "countryFullName": "ITALY",
    "lng": 10.9519982,
    "lat": 44.6696794
  },
  {
    "slug": "centro-della-cultura-islamica-in-abruzzo-teramo",
    "name": "Centro della cultura islamica in Abruzzo",
    "image1": "https://cdn.mawaqit.net/images/backend/mosque_default_picture.png",
    "address": "via Galileo Galilei 15. fr.ne San Nicolò a T.",
    "city": "Teramo",
    "zipcode": "64100",
    "countryFullName": "Italy",
    "lng": 13.7978714,
    "lat": 42.7008135
  },
  {
    "slug": "moschea-di-pordenone-pordenone",
    "name": "MOSCHEA DI PORDENONE",
    "image1": "https://cdn.mawaqit.net/images/backend/mosque_default_picture.png",
    "address": "via de la comina 29 ,",
    "city": "Pordenone",
    "zipcode": "33170",
    "countryFullName": "Italy",
    "lng": 12.6439694,
    "lat": 45.995174
  },
  {
    "slug": "alba-de-futuro-villafranca-vr",
    "name": "L'ALBA DEL FUTURO",
    "image1": "https://cdn.mawaqit.net/images/backend/mosque_default_picture.png",
    "address": "Viale del lavoro 18 D",
    "city": "Villafranca",
    "zipcode": "37069",
    "countryFullName": "Italy",
    "lng": 10.8642967,
    "lat": 45.3631325
  },
  {
    "slug": "comunita-islamica-bellunese",
    "name": "Comunità Islamica Bellunese",
    "image1": "https://cdn.mawaqit.net/images/backend/mosque_default_picture.png",
    "address": "Via Tiziano Vecellio , 82T",
    "city": "Belluno",
    "zipcode": "32100",
    "countryFullName": "Italy",
    "lng": 12.2414024,
    "lat": 46.1628791
  },
  {
    "slug": "aci-cureggio",
    "name": "Centro Culturale Islamico di Borgomanero",
    "image1": "https://cdn.mawaqit.net/images/backend/mosque_default_picture.png",
    "address": "Via Borgomanero N.38",
    "city": "Cureggio",
    "zipcode": "28060",
    "countryFullName": "ITALY",
    "lng": 8.45984,
    "lat": 45.68313
  },
  {
    "slug": "al-huda-onlus-biella",
    "name": "Ass Culturale Islamica Al Huda  Biella",
    "image1": "https://cdn.mawaqit.net/images/backend/mosque/5a0fd12b-24f2-4bcf-8afd-f190c50099b2/mosque/1eea8da2-6ab1-6028-9d9c-066ed47a7584.jpg",
    "address": "Via Meschiatis n°3/A",
    "city": "Biella",
    "zipcode": "13900",
    "countryFullName": "Italy",
    "lng": 8.0414332,
    "lat": 45.5561184
  },
  {
    "slug": "ici-milano",
    "name": "المعهد الثقافي الاسلامي",
    "image1": "https://cdn.mawaqit.net/images/backend/mosque/c8dc35a5-1187-4e06-a49c-b27ee4c3ea42/mosque/1eea8da3-0465-6322-a4cf-066ed47a7584.png",
    "address": "VIALE E, JENNER 50",
    "city": "Milano",
    "zipcode": "20159",
    "countryFullName": "Italy",
    "lng": 9.1753113269806,
    "lat": 45.497007413114
  },
  {
    "slug": "masjid-annor",
    "name": "مسجد النور",
    "image1": "https://cdn.mawaqit.net/images/backend/mosque_default_picture.png",
    "address": "Località Chopine, 40,",
    "city": "Verres",
    "zipcode": "11029",
    "countryFullName": "Italy",
    "lng": 7.683219,
    "lat": 45.670894
  },
  {
    "slug": "tawfiq-medesano",
    "name": "مركز التوفيق الإسلامي",
    "image1": "https://cdn.mawaqit.net/images/backend/mosque/95f861c4-3944-443b-aec0-de932f3adba6/mosque/1eea8da5-602c-6d52-9014-066ed47a7584.jpg",
    "address": "Strada Cervo 1",
    "city": "Medesano",
    "zipcode": "43014",
    "countryFullName": "ITALY",
    "lng": 10.1419429,
    "lat": 44.7585852
  },
  {
    "slug": "del-piceno-fermo",
    "name": "C.C.I.P FERMO - مسجد الرحمة",
    "image1": "https://cdn.mawaqit.net/images/backend/mosque_default_picture.png",
    "address": "Via Girola Valtanna 171",
    "city": "Fermo",
    "zipcode": "63900",
    "countryFullName": "Italy",
    "lng": 13.6504103,
    "lat": 43.1532941
  },
  {
    "slug": "almadina-sassuolo",
    "name": "مسجد المدينة",
    "image1": "https://cdn.mawaqit.net/images/backend/mosque/3125c71a-bc79-4beb-9db3-7970deca6930/mosque/1eea8da7-18f4-653c-9486-066ed47a7584.JPG",
    "address": "Via cavour, 68",
    "city": "Sassuolo",
    "zipcode": "41049",
    "countryFullName": "Italy",
    "lng": 10.7930877,
    "lat": 44.5410074
  },
  {
    "slug": "annour-aosta",
    "name": "Moschea Salam",
    "image1": "https://cdn.mawaqit.net/images/backend/mosque/33d66e0f-e870-4998-a6fc-96b81bed9f3d/mosque/1eea8da7-f521-67ee-80d6-066ed47a7584.jpg",
    "address": "Viale Giorgio Carrel , 42",
    "city": "Aosta",
    "zipcode": "11100",
    "countryFullName": "Italy",
    "lng": 7.3267897,
    "lat": 45.7353257
  },
  {
    "slug": "m-assalam",
    "name": "جمعية السلام",
    "image1": "https://cdn.mawaqit.net/images/backend/mosque_default_picture.png",
    "address": "Via Meucci,  n° 4",
    "city": "Piove-Di-Sacco,-Padova",
    "zipcode": "35028",
    "countryFullName": "Italy",
    "lng": 12.0503555,
    "lat": 45.2850031
  },
  {
    "slug": "attawasol-montebelluna",
    "name": "مسجد التواصل Moschea Attawasol",
    "image1": "https://cdn.mawaqit.net/images/backend/mosque/83fd2a13-4831-40f5-b613-10bdfbbd151e/mosque/1eea8da9-0ad7-6038-8b7b-066ed47a7584.jpg",
    "address": "PIAZZA PARIGI N3",
    "city": "Montebelluna",
    "zipcode": "31044",
    "countryFullName": "Italy",
    "lng": 12.061189,
    "lat": 45.7799473
  },
  {
    "slug": "alhidaya-sanremo",
    "name": "مسجد الهداية",
    "image1": "https://cdn.mawaqit.net/images/backend/mosque/974bd4e3-f085-4f65-9007-d24bb83d4eeb/mosque/1eea8daa-180f-6998-a625-066ed47a7584.jpg",
    "address": "Via Galileo Galilei 325",
    "city": "Sanremo",
    "zipcode": "18038",
    "countryFullName": "Italy",
    "lng": 7.7619983,
    "lat": 43.8248145
  },
  {
    "slug": "assalam-reggio",
    "name": "مسجد السلام",
    "image1": "https://cdn.mawaqit.net/images/backend/mosque_default_picture.png",
    "address": "Via Flavio Gioia n 7",
    "city": "Reggio-Emilia",
    "zipcode": "42124",
    "countryFullName": "Italy",
    "lng": 10.6440032,
    "lat": 44.7020485
  },
  {
    "slug": "arrahma-modena",
    "name": "Moschea la Misericordia مسجد الرحمة",
    "image1": "https://cdn.mawaqit.net/images/backend/mosque/a5ebe733-c2ff-420b-a1b3-535be3fc620e/mosque/1eea8daa-caf4-641e-9e09-066ed47a7584.JPG",
    "address": "Via Portogallo, 16",
    "city": "Modena",
    "zipcode": "41122",
    "countryFullName": "Italy",
    "lng": 10.9421629,
    "lat": 44.6662283
  },
  {
    "slug": "iklas-mirandola",
    "name": "مسجد الإخلاص",
    "image1": "https://cdn.mawaqit.net/images/backend/mosque/7d5bb35c-3ecc-43f6-b46b-22276b9c564b/mosque/1eea8dab-3fb3-6ec6-b087-066ed47a7584.jpg",
    "address": "via Seratina n 17",
    "city": "Mirandola",
    "zipcode": "41037",
    "countryFullName": "Italy",
    "lng": 11.0632969,
    "lat": 44.8863605
  },
  {
    "slug": "al-nur-reggio-emilia",
    "name": "مسجد النور",
    "image1": "https://cdn.mawaqit.net/images/backend/mosque/0c458f9f-b627-4fb1-85a4-776684661bb8/mosque/1eea8dab-81b0-69b4-9fb6-066ed47a7584.PNG",
    "address": "VIA: CRISTOFORO MONARI 15/1",
    "city": "Reggio-Emilia",
    "zipcode": "42122",
    "countryFullName": "Italy",
    "lng": 10.6534965,
    "lat": 44.6822269
  },
  {
    "slug": "marzabotto-bologna",
    "name": "Ass. culturale Islamica Marzabotto",
    "image1": "https://cdn.mawaqit.net/images/backend/mosque_default_picture.png",
    "address": "Via Sperticano",
    "city": "Marzabotto-Bologna",
    "zipcode": "40043",
    "countryFullName": "Italy",
    "lng": 11.190841,
    "lat": 44.3277522
  },
  {
    "slug": "omar-torino",
    "name": "مسجد عمر",
    "image1": "https://cdn.mawaqit.net/images/backend/mosque/9dc710d7-75c4-47c3-a298-333968ac33d1/mosque/1eea8dac-1128-6e98-be11-066ed47a7584.jpeg",
    "address": "Via Saluzzo 18",
    "city": "Torino",
    "zipcode": "10125",
    "countryFullName": "Italy",
    "lng": 7.6791774,
    "lat": 45.0596927
  },
  {
    "slug": "taqwa-torino",
    "name": "مسجد التقوى",
    "image1": "https://cdn.mawaqit.net/images/backend/mosque/568875b6-a99e-49c4-9ecb-b153c3b86f8f/mosque/1eea8dac-4853-601c-ad90-066ed47a7584.jpg",
    "address": "Via Sansovino, 5",
    "city": "Torino",
    "zipcode": "10151",
    "countryFullName": "Italy",
    "lng": 7.6353345,
    "lat": 45.0990709
  },
  {
    "slug": "cci-mantovano",
    "name": "CENTRO C. ISLAMICO MANTOVANO",
    "image1": "https://cdn.mawaqit.net/images/backend/mosque/3d788159-4848-4315-b3e7-f6e987818e37/mosque/1eea8dad-a33c-62ac-8d6c-066ed47a7584.jpeg",
    "address": "Via londra 28/30",
    "city": "Porto-Mantovano",
    "zipcode": "46047",
    "countryFullName": "Italy",
    "lng": 10.7750013,
    "lat": 45.1925086
  },
  {
    "slug": "annur-montebelluna",
    "name": "مسجد النور",
    "image1": "https://cdn.mawaqit.net/images/backend/mosque_default_picture.png",
    "address": "Via Enrico fermi, 57",
    "city": "Montebelluna",
    "zipcode": "31044",
    "countryFullName": "Italy",
    "lng": 12.070812,
    "lat": 45.767257
  },
  {
    "slug": "ennour-fidenza",
    "name": "مركز النور",
    "image1": "https://cdn.mawaqit.net/images/backend/mosque/a50a1f22-e96d-4b73-bd5f-6ef2ce754711/mosque/1eea8dae-2cf1-6eac-b586-066ed47a7584.JPG",
    "address": "Via Sandro Pertini 23",
    "city": "Fidenza",
    "zipcode": "43036",
    "countryFullName": "Italy",
    "lng": 10.0880956,
    "lat": 44.8558691
  },
  {
    "slug": "m-carpi",
    "name": "مسجد كاربي",
    "image1": "https://cdn.mawaqit.net/images/backend/mosque_default_picture.png",
    "address": "Via unione sovietica 2/D",
    "city": "Carpi",
    "zipcode": "41012",
    "countryFullName": "Italy",
    "lng": 10.8707934,
    "lat": 44.7725247
  },
  {
    "slug": "montegranaro",
    "name": "مسجد مونتغرنارو",
    "image1": "https://cdn.mawaqit.net/images/backend/mosque_default_picture.png",
    "address": "via castelfidardo 98",
    "city": "Montegranaro",
    "zipcode": "63812",
    "countryFullName": "Italy",
    "lng": 13.633132038626,
    "lat": 43.232450717562
  },
  {
    "slug": "cil-mantova",
    "name": "CENTRO ISLAMICO LUNETTA",
    "image1": "https://cdn.mawaqit.net/images/backend/mosque_default_picture.png",
    "address": "VIALE VENETO 15/B",
    "city": "Mantova",
    "zipcode": "46100",
    "countryFullName": "Italy",
    "lng": 10.8232863,
    "lat": 45.1617716
  },
  {
    "slug": "misericordioso-modena",
    "name": "مسجد الرحمان",
    "image1": "https://cdn.mawaqit.net/images/backend/mosque/32f25827-088b-4966-922a-8183a70236f0/mosque/1eea8db2-8935-6408-af61-066ed47a7584.jpg",
    "address": "via delle suore,213",
    "city": "Modena",
    "zipcode": "41122",
    "countryFullName": "Italy",
    "lng": 10.919518,
    "lat": 44.6620648
  },
  {
    "slug": "essalem-ricco",
    "name": "مسجد السلام",
    "image1": "https://cdn.mawaqit.net/images/backend/mosque/f84f6a50-7057-44d8-a4de-b887c8ff7170/mosque/1eea8db3-37e8-6b08-b7e1-066ed47a7584.png",
    "address": "via Giotto Da Bund, 2",
    "city": "Riccò-Di-Fornovo-Taro",
    "zipcode": "43045",
    "countryFullName": "Italy",
    "lng": 10.1206183,
    "lat": 44.7007761
  },
  {
    "slug": "ikhlas-torino",
    "name": "مسجد الإخلاص",
    "image1": "https://cdn.mawaqit.net/images/backend/mosque/91595bf6-2125-4363-b90c-c8e5311120d3/mosque/1eea8db6-5db7-6d36-a822-066ed47a7584.JPG",
    "address": "Strada delle Cacce 12/14",
    "city": "Torino",
    "zipcode": "10135",
    "countryFullName": "Italy",
    "lng": 7.63915,
    "lat": 45.02001
  },
  {
    "slug": "alfalah-torino",
    "name": "Moschea Alfalah - مسجد الفلاح",
    "image1": "https://cdn.mawaqit.net/images/backend/mosque/d006c2b4-e03a-4556-8f06-580d1c68b247/mosque/1eea8db6-ef21-6c9a-a764-066ed47a7584.jpg",
    "address": "Via Porpora 29",
    "city": "Torino",
    "zipcode": "10100",
    "countryFullName": "Italy",
    "lng": 7.6976249,
    "lat": 45.1011262
  },
  {
    "slug": "annour-rio-saliceto",
    "name": "مدرسة النور",
    "image1": "https://cdn.mawaqit.net/images/backend/mosque_default_picture.png",
    "address": "VIA VETTIGANO 35",
    "city": "Rio-Saliceto",
    "zipcode": "42010",
    "countryFullName": "Italy",
    "lng": 10.7744636,
    "lat": 44.8345342
  },
  {
    "slug": "badr-bologna",
    "name": "مسجد بدر",
    "image1": "https://cdn.mawaqit.net/images/backend/mosque/5fba625e-81f2-4967-be70-e06582febf0e/mosque/1eea8db8-ef32-673c-a977-066ed47a7584.jpg",
    "address": "VIA MASCARINO 12M",
    "city": "Pieve-Di-Cento-Bologna",
    "zipcode": "40066",
    "countryFullName": "Italy",
    "lng": 11.3121413,
    "lat": 44.7095617
  },
  {
    "slug": "del-rubicone-gatteo",
    "name": "MOSCHEA DEL RUBICONE",
    "image1": "https://cdn.mawaqit.net/images/backend/mosque/b526cf15-476c-4a10-861b-4604c8006ef3/mosque/1eea8dba-a343-6900-9951-066ed47a7584.jpg",
    "address": "VIA CAMPAGNOLA 5",
    "city": "Gatteo",
    "zipcode": "47043",
    "countryFullName": "Italy",
    "lng": 12.380024,
    "lat": 44.1243193
  },
  {
    "slug": "assunna-agliana",
    "name": "مسجد السنة",
    "image1": "https://cdn.mawaqit.net/images/backend/mosque/7c0554c4-219b-4955-993c-1ac20941e0d2/mosque/1eea8dbb-e2e5-6b7a-89df-066ed47a7584.jpg",
    "address": "ASSOCIAZIONE ISLAMICA DI AGLIANAVIA GIORGIO LA PIRA",
    "city": "Agliana-Pt",
    "zipcode": "51031",
    "countryFullName": "Italy",
    "lng": 10.993897488885,
    "lat": 43.909749647641
  },
  {
    "slug": "cesenate-torre-del-moro",
    "name": "MOSCHEA CESENATE",
    "image1": "https://cdn.mawaqit.net/images/backend/mosque/a2dc7087-0f00-493a-be48-990793005239/mosque/1eea8dbc-474d-6b3a-828e-066ed47a7584.jpg",
    "address": "VIA LUIGI LONGO 315",
    "city": "Torre-Del-Moro",
    "zipcode": "47522",
    "countryFullName": "Italy",
    "lng": 12.216258,
    "lat": 44.1554301
  },
  {
    "slug": "valsa-bologna",
    "name": "الجمعية الثقافية الاسلامية ببزانو",
    "image1": "https://cdn.mawaqit.net/images/backend/mosque_default_picture.png",
    "address": "val samoggia (Bazzano) Via provinciale est 12/T",
    "city": "Bologna",
    "zipcode": "40053",
    "countryFullName": "Italy",
    "lng": 11.095139980316,
    "lat": 44.506973429631
  },
  {
    "slug": "m-cento-fe",
    "name": "مسجد التعايش",
    "image1": "https://cdn.mawaqit.net/images/backend/mosque/dbe4befa-0e1e-4700-891a-6016a9d3a638/mosque/1eea8dbc-f00e-6a6c-a963-066ed47a7584.jpg",
    "address": "via niccolò tommaseo n 4",
    "city": "Cento-Fe",
    "zipcode": "44042",
    "countryFullName": "Italy",
    "lng": 11.29831,
    "lat": 44.7361
  },
  {
    "slug": "m-solierea",
    "name": "مسجد صولييرا",
    "image1": "https://cdn.mawaqit.net/images/backend/mosque_default_picture.png",
    "address": "Via Giuseppe verdi 95",
    "city": "Soliera",
    "zipcode": "41019",
    "countryFullName": "Italy",
    "lng": 10.9182952,
    "lat": 44.7327005
  },
  {
    "slug": "m-molinella",
    "name": "Moschea di Molinella",
    "image1": "https://cdn.mawaqit.net/images/backend/mosque_default_picture.png",
    "address": "Via Filippo Turati 23",
    "city": "Molinella",
    "zipcode": "40062",
    "countryFullName": "Italy",
    "lng": 11.661807,
    "lat": 44.609387
  },
  {
    "slug": "annakhla-torino",
    "name": "Moschea Annakhla مسجد النخلة",
    "image1": "https://cdn.mawaqit.net/images/backend/mosque_default_picture.png",
    "address": "Via aquila 34",
    "city": "Torino",
    "zipcode": "10144",
    "countryFullName": "Italy",
    "lng": 7.6669161021709,
    "lat": 45.086251818807
  },
  {
    "slug": "assalam-nervesa-della-battaglia",
    "name": "مسجد السلام",
    "image1": "https://cdn.mawaqit.net/images/backend/mosque_default_picture.png",
    "address": "via della riscossa 4",
    "city": "Nervesa-Della-Battglia",
    "zipcode": "31040",
    "countryFullName": "Italy",
    "lng": 12.2005628,
    "lat": 45.8145166
  },
  {
    "slug": "attawba-modena",
    "name": "مسجد التوبة",
    "image1": "https://cdn.mawaqit.net/images/backend/mosque/7b521867-c928-4a45-a4a4-488d162affaa/mosque/1eea8dc1-a136-6b88-8d9e-066ed47a7584.jpg",
    "address": "via delle roveri n1",
    "city": "Finale-Emilia-Modena",
    "zipcode": "41034",
    "countryFullName": "Italy",
    "lng": 11.2815875,
    "lat": 44.8149569
  },
  {
    "slug": "assalam-cassola",
    "name": "مسجد السلام",
    "image1": "https://cdn.mawaqit.net/images/backend/mosque_default_picture.png",
    "address": "VIA FERRARIN 81",
    "city": "Cassola",
    "zipcode": "36022",
    "countryFullName": "Italy",
    "lng": 11.7673516,
    "lat": 45.7676661
  },
  {
    "slug": "umma-reggio-emilia",
    "name": "مسجد الأمة",
    "image1": "https://cdn.mawaqit.net/images/backend/mosque_default_picture.png",
    "address": "piccard 04",
    "city": "Reggio-Emilia",
    "zipcode": "42124",
    "countryFullName": "Italy",
    "lng": 10.6085074,
    "lat": 44.7077633
  },
  {
    "slug": "mustaqbel-portomaggiore",
    "name": "مسجد المستقبل",
    "image1": "https://cdn.mawaqit.net/images/backend/mosque/c9f2220b-e932-49aa-bab4-06d48386ca95/mosque/1eea8dc3-46bd-6a1a-a27a-066ed47a7584.jpg",
    "address": "via olmo n 1",
    "city": "Portomaggiore-(fe)",
    "zipcode": "44015",
    "countryFullName": "Italy",
    "lng": 11.8019488,
    "lat": 44.6944589
  },
  {
    "slug": "associazione-culturale-islamica-di-piacenza",
    "name": "C.I.P.  di Piacenza",
    "image1": "https://cdn.mawaqit.net/images/backend/mosque/bbecc26e-dc52-47ec-a10a-74f32a849402/mosque/1eea8dca-8ff1-66a8-bdea-066ed47a7584.JPG",
    "address": "Via caorsana 43/A",
    "city": "Piacenza",
    "zipcode": "29122",
    "countryFullName": "Italy",
    "lng": 9.7297075,
    "lat": 45.0448726
  },
  {
    "slug": "hidaya-asti",
    "name": "مسجد الهداية بآستي",
    "image1": "https://cdn.mawaqit.net/images/backend/mosque/f961c2c9-1815-4fb0-b6d5-95cc27f9d9cc/mosque/1eea8dcb-8625-6588-a137-066ed47a7584.jpg",
    "address": "Via Amerigo Vespucci n28b",
    "city": "Asti",
    "zipcode": "14100",
    "countryFullName": "Italy",
    "lng": 8.231188,
    "lat": 44.916214
  },
  {
    "slug": "nour-casalgrande",
    "name": "مسجد النور",
    "image1": "https://cdn.mawaqit.net/images/backend/mosque/f99cc83e-3ad9-42b2-a98d-7070d6376d00/mosque/1eea8dcc-ad01-671e-9e56-066ed47a7584.jpg",
    "address": "strada statale 467 -24",
    "city": "Casalgrande",
    "zipcode": "42013",
    "countryFullName": "Italy",
    "lng": 10.6928129,
    "lat": 44.6007691
  },
  {
    "slug": "waha-asti",
    "name": "مسجد الواحة",
    "image1": "https://cdn.mawaqit.net/images/backend/mosque/d945c907-6a2f-4573-8ee8-cf0bdffdf8e1/mosque/1eea8dcd-2a15-60fc-a81b-066ed47a7584.jpg",
    "address": "via balbo 4",
    "city": "Asti",
    "zipcode": "14100",
    "countryFullName": "Italy",
    "lng": 8.202235,
    "lat": 44.8985347
  },
  {
    "slug": "cci-castiglione",
    "name": "Centro Culturale islamico",
    "image1": "https://cdn.mawaqit.net/images/backend/mosque/72e14929-e130-4396-8c0a-4ea1f9854977/mosque/1eea8dcd-7313-6d12-9eb8-066ed47a7584.jpg",
    "address": "Via dell'industria 28H",
    "city": "Castiglione-Delle-Stiviere",
    "zipcode": "46043",
    "countryFullName": "Italy",
    "lng": 10.4672408,
    "lat": 45.395821
  },
  {
    "slug": "hidaya-san-giovanni",
    "name": "مسجدالهداية",
    "image1": "https://cdn.mawaqit.net/images/backend/mosque/705817ef-612e-44f1-9567-a8bbce9e54d5/mosque/1eea8dcd-8059-690e-9fe1-066ed47a7584.jpg",
    "address": "via crevalcore n 3/6",
    "city": "San-Giovanni-In-Persiceto",
    "zipcode": "40017",
    "countryFullName": "Italy",
    "lng": 11.1863539,
    "lat": 44.6457027
  },
  {
    "slug": "l-i-a-v-a-aosta",
    "name": "l.i.a.v.a",
    "image1": "https://cdn.mawaqit.net/images/backend/mosque_default_picture.png",
    "address": "Via G Carrel 41",
    "city": "Aosta",
    "zipcode": "11100",
    "countryFullName": "Italy",
    "lng": 7.3279027,
    "lat": 45.7355161
  },
  {
    "slug": "huda-sassuolo",
    "name": "المركز الثقافي الهدى",
    "image1": "https://cdn.mawaqit.net/images/backend/mosque/fda6ca0e-c858-4335-8106-6487a00f6b1f/mosque/1eea8dce-ce5a-6a08-b4f5-066ed47a7584.jpg",
    "address": "Via Atene 8",
    "city": "Sassuolo",
    "zipcode": "41049",
    "countryFullName": "Italy",
    "lng": 10.7879612,
    "lat": 44.5553656
  },
  {
    "slug": "assalam-bolzano",
    "name": "مسجد السلام",
    "image1": "https://cdn.mawaqit.net/images/backend/mosque/0a4a3aad-2f04-4134-ae7f-1db6cb5a3546/mosque/1eea8dcf-7d58-647e-9d80-066ed47a7584.jpeg",
    "address": "Via Volta. 1",
    "city": "Bolzano",
    "zipcode": "39100",
    "countryFullName": "Italy",
    "lng": 11.3345291,
    "lat": 46.4789478
  },
  {
    "slug": "assalam-crevalcore",
    "name": "مسجد السلام",
    "image1": "https://cdn.mawaqit.net/images/backend/mosque/b1d41bbd-22c0-4687-a170-ec7dfa687ba2/mosque/1eea8dcf-f6a7-6aa0-b44d-066ed47a7584.jpg",
    "address": "VIA ZUCCHERIFICIO 274/A",
    "city": "Crevalcore",
    "zipcode": "40014",
    "countryFullName": "Italy",
    "lng": 11.1794198,
    "lat": 44.7159647
  },
  {
    "slug": "taqwa-bologna",
    "name": "مسجد التقوى",
    "image1": "https://cdn.mawaqit.net/images/backend/mosque/c47f3511-3376-4561-b1c5-400fe64e5b59/mosque/1eea8dd1-8d8d-6c66-8bbc-066ed47a7584.png",
    "address": "VIA AGUCCHI74-7b",
    "city": "Bologna",
    "zipcode": "40131",
    "countryFullName": "Italy",
    "lng": 11.2980849,
    "lat": 44.5118879
  },
  {
    "slug": "speranza-reggio-emilia",
    "name": "Centro Culturale Speranza e Pace",
    "image1": "https://cdn.mawaqit.net/images/backend/mosque/f793453d-a445-41d5-b252-8b71943dd8f7/mosque/1eea8dd1-fe59-68d2-bf95-066ed47a7584.jpg",
    "address": "Via de Gasperi 41, San Polo d'Enza",
    "city": "Reggio-Emilia",
    "zipcode": "42020",
    "countryFullName": "Italy",
    "lng": 10.4163557,
    "lat": 44.6186434
  },
  {
    "slug": "m-casarsa",
    "name": "MOSCHEA",
    "image1": "https://cdn.mawaqit.net/images/backend/mosque/e7d1e0da-4da6-48c1-b880-436adf0c27f3/mosque/1eea8dd2-9763-62e4-ad25-066ed47a7584.jpeg",
    "address": "PIAZZA IV NOVEMBRE 18",
    "city": "Casarsa-Della-Delizia",
    "zipcode": "33072",
    "countryFullName": "Italy",
    "lng": 12.8403306,
    "lat": 45.9538537
  },
  {
    "slug": "m-saraceno",
    "name": "moschea di cella di mercato saraceno",
    "image1": "https://cdn.mawaqit.net/images/backend/mosque/1a1b96d5-b475-423e-9d23-f52188cfb8b9/mosque/1eea8dd2-a47b-6242-9916-066ed47a7584.jpg",
    "address": "via nazionale  96",
    "city": "Mercato-Saraceno-Fc",
    "zipcode": "47025",
    "countryFullName": "Italy",
    "lng": 15.3699681,
    "lat": 38.2196834
  },
  {
    "slug": "villabella-san-bonifacio",
    "name": "c.islamico villabella",
    "image1": "https://cdn.mawaqit.net/images/backend/mosque/859dd0b1-a3e4-474b-ad60-9974e9485516/mosque/1eea8dd2-b38f-604e-96dd-066ed47a7584.jpeg",
    "address": "LOC  VILLABELLA 11",
    "city": "San-Bonifacio-Vr",
    "zipcode": "37047",
    "countryFullName": "Italy",
    "lng": 11.2469569,
    "lat": 45.4041021
  },
  {
    "slug": "aps-lissone",
    "name": "مركز الشباب - Lissone",
    "image1": "https://cdn.mawaqit.net/images/backend/mosque/470f8f84-9dae-4b58-a11c-9997910a2956/mosque/1eea8dd3-1dda-675a-b5c2-066ed47a7584.jpeg",
    "address": "via damiano chiesa 52",
    "city": "Lissone",
    "zipcode": "20851",
    "countryFullName": "Italy",
    "lng": 9.2304189,
    "lat": 45.616039
  },
  {
    "slug": "rahma-spinetta",
    "name": "مسجد الرحمة",
    "image1": "https://cdn.mawaqit.net/images/backend/mosque/03f1239d-db31-4d84-ac11-dc3d04061a13/mosque/1eea8dd3-628f-699a-aaae-066ed47a7584.jpg",
    "address": "Via Carella snc",
    "city": "Spinetta-Marengo",
    "zipcode": "15122",
    "countryFullName": "Italy",
    "lng": 8.6833,
    "lat": 44.8833
  },
  {
    "slug": "al-baraka-santa-lucia",
    "name": "مسجد البركة",
    "image1": "https://cdn.mawaqit.net/images/backend/mosque/2786ff25-4a8f-4b74-ae5f-2d5093fdafd7/mosque/1eea8dd3-db13-67a4-95cd-066ed47a7584.jpeg",
    "address": "Via Bolda 2",
    "city": "Santa-Lucia-Di-Piave",
    "zipcode": "31025",
    "countryFullName": "Italy",
    "lng": 12.3068296,
    "lat": 45.8500644
  },
  {
    "slug": "mutaqbal-thiene",
    "name": "Ass.culturale e sportiva IL FUTURO",
    "image1": "https://cdn.mawaqit.net/images/backend/mosque/8a249b51-5b9e-475c-a2b9-783d7d9e874a/mosque/1eea8dd4-78d0-6082-81c8-066ed47a7584.jpg",
    "address": "Via del rosario 26",
    "city": "Thiene",
    "zipcode": "36016",
    "countryFullName": "Italy",
    "lng": 11.4729547,
    "lat": 45.6812546
  },
  {
    "slug": "cic-sarzana",
    "name": "C. Islamico Culturale a Sarzana",
    "image1": "https://cdn.mawaqit.net/images/backend/mosque/b4941a02-61d5-478b-bf06-057d0339dcc6/mosque/1eea8dd5-24e9-6666-9aee-066ed47a7584.jpg",
    "address": "VIA PAOLO DIANA 28",
    "city": "Sarzana",
    "zipcode": "19038",
    "countryFullName": "Italy",
    "lng": 9.9516434815214,
    "lat": 44.114998291835
  },
  {
    "slug": "arrahma-vittorio",
    "name": "Ass. Culturale Misericordia  مسجد الرحمة",
    "image1": "https://cdn.mawaqit.net/images/backend/mosque/87d1fd0a-a36c-4102-aa81-753e3e76b8a2/mosque/1eea8dd5-a6eb-6a9c-917b-066ed47a7584.jpg",
    "address": "Via Menarè 308",
    "city": "Vittorio-Veneto",
    "zipcode": "31029",
    "countryFullName": "Italy",
    "lng": 12.3235037,
    "lat": 45.9483147
  },
  {
    "slug": "madina-alessandria",
    "name": "مسجد المدينة",
    "image1": "https://cdn.mawaqit.net/images/backend/mosque/abcd6366-8e7f-4601-b300-2a60dd0f22d3/mosque/1eea8dd5-e4e9-6d3a-ba1a-066ed47a7584.jpg",
    "address": "Via Verona 72",
    "city": "Alessandria",
    "zipcode": "15121",
    "countryFullName": "Italy",
    "lng": 8.6149885,
    "lat": 44.9166407
  },
  {
    "slug": "dar-quran-milano",
    "name": "مسجد عثمان بن عفان",
    "image1": "https://cdn.mawaqit.net/images/backend/mosque/986f61a6-89d2-416b-9652-a6a126e3880e/mosque/1eea8dd7-1fbd-67e4-beb0-066ed47a7584.jpg",
    "address": "via stadera 18",
    "city": "Milano",
    "zipcode": "20124",
    "countryFullName": "Italy",
    "lng": 9.1823978,
    "lat": 45.433815
  },
  {
    "slug": "m-maranello-1",
    "name": "مسجد مارانيللو",
    "image1": "https://cdn.mawaqit.net/images/backend/mosque/f560a724-f5cf-4951-9c61-254122195f75/mosque/1eea8dd9-7dcc-698c-a7b1-066ed47a7584.jpg",
    "address": "Via bandini 10",
    "city": "Maranello",
    "zipcode": "41053",
    "countryFullName": "Italy",
    "lng": 10.8710813,
    "lat": 44.5386574
  },
  {
    "slug": "ferdaws-pontelongo",
    "name": "جمعية الفردوس",
    "image1": "https://cdn.mawaqit.net/images/backend/mosque/34ff9af7-d76e-46e8-aa10-6e6030b26c9b/mosque/1eea8dd9-8c39-6c0e-bdc8-066ed47a7584.jpg",
    "address": "Via Nova, 209",
    "city": "Pontelongo-(pd)",
    "zipcode": "35029",
    "countryFullName": "Italy",
    "lng": 12.0244794,
    "lat": 45.2443063
  },
  {
    "slug": "arahma-onlus-carpenedolo",
    "name": "مسجد الرحمة",
    "image1": "https://cdn.mawaqit.net/images/backend/mosque/eb5f700c-bab3-42d0-8a3d-96a48c6ce18c/mosque/1eea8dd9-9bab-6f66-8281-066ed47a7584.jpeg",
    "address": "Via Michelangelo 61",
    "city": "Carpenedolo",
    "zipcode": "25013",
    "countryFullName": "Italy",
    "lng": 10.431318,
    "lat": 45.3712293
  },
  {
    "slug": "ferdaws-stradella",
    "name": "مسجد الفردوس",
    "image1": "https://cdn.mawaqit.net/images/backend/mosque/23cb5cde-850c-4acd-b0d0-643f58a15bc4/mosque/1eea8dda-4b72-6350-a396-066ed47a7584.jpg",
    "address": "Via dei mille N 6",
    "city": "Stradella",
    "zipcode": "27049",
    "countryFullName": "Italy",
    "lng": 9.3064805,
    "lat": 45.0755761
  },
  {
    "slug": "arrahman-la-spezia",
    "name": "مسجد الرحمن",
    "image1": "https://cdn.mawaqit.net/images/backend/mosque/d7faa801-9958-48b3-8868-7e1c09f4b495/mosque/1eea8ddb-d668-685a-81f7-066ed47a7584.jpeg",
    "address": "Via Paolo mantegazza 11",
    "city": "La-Spezia",
    "zipcode": "19100",
    "countryFullName": "Italy",
    "lng": 9.8422587,
    "lat": 44.1115783
  },
  {
    "slug": "churuq-manerbio-bs",
    "name": "مسجد شروق",
    "image1": "https://cdn.mawaqit.net/images/backend/mosque/a340033f-7e79-4281-871e-749fd9ae2579/mosque/1ef909e6-a3d4-65de-a9f7-0affcb0701ab.png",
    "address": "Via Toscana 34,",
    "city": "MANERBIO",
    "zipcode": "25025",
    "countryFullName": "Italy",
    "lng": 10.1622383,
    "lat": 45.3599524
  },
  {
    "slug": "beytoallah-zocca",
    "name": "مسجد بيت الله",
    "image1": "https://cdn.mawaqit.net/images/backend/mosque/4ba2cfcb-2181-4cc0-9be5-ef84e3c70d14/mosque/1eea8ddc-2011-688a-ab2b-066ed47a7584.jpg",
    "address": "Via del Mercato, 78",
    "city": "Zocca",
    "zipcode": "41059",
    "countryFullName": "Italy",
    "lng": 10.9935694,
    "lat": 44.346572
  },
  {
    "slug": "mariam-milano",
    "name": "مسجد السيدة مريم عليها السلام",
    "image1": "https://cdn.mawaqit.net/images/backend/mosque/283ecacb-657a-413d-9cef-857436b36922/mosque/1eea8ddc-bf0a-6c52-b6fd-066ed47a7584.jpeg",
    "address": "via padova 366",
    "city": "Milano",
    "zipcode": "20132",
    "countryFullName": "Italy",
    "lng": 9.2575372,
    "lat": 45.5116796
  },
  {
    "slug": "sud-mediterraneo-pederobba",
    "name": "Associazione culturale sud mediterraneo",
    "image1": "https://cdn.mawaqit.net/images/backend/mosque/b88568bc-c04b-4411-8b06-f693e0d0ad5d/mosque/1eea8ddd-68b8-6d9e-b4d5-066ed47a7584.jpg",
    "address": "via feltrina,19/2",
    "city": "Pederobba",
    "zipcode": "31040",
    "countryFullName": "Italy",
    "lng": 11.975528,
    "lat": 45.866482
  },
  {
    "slug": "anasr-seregno",
    "name": "المركز الثقافي النصر",
    "image1": "https://cdn.mawaqit.net/images/backend/mosque/d4beeeca-a6e6-4151-89b6-f0b2182ef631/mosque/1eea8ddd-7791-6af0-ab54-066ed47a7584.jpg",
    "address": "via milano 3",
    "city": "Seregno",
    "zipcode": "20831",
    "countryFullName": "Italy",
    "lng": 9.2039611,
    "lat": 45.6440181
  },
  {
    "slug": "masjid-annour-montichiari",
    "name": "Masjid Annour",
    "image1": "https://cdn.mawaqit.net/images/backend/mosque/b5899055-0b91-4b1b-af47-f2aece91f151/mosque/1eea8dde-b7aa-6096-89e0-066ed47a7584.jpg",
    "address": "Via trieste 177",
    "city": "Montichiari",
    "zipcode": "25018",
    "countryFullName": "Italy",
    "lng": 10.4033,
    "lat": 45.40951
  },
  {
    "slug": "centro-islamico-di-monza-e-brianza-monza",
    "name": "Centro Islamico di Monza e Brianza",
    "image1": "https://cdn.mawaqit.net/images/backend/mosque/0382953e-201a-427e-88fe-ed9d99dd5726/mosque/1eea8ddf-978d-6eb0-864d-066ed47a7584.jpg",
    "address": "VIA GHILINI 17",
    "city": "Monza",
    "zipcode": "20900",
    "countryFullName": "Italy",
    "lng": 9.2758434,
    "lat": 45.5755346
  },
  {
    "slug": "salam-vignola",
    "name": "مسجد الإحسان",
    "image1": "https://cdn.mawaqit.net/images/backend/mosque/6f8ced75-f0eb-4769-8e7d-fe8aab33d5e1/mosque/1eea8de1-18d5-6b2a-8c26-066ed47a7584.jpg",
    "address": "VIA GOFFREDO MAMELI 261 41058 VIGNOLA Modena",
    "city": "Vignola",
    "zipcode": "41058",
    "countryFullName": "Italy",
    "lng": 11.0149577,
    "lat": 44.4914296
  },
  {
    "slug": "m-calcinato",
    "name": "مسجد السلام",
    "image1": "https://cdn.mawaqit.net/images/backend/mosque/f15cd2a8-9725-4013-b4c3-341e5098cbbb/mosque/1eea8de1-7d94-6822-8cb2-066ed47a7584.jpg",
    "address": "Via Palestro 27",
    "city": "Calcinato",
    "zipcode": "25011",
    "countryFullName": "Italy",
    "lng": 10.4108976,
    "lat": 45.4510628
  },
  {
    "slug": "masjid-ibn-otheimine-alessandria",
    "name": "مسجد ابن عثيمين-ألساندريا",
    "image1": "https://cdn.mawaqit.net/images/backend/mosque/f25fff87-a029-401b-9ac3-e7c807e1fe3c/mosque/1eea8de1-b90e-6448-944f-066ed47a7584.jpeg",
    "address": "Via Bonardi 12",
    "city": "Alessandria",
    "zipcode": "15121",
    "countryFullName": "Italy",
    "lng": 8.6046005,
    "lat": 44.9008506
  },
  {
    "slug": "masjid-tawba-vicenza",
    "name": "Centro Culturale Islamico Ettawba",
    "image1": "https://cdn.mawaqit.net/images/backend/mosque/fdafb512-8088-4ffb-a363-c87a8d96fd4b/mosque/1eea8de2-04a8-6eb2-9e59-066ed47a7584.jpg",
    "address": "Via vecchia f ferriera 167",
    "city": "Vicenza",
    "zipcode": "36100",
    "countryFullName": "Italy",
    "lng": 11.5039408,
    "lat": 45.5369263
  },
  {
    "slug": "masjid-alhouda-pioltello-mi",
    "name": "مسجد الهدى",
    "image1": "https://cdn.mawaqit.net/images/backend/mosque/8171d5f6-e95c-43b9-89e7-31c8df9485b1/mosque/1eea8de2-55b4-645a-b9a2-066ed47a7584.jpeg",
    "address": "Via Domenico Cimarosa, 1",
    "city": "Pioltello-Mi",
    "zipcode": "20096",
    "countryFullName": "Italy",
    "lng": 9.3323723,
    "lat": 45.5051417
  },
  {
    "slug": "associazione-fratellanza-san-zenone-degli-ezzelini",
    "name": "Associazione Fratellanza",
    "image1": "https://cdn.mawaqit.net/images/backend/mosque/742fb172-0cf9-431e-b5ea-86750fb89244/mosque/1ef8f19d-de3a-61bc-b1f0-0e9d077f5bb1.jpg",
    "address": "Via Dell'artigianato 1",
    "city": "SAN-ZENONE-DEGLI-EZZELINI TV",
    "zipcode": "31020",
    "countryFullName": "Italy",
    "lng": 11.8542948,
    "lat": 45.777591
  },
  {
    "slug": "moschea-di-forli-forli-cesena",
    "name": "MOSCHEA DI FORLI",
    "image1": "https://cdn.mawaqit.net/images/backend/mosque/67fd1813-8d5e-4245-8c79-50cfd37e9796/mosque/1eea8de6-8d21-6f24-a327-066ed47a7584.jpg",
    "address": "Via A. Masetti, 14",
    "city": "Forlì-Cesena",
    "zipcode": "47122",
    "countryFullName": "Italy",
    "lng": 12.0893145,
    "lat": 44.217516
  },
  {
    "slug": "msjd-lslm-moschea-assalam-annone-veneto",
    "name": "مسجد السلام MOSCHEA ASSALAM",
    "image1": "https://cdn.mawaqit.net/images/backend/mosque/4b23cd0f-29c2-4609-908f-947651f1835a/mosque/1eea8de6-9c7e-6ddc-bec7-066ed47a7584.jpg",
    "address": "Via Sandro Pertini 10/L",
    "city": "Annone-Veneto",
    "zipcode": "30020",
    "countryFullName": "Italy",
    "lng": 12.6908279,
    "lat": 45.8008671
  },
  {
    "slug": "associazione-essalam-bovolone",
    "name": "مسجد السلام",
    "image1": "https://cdn.mawaqit.net/images/backend/mosque/41f3a861-a644-4cb3-82a3-5d2d08e46871/mosque/1eea8de7-42e7-68d6-8d3f-066ed47a7584.jpg",
    "address": "Via San Pierin 180",
    "city": "Bovolone",
    "zipcode": "37051",
    "countryFullName": "Italy",
    "lng": 11.1306571,
    "lat": 45.250725
  },
  {
    "slug": "c-c-per-la-pace-onlus-valeggio-sul-mincio-vr",
    "name": "C.C LA PACE-ONLUS",
    "image1": "https://cdn.mawaqit.net/images/backend/mosque/7873ebb7-e360-4a50-aa21-0f240df5f8d6/mosque/1eea8de7-7636-614c-91d9-066ed47a7584.jpg",
    "address": "VIA GALILEO FERRARIS 13",
    "city": "Valeggio-Sul-Mincio-Vr",
    "zipcode": "37067",
    "countryFullName": "Italy",
    "lng": 10.73426,
    "lat": 45.3415
  },
  {
    "slug": "amal-schio",
    "name": "AMAL",
    "image1": "https://cdn.mawaqit.net/images/backend/mosque/cd7c8fdb-e8d9-4e62-8c30-2219a5998909/mosque/1eea8de7-a9a4-6ea2-8562-066ed47a7584.jpeg",
    "address": "VIA VENETO 32",
    "city": "Schio",
    "zipcode": "36015",
    "countryFullName": "Italy",
    "lng": 11.3885216,
    "lat": 45.7224948
  },
  {
    "slug": "associazione-culturale-islamico-al-huda-montecchio-emilia",
    "name": "ASSOCIAZIONE CULTURALE ISLAMICO AL HUDA",
    "image1": "https://cdn.mawaqit.net/images/backend/mosque/c74d722f-1ffb-44a4-9f2c-85ae3e3e8df5/mosque/1eee3c65-8b78-6d2c-b135-0a9258a77f81.jpg",
    "address": "Strada Barco 5/2 Montecchio Emilia",
    "city": "Montecchio-Emilia",
    "zipcode": "42027",
    "countryFullName": "Italy",
    "lng": 10.4673451,
    "lat": 44.6983083
  },
  {
    "slug": "c-islamico-al-amal-bussolengo",
    "name": "مسجد الأمل - Ass. AL AMAL",
    "image1": "https://cdn.mawaqit.net/images/backend/mosque/dc9c1e45-12ad-43bc-b9f7-02e49fb31ffc/mosque/1eea8deb-acf1-641c-b2da-066ed47a7584.jpg",
    "address": "LARGO SALVO D'ACQUISTO 24A",
    "city": "Bussolengo",
    "zipcode": "37012",
    "countryFullName": "Italy",
    "lng": 10.8502032,
    "lat": 45.4668261
  },
  {
    "slug": "moschea-di-foligno-foligno",
    "name": "بيت الله",
    "image1": "https://cdn.mawaqit.net/images/backend/mosque/79723505-9c48-4895-8d03-e6b84b97a8e1/mosque/1eea8dec-1252-67a2-a02b-066ed47a7584.jpg",
    "address": "via G Guarrella snc 5",
    "city": "Foligno",
    "zipcode": "06034",
    "countryFullName": "Italy",
    "lng": 12.6977561,
    "lat": 42.9543216
  },
  {
    "slug": "associazione-comunita-islamica-di-pace-castelfranco-veneto-resana-treviso",
    "name": "مسجد السلام",
    "image1": "https://cdn.mawaqit.net/images/backend/mosque/2eae6192-d60c-4894-8d5f-0f21a41bb2ec/mosque/1eea8dec-26f5-6524-97a2-066ed47a7584.jpg",
    "address": "Via per san Floriano, 58/c Resana,treviso",
    "city": "Castelfranco-Veneto",
    "zipcode": "31033",
    "countryFullName": "Italy",
    "lng": 11.9741159,
    "lat": 45.6839942
  },
  {
    "slug": "associazione-centro-culturale-assalama-spilimbergo",
    "name": "Associazione Centro Culturale Assalama",
    "image1": "https://cdn.mawaqit.net/images/backend/mosque/b7ecda44-2e2e-48a0-b010-822bec73ec79/mosque/1eea8dee-8ec5-6530-a54a-066ed47a7584.jpg",
    "address": "Via zona industriale sul cosa n 7",
    "city": "Spilimbergo",
    "zipcode": "33097",
    "countryFullName": "Italy",
    "lng": 12.8757371,
    "lat": 46.1055158
  },
  {
    "slug": "msjd-lkbyr-castel-san-pietro-terme",
    "name": "المسجد الكبير",
    "image1": "https://cdn.mawaqit.net/images/backend/mosque/37fa2b56-8ef4-4467-88a2-06c354462dde/mosque/1eea8def-8f6f-62b4-8edb-066ed47a7584.jpg",
    "address": "Via Evangelista Torricelli 13/ B",
    "city": "Castel-San-Pietro-Terme",
    "zipcode": "40024",
    "countryFullName": "Italy",
    "lng": 11.5818792,
    "lat": 44.4025516
  },
  {
    "slug": "c-islamico-assalam-zimella-vr",
    "name": "C.islamico assalam",
    "image1": "https://cdn.mawaqit.net/images/backend/mosque/82943ff9-e21c-4e83-b64d-aa14c8ba27a7/mosque/1eea8df0-8c76-657a-8e56-066ed47a7584.jpg",
    "address": "Via stazione 1840",
    "city": "Zimella-Vr",
    "zipcode": "37040",
    "countryFullName": "Italy",
    "lng": 11.3796548,
    "lat": 45.3275391
  },
  {
    "slug": "la-fratellanza-castel-san-pietro-terme",
    "name": "التقوى",
    "image1": "https://cdn.mawaqit.net/images/backend/mosque/82fddb96-a89a-412c-ad8d-3f943a4e2d4a/mosque/1eea8df0-fd43-6014-9bf9-066ed47a7584.jpg",
    "address": "Via archimede",
    "city": "Castel-San-Pietro-Terme",
    "zipcode": "40024",
    "countryFullName": "Italy",
    "lng": 11.5833714,
    "lat": 44.4024951
  },
  {
    "slug": "masjid-errahma-spilamberto",
    "name": "Centro culturale Errahma",
    "image1": "https://cdn.mawaqit.net/images/backend/mosque/b11e8d30-5179-4315-a0dc-7d58380cee08/mosque/1eea8df1-1673-6a7a-ba64-066ed47a7584.jpeg",
    "address": "Via Berlinguer 15/c",
    "city": "Spilamberto",
    "zipcode": "41057",
    "countryFullName": "Italy",
    "lng": 11.0195266,
    "lat": 44.5343508
  },
  {
    "slug": "msjd-slm-massa-finalese-1",
    "name": "مسجد السلام",
    "image1": "https://cdn.mawaqit.net/images/backend/mosque/41514652-3556-4f99-b036-05aaa744864d/mosque/1eea8dfa-1b5c-6862-b824-066ed47a7584.jpg",
    "address": "VIA SALDE ENTRA'  2",
    "city": "Massa-Finalese",
    "zipcode": "41035",
    "countryFullName": "Italy",
    "lng": 11.2012206,
    "lat": 44.8402443
  },
  {
    "slug": "associazione-comunita-bangladesh-la-spezia-1",
    "name": "Associazione comunità Bangladesh",
    "image1": "https://cdn.mawaqit.net/images/backend/mosque/aa21866a-b061-4273-b6ea-cab5abe699a6/mosque/1eea8dfb-d841-6ec2-a812-066ed47a7584.png",
    "address": "Via Venezia 1/3",
    "city": "La-Spezia",
    "zipcode": "19122",
    "countryFullName": "Italy",
    "lng": 9.8124888,
    "lat": 44.1083466
  },
  {
    "slug": "salam-asti",
    "name": "Essalam",
    "image1": "https://cdn.mawaqit.net/images/backend/mosque/805977f4-02ef-4b87-9267-dde5183e4782/mosque/1eea8dfc-6ec0-69ca-b811-066ed47a7584.jpeg",
    "address": "Via Francesco Gino n.7",
    "city": "Asti",
    "zipcode": "14100",
    "countryFullName": "Italy",
    "lng": 8.2064257,
    "lat": 44.9007512
  },
  {
    "slug": "centro-islamico-quingentole-quingentole",
    "name": "CENTRO ISLAMICO QUINGENTOLE",
    "image1": "https://cdn.mawaqit.net/images/backend/mosque/e9a2ecda-08ea-4ad1-be34-66ba8a762a9d/mosque/1eea8dfc-cf94-6c9c-978a-066ed47a7584.jpg",
    "address": "VIA MAZZINI 14",
    "city": "Quingentole",
    "zipcode": "46020",
    "countryFullName": "Italy",
    "lng": 11.0454078,
    "lat": 45.0414293
  },
  {
    "slug": "centro-socio-culturale-alfajr-trissino",
    "name": "centro socio culturale Alfajr",
    "image1": "https://cdn.mawaqit.net/images/backend/mosque/1e5953b4-7817-4ef6-bc1d-3c956cc9fc81/mosque/1eea8e00-014d-6862-915f-066ed47a7584.jpg",
    "address": "via del lavoro116/a",
    "city": "Trissino",
    "zipcode": "36070",
    "countryFullName": "Italy",
    "lng": 11.381459,
    "lat": 45.5525256
  },
  {
    "slug": "moschea-di-santa-sofia-fc-santa-sofia-fc",
    "name": "masjid",
    "image1": "https://cdn.mawaqit.net/images/backend/mosque/ed1807d1-2510-4498-8628-195b3fb72d25/mosque/1eea8e00-77db-6e2a-9bfd-066ed47a7584.jpg",
    "address": "via croce 4/E",
    "city": "Santa-Sofia-Fc",
    "zipcode": "47018",
    "countryFullName": "Italy",
    "lng": 11.907127417438,
    "lat": 43.946354634949
  },
  {
    "slug": "masjid-essafa-spezzano",
    "name": "مسجد السلام",
    "image1": "https://cdn.mawaqit.net/images/backend/mosque/d167efdd-1a22-4307-94fd-6cab638080c8/mosque/1eea8e00-8745-6172-a51e-066ed47a7584.jpg",
    "address": "via della chimica 42 spezzano",
    "city": "Spezzano",
    "zipcode": "41042",
    "countryFullName": "Italy",
    "lng": 10.8395232,
    "lat": 44.5405601
  },
  {
    "slug": "masjid-ravenna-48125-italy",
    "name": "مسجد RAVENNA",
    "image1": "https://cdn.mawaqit.net/images/backend/mosque/0eb6257a-12a4-451f-8a42-3972e64e7e7e/mosque/1eea8e01-dadc-638e-9537-066ed47a7584.jpg",
    "address": "Via Rossa guido, 10/12",
    "city": "Ravenna",
    "zipcode": "48123",
    "countryFullName": "Italy",
    "lng": 12.2191783,
    "lat": 44.4513282
  },
  {
    "slug": "masjid-ennour-lonato-25017-italy",
    "name": "Masjid Ennour",
    "image1": "https://cdn.mawaqit.net/images/backend/mosque/879480bb-f1ad-4679-8bb2-b9a91cbc0199/mosque/1eea8e02-9515-6df4-b2fa-066ed47a7584.jpeg",
    "address": "Via Molini 71",
    "city": "Lonato",
    "zipcode": "25017",
    "countryFullName": "Italy",
    "lng": 10.4593534,
    "lat": 45.4660508
  },
  {
    "slug": "masjid-essalam-spilamberto-mo-41057-italy",
    "name": "جمعية السلام الثقافية سبيلامبيرطو",
    "image1": "https://cdn.mawaqit.net/images/backend/mosque/e17c368d-d4f0-4d08-a95b-bbeeb709583e/mosque/1eea8e02-bf8d-60be-96f6-066ed47a7584.jpg",
    "address": "Via San Carlo 16",
    "city": "Spilamberto(mo)",
    "zipcode": "41057",
    "countryFullName": "Italy",
    "lng": 11.024883,
    "lat": 44.5335527
  },
  {
    "slug": "mosquee-ikhwa-cavarzere-30014-italy",
    "name": "جمعية الأخوة بكفارزري",
    "image1": "https://cdn.mawaqit.net/images/backend/mosque/6406deab-d880-4095-8d0d-ed7f2ba4967b/mosque/1eea8e02-cd5c-651e-98c5-066ed47a7584.jpg",
    "address": "Via Cavour 26",
    "city": "Cavarzere",
    "zipcode": "30014",
    "countryFullName": "Italy",
    "lng": 12.0858111,
    "lat": 45.1396067
  },
  {
    "slug": "msjd-hnyn-massa-lombarda-48024-italy",
    "name": "مسجد حنين",
    "image1": "https://cdn.mawaqit.net/images/backend/mosque/4e5440ce-b6ab-45bc-8dbb-d4d48818bba7/mosque/1eea8e03-cb64-69fe-a27b-066ed47a7584.jpg",
    "address": "via aurelio saffi 30",
    "city": "Massa-Lombarda-Ra",
    "zipcode": "48024",
    "countryFullName": "Italy",
    "lng": 11.8269077,
    "lat": 44.4448089
  },
  {
    "slug": "associazione-il-ponte-fiesso-dartico-30032-italy",
    "name": "associazione il ponte  جمعية الجسر",
    "image1": "https://cdn.mawaqit.net/images/backend/mosque/7f762141-13bf-4243-93d5-2036c622fecd/mosque/1eea8e04-d7b2-6b1a-ac3f-066ed47a7584.jpeg",
    "address": "via piove 3",
    "city": "Fiesso-D'artico",
    "zipcode": "30032",
    "countryFullName": "Italy",
    "lng": 12.0528416,
    "lat": 45.4175779
  },
  {
    "slug": "el-falah-vignola-41058-italy",
    "name": "EL FALAH",
    "image1": "https://cdn.mawaqit.net/images/backend/mosque/10894e58-5569-47ad-ae04-49f86e24b7ac/mosque/1eea8e06-713b-6164-8026-066ed47a7584.jpg",
    "address": "via goffredo mameli 261",
    "city": "Vignola",
    "zipcode": "41058",
    "countryFullName": "Italy",
    "lng": 11.0149577,
    "lat": 44.4914296
  },
  {
    "slug": "masjid-eliitissam-imola-40026-italy",
    "name": "مسجد الإعتصام ــ إيمولا",
    "image1": "https://cdn.mawaqit.net/images/backend/mosque/2dff0f68-bace-40db-882e-270911a760fa/mosque/1eea8e06-df47-6144-9537-066ed47a7584.JPG",
    "address": "Via A. Ercolani 24/b",
    "city": "Imola",
    "zipcode": "40026",
    "countryFullName": "Italy",
    "lng": 11.7344552,
    "lat": 44.3698475
  },
  {
    "slug": "associazione-immigranti-caneva-pn-33070-italy",
    "name": "Ass. Immigranti مسجد كانيفا",
    "image1": "https://cdn.mawaqit.net/images/backend/mosque/f4ef04c4-88df-433b-8347-d12f050e5921/mosque/1eea8e07-32d9-67b2-bd9a-066ed47a7584.jpeg",
    "address": "Via Luigi Cadorna 4/A",
    "city": "Caneva-(pn)",
    "zipcode": "33070",
    "countryFullName": "Italy",
    "lng": 12.475898265839,
    "lat": 45.984054750277
  },
  {
    "slug": "firdaus-lonigo-italy",
    "name": "firdaus",
    "image1": "https://cdn.mawaqit.net/images/backend/mosque/4d3e660d-d593-478e-8f52-ef56ea031f3d/mosque/1eea8e07-6339-6c86-a103-066ed47a7584.jpeg",
    "address": "viale vittoria 29",
    "city": "Lonigo",
    "zipcode": "36045",
    "countryFullName": "Italy",
    "lng": 11.3908652,
    "lat": 45.3928353
  },
  {
    "slug": "moschea-di-sannazzaro-de-burgondi-27039-italy",
    "name": "Moschea Sannazzaro De Burgondi",
    "image1": "https://cdn.mawaqit.net/images/backend/mosque/7416a7de-0d33-45f0-a86c-de293dae6e53/mosque/1eea8e08-2d26-69f4-aa9a-066ed47a7584.jpg",
    "address": "Via Voghera 1",
    "city": "Sannazzaro-De'-Burgondi",
    "zipcode": "27039",
    "countryFullName": "Italy",
    "lng": 8.9081269,
    "lat": 45.0967903
  },
  {
    "slug": "msjd-trynznw-trenzano-25030-italy",
    "name": "مسجد ترينزانو",
    "image1": "https://cdn.mawaqit.net/images/backend/mosque/a103d207-000f-45dc-90e3-8d1ab4018267/mosque/1eea8e09-51cf-600c-b125-066ed47a7584.jpg",
    "address": "via vittorio veneto sera 24",
    "city": "Trenzano",
    "zipcode": "25030",
    "countryFullName": "Italy",
    "lng": 10.0070405,
    "lat": 45.4771946
  },
  {
    "slug": "moschea-ferrara-ferrara-44122-italy",
    "name": "Moschea Ferrara(الجامع الكبير)",
    "image1": "https://cdn.mawaqit.net/images/backend/mosque/05b15bfa-0963-418b-9378-53238fd6c563/mosque/1eea8e09-7afd-6636-b6b6-066ed47a7584.jpg",
    "address": "Via traversagno 22/C",
    "city": "Ferrara",
    "zipcode": "44122",
    "countryFullName": "Italy",
    "lng": 11.5836387,
    "lat": 44.85265
  },
  {
    "slug": "https-mawaqit-net-it-w-associazione-culturale-islamica-vergato-vergato-40038-italy",
    "name": "Associazione culturale islamica vergato",
    "image1": "https://cdn.mawaqit.net/images/backend/mosque/8442caa4-8741-405f-bafe-6e8989722070/mosque/1eea8e09-a94b-604c-a538-066ed47a7584.jpg",
    "address": "Piazza 4 novembre n 3",
    "city": "Vergato",
    "zipcode": "40038",
    "countryFullName": "Italy",
    "lng": 11.1125875,
    "lat": 44.2810038
  },
  {
    "slug": "la-speranza-al-amal-rovello-porro-22070-italy",
    "name": "La speranza (al-amal)",
    "image1": "https://cdn.mawaqit.net/images/backend/mosque/43b7c303-eca1-493a-83c3-c16b58836a18/mosque/1eea8e09-fdc0-6726-ab3a-066ed47a7584.jpg",
    "address": "via vittorio veneto 11",
    "city": "Rovello-Porro",
    "zipcode": "22070",
    "countryFullName": "Italy",
    "lng": 9.0353701,
    "lat": 45.651373
  },
  {
    "slug": "acics-castello-di-serravalle-valsamoggia-bo-40050-italy",
    "name": "الجمعية الثقافية الإسلامية لكاستلودسرفال",
    "image1": "https://cdn.mawaqit.net/images/backend/mosque/a3482e7a-ff30-4ee9-b093-cd552ded2765/mosque/1eea8e0a-d3ad-6d7a-8a4e-066ed47a7584.jpg",
    "address": "Via Vandino 172 Loc.Castello di Serravalle Valsamoggia",
    "city": "Valsamoggia-(bo)",
    "zipcode": "40050",
    "countryFullName": "Italy",
    "lng": 11.074804269782,
    "lat": 44.443007955224
  },
  {
    "slug": "masjid-essalam-montecchio-vallefoglia-61022-italy",
    "name": "مسجد السلام",
    "image1": "https://cdn.mawaqit.net/images/backend/mosque/7204c5d4-5414-42c4-8de2-17f860bb65b5/mosque/1eea8e0b-b114-6a56-91df-066ed47a7584.jpg",
    "address": "VIA PIO LA TORRE  17/d",
    "city": "Montecchio-Vallefoglia",
    "zipcode": "61022",
    "countryFullName": "Italy",
    "lng": 12.7591235,
    "lat": 43.8536317
  },
  {
    "slug": "masjid-cles-cles-38023-italy",
    "name": "مسجد كليس   Moschea Cles",
    "image1": "https://cdn.mawaqit.net/images/backend/mosque/394da438-be43-4255-acef-c993054b87f7/mosque/1eea8e0c-d803-6300-a896-066ed47a7584.jpg",
    "address": "via F.Filzi 15/c",
    "city": "Cles",
    "zipcode": "38023",
    "countryFullName": "Italy",
    "lng": 11.0325094,
    "lat": 46.3662669
  },
  {
    "slug": "msjd-nwr-abbiategrasso-20081-italy",
    "name": "مسجد نور",
    "image1": "https://cdn.mawaqit.net/images/backend/mosque/a18ad099-3c05-4ac5-8407-73566e183c03/mosque/1eea8e0d-c883-660e-988f-066ed47a7584.jpg",
    "address": "Via Bollini 7",
    "city": "Abbiategrasso",
    "zipcode": "20081",
    "countryFullName": "Italy",
    "lng": 8.9153708,
    "lat": 45.3842176
  },
  {
    "slug": "masjifs-itihad-trecate-28069-italy",
    "name": "مسجد الإتحاد",
    "image1": "https://cdn.mawaqit.net/images/backend/mosque/b727358f-4217-4f4e-bc9c-118843dab153/mosque/1eea8e0e-785e-6efc-ae4a-066ed47a7584.jpg",
    "address": "Corso Roma, 208",
    "city": "Trecate",
    "zipcode": "28069",
    "countryFullName": "Italy",
    "lng": 8.75825,
    "lat": 45.438
  },
  {
    "slug": "masjid-essalam-nonantola-41015-italy",
    "name": "مسجد السلام",
    "image1": "https://cdn.mawaqit.net/images/backend/mosque/967847f5-debd-4dda-89cc-8e408d4ff222/mosque/1eea8e0e-9498-6ee2-adc2-066ed47a7584.jpg",
    "address": "Via Vittorio Veneto 232/234",
    "city": "Nonantola",
    "zipcode": "41015",
    "countryFullName": "Italy",
    "lng": 11.0471393,
    "lat": 44.6776599
  },
  {
    "slug": "masjid-alamal-bomporto-modena-41030-italy",
    "name": "مسجد الأمل",
    "image1": "https://cdn.mawaqit.net/images/backend/mosque/aed911b5-e221-46b7-9177-c757a6c6f5f8/mosque/1eea8e12-af4c-6f0a-ab0d-066ed47a7584.jpg",
    "address": "Via Aldo Moro 110",
    "city": "Bomporto-Modena",
    "zipcode": "41030",
    "countryFullName": "Italy",
    "lng": 11.040948629379,
    "lat": 44.741498136642
  },
  {
    "slug": "moschea-annour-di-santa-giustina-santa-giustina-bl-32035-italy",
    "name": "Moschea",
    "image1": "https://cdn.mawaqit.net/images/backend/mosque/684a1ef9-3d55-4391-8afc-b343f19f9537/mosque/1eea8e13-c01a-6e3a-bbd8-066ed47a7584.jpg",
    "address": "Piazza Maggiore 9B",
    "city": "Santa-Giustina-(bl)",
    "zipcode": "32035",
    "countryFullName": "Italy",
    "lng": 12.041746,
    "lat": 46.084303
  },
  {
    "slug": "msjd-lmhsnyn-castelvetro-di-modena-41014-italy",
    "name": "مسجد المحسنين",
    "image1": "https://cdn.mawaqit.net/images/backend/mosque/20fc5057-3166-40c7-acf7-342be4035815/mosque/1eea8e13-ce38-6d8c-89a7-066ed47a7584.jpg",
    "address": "VIA S.STATALE 11",
    "city": "Castelvetro-Di-Modena",
    "zipcode": "41014",
    "countryFullName": "Italy",
    "lng": 12.4011058,
    "lat": 44.0937484
  },
  {
    "slug": "msjd-nyts-mwnfrtw-nizza-monferrato-14049-italy",
    "name": "مسجد نيتسا مونفراطو",
    "image1": "https://cdn.mawaqit.net/images/backend/mosque/c6ea08b6-75eb-41f6-819e-d9c1922ab669/mosque/1eea8e14-e32f-6fa0-8821-066ed47a7584.jpg",
    "address": "Via Fratelli rosselli 18 Nizza Monferrato 14049",
    "city": "Nizza-Monferrato",
    "zipcode": "14049",
    "countryFullName": "Italy",
    "lng": 8.3429344872695,
    "lat": 44.77270301684
  },
  {
    "slug": "centro-di-cultura-islamica-del-fermano-campiglione-fm-63900-italy",
    "name": "مسجد كمبليوني",
    "image1": "https://cdn.mawaqit.net/images/backend/mosque/e879bd7a-973d-46f6-9212-27b53443ce5e/mosque/1eea8e15-e616-627c-b6a7-066ed47a7584.jpg",
    "address": "via Adige 12",
    "city": "Campiglione-Fm",
    "zipcode": "63900",
    "countryFullName": "Italy",
    "lng": 13.6679442,
    "lat": 43.1794082
  },
  {
    "slug": "associazione-fratellanza-marostica",
    "name": "Associazione Fratellanza",
    "image1": "https://cdn.mawaqit.net/images/backend/mosque/4bc5acee-e2f9-4f84-965a-0f81da2f197f/mosque/1eea8e16-0c29-6428-8bef-066ed47a7584.jpg",
    "address": "Via Dott. Pietro Ragazzoni 20",
    "city": "Marostica",
    "zipcode": "36063",
    "countryFullName": "Italy",
    "lng": 11.6432412,
    "lat": 45.7392407
  },
  {
    "slug": "mosquee-tawba-casalfiumanese-40020-italy",
    "name": "Mosquée tawba",
    "image1": "https://cdn.mawaqit.net/images/backend/mosque/2afc5c96-bd10-4d6a-929d-d934d7c9908d/mosque/1eea8e18-d087-69b2-843d-066ed47a7584.jpg",
    "address": "via bozzi 16",
    "city": "Casalfiumanese",
    "zipcode": "40020",
    "countryFullName": "Italy",
    "lng": 11.6263544,
    "lat": 44.2953777
  },
  {
    "slug": "masjid-safsaf-san-pietro-in-casale-bologna-40018-italy",
    "name": "مسجد الصفصاف",
    "image1": "https://cdn.mawaqit.net/images/backend/mosque/a82e8c24-f726-4d56-90f0-a53274ab35dd/mosque/1eea8e19-42b9-665c-a996-066ed47a7584.jpg",
    "address": "Via Rodolfo Morandi 30",
    "city": "San-Pietro-In-Casale-Bologna",
    "zipcode": "40018",
    "countryFullName": "Italy",
    "lng": 11.4116072,
    "lat": 44.7021301
  },
  {
    "slug": "el-amal-ostiglia-46035-italy",
    "name": "EL AMAL",
    "image1": "https://cdn.mawaqit.net/images/backend/mosque/b077262c-c4bf-47e8-8aa0-5a4a22fb653d/mosque/1eea8e19-b405-6b30-b6ad-066ed47a7584.jpg",
    "address": "VIA GIULIO ROMANO N. 4/A",
    "city": "Ostiglia",
    "zipcode": "46035",
    "countryFullName": "Italy",
    "lng": 11.1343322,
    "lat": 45.0770983
  },
  {
    "slug": "masjid-al-wahda-saluzzo-12037-italy",
    "name": "Masjid al wahda",
    "image1": "https://cdn.mawaqit.net/images/backend/mosque/2f63007e-5e15-4682-891d-85d5b5e6a425/mosque/1eea8e1a-2332-6576-9724-066ed47a7584.jpg",
    "address": "Via donaudi n49/c Saluzzo 12037 CN",
    "city": "Saluzzo",
    "zipcode": "12037",
    "countryFullName": "Italy",
    "lng": 7.4878523,
    "lat": 44.647089
  },
  {
    "slug": "moschea-di-campomarino-campomarino-86042-italy",
    "name": "Moschea di Campomarino",
    "image1": "https://cdn.mawaqit.net/images/backend/mosque/ab497b09-173e-4db0-b1c5-22f515195dbd/mosque/1eea8e1b-ae43-695c-9e7b-066ed47a7584.jpg",
    "address": "via abruzzi 15",
    "city": "Campomarino",
    "zipcode": "86042",
    "countryFullName": "Italy",
    "lng": 15.0328886,
    "lat": 41.9542913
  },
  {
    "slug": "moschea-di-voghera-voghera-27058-italy",
    "name": "Moschea di Voghera",
    "image1": "https://cdn.mawaqit.net/images/backend/mosque/65998fe2-826d-4594-be85-7b9f1af34578/mosque/1eea8e1c-fdec-63a4-a3a4-066ed47a7584.jpg",
    "address": "Via Ridondello 57",
    "city": "Voghera",
    "zipcode": "27058",
    "countryFullName": "Italy",
    "lng": 8.9826649,
    "lat": 44.9913874
  },
  {
    "slug": "moschea-abu-bakar-alba-adriatica-64011-italy",
    "name": "Moschea Abu Bakar",
    "image1": "https://cdn.mawaqit.net/images/backend/mosque/6091fc94-ddab-4874-a97a-b069cf3bf301/mosque/1eea8e1e-cf61-687a-b4f5-066ed47a7584.jpg",
    "address": "via Bafile, 57",
    "city": "Alba-Adriatica",
    "zipcode": "64011",
    "countryFullName": "Italy",
    "lng": 13.9220348,
    "lat": 42.836429
  },
  {
    "slug": "centro-islamico-di-saronno-saronno-21047-italy",
    "name": "Centro islamico di Saronno",
    "image1": "https://cdn.mawaqit.net/images/backend/mosque/da47fc30-b400-40a6-9b04-10dc056aeb3c/mosque/1eea8e1f-99c2-6772-8bcc-066ed47a7584.jpg",
    "address": "Via  Grieg  44  21047",
    "city": "Saronno",
    "zipcode": "21047",
    "countryFullName": "Italy",
    "lng": 9.0423258,
    "lat": 45.6131575
  },
  {
    "slug": "centro-islamico-della-val-tidone-borgonovo-val-tidone-29011-italy",
    "name": "Centro Islamico della Val Tidone",
    "image1": "https://cdn.mawaqit.net/images/backend/mosque/0802cf92-144e-4400-87cf-8fcd120fa08e/mosque/1eea8e1f-c0ef-685e-af7f-066ed47a7584.jpg",
    "address": "Località Cà Verde",
    "city": "Borgonovo-Val-Tidone",
    "zipcode": "29011",
    "countryFullName": "Italy",
    "lng": 9.4484146,
    "lat": 45.0355722
  },
  {
    "slug": "masjid-assalam-cinisello-balsamo-20092-italy",
    "name": "مسجد السلام",
    "image1": "https://cdn.mawaqit.net/images/backend/mosque/46cf70c4-ec11-4d73-9de5-d00293b99296/mosque/1eea8e1f-de36-64f8-b188-066ed47a7584.jpg",
    "address": "Via Matteotti 66",
    "city": "Cinisello-Balsamo",
    "zipcode": "20092",
    "countryFullName": "Italy",
    "lng": 9.2348213,
    "lat": 45.5514403
  },
  {
    "slug": "darelhadithmi",
    "name": "مسجد دار الحديث",
    "image1": "https://cdn.mawaqit.net/images/backend/mosque/77771ae3-08f1-4ccb-9f15-957f60baae7f/mosque/1eea8e1f-eb9b-65bc-b8bf-066ed47a7584.jpg",
    "address": "56 VIA GONIN",
    "city": "Milano",
    "zipcode": "20147",
    "countryFullName": "Italy",
    "lng": 9.1202671,
    "lat": 45.4420092
  },
  {
    "slug": "centro-culturale-islamico-m-s-giusto-monte-san-giusto-62015-italy",
    "name": "مسجد مونتي سان جوستو",
    "image1": "https://cdn.mawaqit.net/images/backend/mosque/e95e85f9-7707-4362-8382-21b84b3270fa/mosque/1eea8e20-4d2b-6d68-8909-066ed47a7584.jpg",
    "address": "strada macerata 86",
    "city": "Monte-San-Giusto",
    "zipcode": "62015",
    "countryFullName": "Italy",
    "lng": 13.593814325055,
    "lat": 43.235067751581
  },
  {
    "slug": "masjid-ennour-fermignano-61033-italy",
    "name": "مسجد النور FERMIGNANO",
    "image1": "https://cdn.mawaqit.net/images/backend/mosque/d7b943ce-c253-4175-ad2d-1e15f5f403cb/mosque/1eea8e21-756a-642c-8001-066ed47a7584.jpg",
    "address": "Via donizetti 99999",
    "city": "Fermignano",
    "zipcode": "61033",
    "countryFullName": "Italy",
    "lng": 12.647755,
    "lat": 43.6856019
  },
  {
    "slug": "msjd-sm-bn-by-lnjwd-milano-20161-italy",
    "name": "مسجد عاصم ابن أبي النجود",
    "image1": "https://cdn.mawaqit.net/images/backend/mosque/d49a4502-7bd2-45e3-bcc1-87b726303e1c/mosque/1eea8e24-c33b-6126-8f80-066ed47a7584.jpg",
    "address": "Via Caltagirone 3",
    "city": "Milano",
    "zipcode": "20161",
    "countryFullName": "Italy",
    "lng": 9.1736273,
    "lat": 45.5236891
  },
  {
    "slug": "el-nour-portogruaro-portogruaro-30026-italy",
    "name": "EL NOUR PORTOGRUARO",
    "image1": "https://cdn.mawaqit.net/images/backend/mosque/dd69755c-fea6-408b-a013-d2dd294dbc19/mosque/1eea8e28-4f90-6e98-a903-066ed47a7584.jpg",
    "address": "Via Bassa di Portovecchio, 5",
    "city": "Portogruaro",
    "zipcode": "30026",
    "countryFullName": "Italy",
    "lng": 12.8382036,
    "lat": 45.7875817
  },
  {
    "slug": "msjd-lrhm-zolapredosa-bo-40069-italy",
    "name": "مسجد الرحمة",
    "image1": "https://cdn.mawaqit.net/images/backend/mosque/87d87f6f-a49c-46f1-abdd-2e3e9a563260/mosque/1eea8e29-879d-6b8c-a69a-066ed47a7584.jpg",
    "address": "VIA DANTE 5/A",
    "city": "Zola-Predosa",
    "zipcode": "40069",
    "countryFullName": "Italy",
    "lng": 11.2195208,
    "lat": 44.4901152
  },
  {
    "slug": "ltdmn-conselice-48017-italy",
    "name": "جمعية التضامن",
    "image1": "https://cdn.mawaqit.net/images/backend/mosque/696c5844-864b-489c-8655-df44136335ff/mosque/1eea8e2e-029d-6770-bb8c-066ed47a7584.jpg",
    "address": "Via amendola 35/c",
    "city": "Conselice",
    "zipcode": "48017",
    "countryFullName": "Italy",
    "lng": 11.8346253,
    "lat": 44.50887
  },
  {
    "slug": "imoschea-tauba-pinerolo-msjd-ltwb-pinerolo-10064-italy",
    "name": "Moschea Tauba Pinerolo مسجد التوبة",
    "image1": "https://cdn.mawaqit.net/images/backend/mosque/2b9c670f-4e9e-4d68-90ac-b1f1358c15b8/mosque/1efd0247-cc63-6060-a63f-06bada7b305f.jpg",
    "address": "Via Filippo Juvara 32",
    "city": "Pinerolo",
    "zipcode": "10064",
    "countryFullName": "Italy",
    "lng": 7.3441688,
    "lat": 44.8838855
  },
  {
    "slug": "c-i-mediterranea-onlus-casaleone-vr-37052-italy",
    "name": "C I MEDITERRANEA ONLUS",
    "image1": "https://cdn.mawaqit.net/images/backend/mosque/78bfcdb4-0e35-4d9e-962e-74f69d454046/mosque/1eea8e31-3fb8-61ac-8407-066ed47a7584.jpg",
    "address": "VIA MENAGO 28",
    "city": "Casaleone-Vr",
    "zipcode": "37052",
    "countryFullName": "Italy",
    "lng": 11.2299268,
    "lat": 45.1492922
  },
  {
    "slug": "masjid-almal-cornuda-31041-italy",
    "name": "مسجد الأمل",
    "image1": "https://cdn.mawaqit.net/images/backend/mosque/5d1de45a-82d8-45f6-a193-dd167c5808fd/mosque/1eea8e31-c7d0-6170-b879-066ed47a7584.jpg",
    "address": "Via xxx aprile 22",
    "city": "Cornuda",
    "zipcode": "31041",
    "countryFullName": "Italy",
    "lng": 12.0040607,
    "lat": 45.8295258
  },
  {
    "slug": "anzola",
    "name": "مسجد أنزولا إيميليا",
    "image1": "https://cdn.mawaqit.net/images/backend/mosque/95371ef6-59c5-4886-9510-580dad42bc3c/mosque/1eea8e35-2e19-6a6e-817e-066ed47a7584.jpg",
    "address": "Via Achille Grandi 12",
    "city": "Anzola-Emilia",
    "zipcode": "40011",
    "countryFullName": "Italy",
    "lng": 11.1924148,
    "lat": 44.5456771
  },
  {
    "slug": "lmrkz-ltqfy-lslmy-fl-sryn-vertova-bg-24029-italy",
    "name": "المركز الثقافي الاسلامي فال سريانا",
    "image1": "https://cdn.mawaqit.net/images/backend/mosque/6a61bdf3-dc62-4948-8770-407aff4da4ff/mosque/1eea8e35-60c6-6e26-aede-066ed47a7584.jpg",
    "address": "Via canale 4",
    "city": "Vertova-(bg)",
    "zipcode": "24029",
    "countryFullName": "Italy",
    "lng": 9.8541435,
    "lat": 45.8075629
  },
  {
    "slug": "messages-id-12735",
    "name": "MOSCHEA AL-WAFAA",
    "image1": "https://cdn.mawaqit.net/images/backend/mosque/29297f5d-b328-4c5d-8684-2b88d7d778b5/mosque/1eea8e36-251d-646e-b8e2-066ed47a7584.jpg",
    "address": "Via Roma 27",
    "city": "Colorno",
    "zipcode": "43052",
    "countryFullName": "Italy",
    "lng": 10.3797969,
    "lat": 44.9302372
  },
  {
    "slug": "associazione-cheikh-ahmadou-bamba-pontevico-25026-italy",
    "name": "Associazione Cheikh Ahmadou Bamba APS",
    "image1": "https://cdn.mawaqit.net/images/backend/mosque/78df0797-3062-4bd9-9231-f344b7711ffd/mosque/1eea8e36-bb18-6004-b397-066ed47a7584.jpg",
    "address": "Via Brescia 36",
    "city": "Pontevico",
    "zipcode": "25026",
    "countryFullName": "Italy",
    "lng": 10.0955764,
    "lat": 45.2756429
  },
  {
    "slug": "associazione-culturale-essalam-cerea-37053-italy",
    "name": "Associazione culturale essalam",
    "image1": "https://cdn.mawaqit.net/images/backend/mosque/8667756a-5732-4ad9-96b9-c9964d203316/mosque/1eea8e3b-0375-6f46-adf9-066ed47a7584.jpg",
    "address": "Viale dell'artigianato, 3/A",
    "city": "Cerea",
    "zipcode": "37053",
    "countryFullName": "Italy",
    "lng": 11.2344822,
    "lat": 45.1900602
  },
  {
    "slug": "jm-y-drlslm-porto-viro-45014-italy",
    "name": "جمعية دارالسلام",
    "image1": "https://cdn.mawaqit.net/images/backend/mosque/ea62bf0b-f4e8-4793-84bd-e06c543f6e42/mosque/1eea8e3b-cdbf-66c6-bfba-066ed47a7584.jpg",
    "address": "Via risorgimento 23",
    "city": "Porto-Viro",
    "zipcode": "45014",
    "countryFullName": "Italy",
    "lng": 12.2175031,
    "lat": 45.0198871
  },
  {
    "slug": "centro-culturale-islamico-di-brescia-brescia-25125-italy",
    "name": "Centro Culturale Islamico di Brescia",
    "image1": "https://cdn.mawaqit.net/images/backend/mosque/e916ee30-80cc-4c19-9046-90744bdca759/mosque/1eea8e3e-d88c-68e4-8769-066ed47a7584.jpg",
    "address": "via corsica 361",
    "city": "Brescia",
    "zipcode": "25125",
    "countryFullName": "Italy",
    "lng": 10.193469,
    "lat": 45.520687
  },
  {
    "slug": "moschea-uguaglianza-pravisdomini-pravisdomini-33076-italy",
    "name": "UGUAGLIANZA PRAVISDOMINI",
    "image1": "https://cdn.mawaqit.net/images/backend/mosque/541bbe57-20bc-4ddc-86f2-d896e12b2b79/mosque/1eea8e41-c49f-6f22-b29a-066ed47a7584.jpg",
    "address": "Via Barco 2",
    "city": "Pravisdomini",
    "zipcode": "33076",
    "countryFullName": "Italy",
    "lng": 12.682996988297,
    "lat": 45.8121329697
  },
  {
    "slug": "associazione-culturale-della-fratellanza-milan-20142-italy",
    "name": "Centro Culturale Gratosoglio",
    "image1": "https://cdn.mawaqit.net/images/backend/mosque/b9bfd37f-4cab-4a0a-8c72-9928f688b8bb/mosque/1eea8e41-d2d9-6764-aa4a-066ed47a7584.jpg",
    "address": "Via Costantino Baroni n.190",
    "city": "Milan",
    "zipcode": "20142",
    "countryFullName": "Italy",
    "lng": 9.171781539917,
    "lat": 45.403451993343
  },
  {
    "slug": "msjd-lslm-w-lkhw-serramazzoni-41028-italy",
    "name": "مسجد السلام و الأخوة",
    "image1": "https://cdn.mawaqit.net/images/backend/mosque/53f2cb95-32cc-41e6-994a-79934a11ae3a/mosque/1eea8e42-482e-619a-b49c-066ed47a7584.jpg",
    "address": "Via Giardini Sud 1772",
    "city": "Serramazzoni",
    "zipcode": "41028",
    "countryFullName": "Italy",
    "lng": 10.7957631,
    "lat": 44.4133648
  },
  {
    "slug": "c-c-islamico-al-ummah-in-lunigiana-licciana-nardi-54016-italy",
    "name": "مسجد الأمة centro culturale Al Ummah",
    "image1": "https://cdn.mawaqit.net/images/backend/mosque/e2223446-e644-4cc5-a9dd-1b2a90901b62/mosque/1eea8e46-ead1-60ec-ad2d-066ed47a7584.jpg",
    "address": "Via nazionale cisa 8",
    "city": "Licciana-Nardi",
    "zipcode": "54016",
    "countryFullName": "Italy",
    "lng": 9.9663963,
    "lat": 44.2279536
  },
  {
    "slug": "associazione-comunita-islamica-aps-estero-41028-italy",
    "name": "مسجد بافولو - Moschea di PAVULLO N/F",
    "image1": "https://cdn.mawaqit.net/images/backend/mosque/a08cf963-d0cb-4aa0-b222-94b52605ff0a/mosque/1ef9e931-2295-62ae-a44a-0a0389a4e0f5.jpeg",
    "address": "Via Giuseppe Garibaldi n°24A",
    "city": "Estero",
    "zipcode": "41026",
    "countryFullName": "Italy",
    "lng": 10.8420949,
    "lat": 44.3263932
  },
  {
    "slug": "moschea-al-farouq-msjd-lfrwq-padova-35135-italy",
    "name": "Moschea Al Farouq مسجد الفاروق",
    "image1": "https://cdn.mawaqit.net/images/backend/mosque/147d9264-9b82-4674-8858-de284ea36ff8/mosque/1eea8e47-a4a3-65e2-a6e6-066ed47a7584.jpg",
    "address": "Corso Tre Venezie 20/40",
    "city": "Padova",
    "zipcode": "35135",
    "countryFullName": "Italy",
    "lng": 11.87112,
    "lat": 45.422604
  },
  {
    "slug": "moschea-an-nur-bergamo-24060-italy",
    "name": "Moschea Annur Rogno",
    "image1": "https://cdn.mawaqit.net/images/backend/mosque/45cdcedb-1e03-4f72-8e72-141f1496be10/mosque/1eea8e47-e845-6048-961b-066ed47a7584.jpg",
    "address": "Via santa Caterina 12 Rogno",
    "city": "Bergamo",
    "zipcode": "24060",
    "countryFullName": "Italy",
    "lng": 10.1427231,
    "lat": 45.8654518
  },
  {
    "slug": "masjid-assahaba-santa-croce-sullarno-56029-italy",
    "name": "Masjid Assahaba",
    "image1": "https://cdn.mawaqit.net/images/backend/mosque/a8d2d9c8-95c3-423a-a2c5-16b5aa681067/mosque/1eea8e48-0952-6970-864b-066ed47a7584.jpg",
    "address": "via Gastone Sozzi 10",
    "city": "Santa-Croce-Sull'arno",
    "zipcode": "56029",
    "countryFullName": "Italy",
    "lng": 10.7747546,
    "lat": 43.7161116
  },
  {
    "slug": "lmrkz-lslmy-bmylnw-w-lwmbrdy-segrate-milano-20054-italy",
    "name": "Centro Islamico di Milano e Lombardia",
    "image1": "https://cdn.mawaqit.net/images/backend/mosque/c6f2981f-a0a3-4174-831c-1cfb94663037/mosque/1eea8e49-5e60-6fec-a90c-066ed47a7584.jpg",
    "address": "Via Cassanese 3",
    "city": "Segrate--Milano",
    "zipcode": "20054",
    "countryFullName": "Italy",
    "lng": 9.2612393,
    "lat": 45.4905866
  },
  {
    "slug": "jm-y-lslm-associazione-assalam-mezzago-20883-italy",
    "name": "Associazione Assalam جمعية السلام",
    "image1": "https://cdn.mawaqit.net/images/backend/mosque/4c876739-b1ac-4d1a-aafe-cf1fbf03aff7/mosque/1eea8e4e-91e1-6c18-80ac-066ed47a7584.jpg",
    "address": "Viale delle industrie,1",
    "city": "Mezzago",
    "zipcode": "20883",
    "countryFullName": "Italy",
    "lng": 9.4415583,
    "lat": 45.6213234
  },
  {
    "slug": "msjd-qb-viareggio-55049-italy",
    "name": "مسجد قباء",
    "image1": "https://cdn.mawaqit.net/images/backend/mosque/6bbdb950-bd89-4fca-ae91-04bc0421e7cd/mosque/1eea8e4f-b0a9-61e0-b9e7-066ed47a7584.jpg",
    "address": "-  Via Libeccio, 48/B -  Bicchio",
    "city": "Viareggio",
    "zipcode": "55049",
    "countryFullName": "Italy",
    "lng": 10.273656,
    "lat": 43.861293
  },
  {
    "slug": "associazione-culturale-islamica-argenta-44011-italy",
    "name": "Moschea di Argenta",
    "image1": "https://cdn.mawaqit.net/images/backend/mosque/be637f42-c3e3-48d9-ab57-a5a6b0a224bd/mosque/1eea8e53-e705-67b2-9219-066ed47a7584.jpg",
    "address": "via natale gaiba 35 a",
    "city": "Argenta",
    "zipcode": "44011",
    "countryFullName": "Italy",
    "lng": 11.661807,
    "lat": 44.609387
  },
  {
    "slug": "al-noor-treviso-31047-italy",
    "name": "Al Noor Ponte di Piave",
    "image1": "https://cdn.mawaqit.net/images/backend/mosque/9c7bd998-8328-412a-9910-49c388b538cf/mosque/1eea8e54-7656-64fc-ae2f-066ed47a7584.jpg",
    "address": "via roma 132 ponte di piave",
    "city": "Treviso",
    "zipcode": "31047",
    "countryFullName": "Italy",
    "lng": 12.4579313,
    "lat": 45.7230441
  },
  {
    "slug": "masjid-al-wassat-bologna-40133-italy",
    "name": "MASJID  AL WASSAT",
    "image1": "https://cdn.mawaqit.net/images/backend/mosque/25f32f10-4046-4652-bd76-8dd952f3e9c5/mosque/1eea8e56-ef62-6c7c-936f-066ed47a7584.jpg",
    "address": "VIA RINALDO RIGOLA 17",
    "city": "Bologna",
    "zipcode": "40133",
    "countryFullName": "Italy",
    "lng": 11.2870956,
    "lat": 44.4952198
  },
  {
    "slug": "centre-islamique-cantu-22063-italy",
    "name": "المركز الإسلامي السلام كانتو",
    "image1": "https://cdn.mawaqit.net/images/backend/mosque/86c346dc-661d-40dc-a2a2-1855a0cff389/mosque/1eea8e58-1381-6b5c-a12b-066ed47a7584.jpg",
    "address": "Via Milano 127/D",
    "city": "Cantù",
    "zipcode": "22063",
    "countryFullName": "Italy",
    "lng": 9.1471497,
    "lat": 45.7252942
  },
  {
    "slug": "associazione-culturale-al-bayt-la-casa-felina-42035-italy",
    "name": "Associazione culturale al bayt (la casa)",
    "image1": "https://cdn.mawaqit.net/images/backend/mosque/86ad1d4d-fb6c-4822-a70e-d45b613f8b08/mosque/1eea8e58-5945-6c56-a2ed-066ed47a7584.jpg",
    "address": "via fontanesi 19 A-B",
    "city": "Felina",
    "zipcode": "42035",
    "countryFullName": "Italy",
    "lng": 10.4561318,
    "lat": 44.4523551
  },
  {
    "slug": "futuro-dei-giovani-nogara-37054-italy",
    "name": "futuro dei giovani-nogara (vr)",
    "image1": "https://cdn.mawaqit.net/images/backend/mosque/52303f24-2752-4c5a-b88d-6ff3294fea3c/mosque/1eea8e58-79cf-6a58-8794-066ed47a7584.jpg",
    "address": "via robert kennedy 23",
    "city": "Nogara",
    "zipcode": "37054",
    "countryFullName": "Italy",
    "lng": 11.0634953,
    "lat": 45.1825338
  },
  {
    "slug": "moschea-assalam-vercelli-13100-italy-1",
    "name": "مسجد السلام - Moschea Assalam",
    "image1": "https://cdn.mawaqit.net/images/backend/mosque/4b2837ae-ee41-41ee-b5e7-71888009ae91/mosque/1eea8e59-a607-6958-83f4-066ed47a7584.jpg",
    "address": "Corso Papa Giovanni Paolo II 34",
    "city": "VERCELLI",
    "zipcode": "13100",
    "countryFullName": "Italy",
    "lng": 8.4374629,
    "lat": 45.3131543
  },
  {
    "slug": "il-dialogo-bolzano-39100-italy",
    "name": "IL DIALOGO",
    "image1": "https://cdn.mawaqit.net/images/backend/mosque_default_picture.png",
    "address": "VIA NEGRELLI N5",
    "city": "Bolzano",
    "zipcode": "39100",
    "countryFullName": "Italy",
    "lng": 11.3327286,
    "lat": 46.4711019
  },
  {
    "slug": "bangladesh-per-la-pace-thiene-vicenza-36016-italy",
    "name": "Bangladesh Per La pace",
    "image1": "https://cdn.mawaqit.net/images/backend/mosque/c9f88af8-e2bd-46d2-b6bf-9fd8bd5fd728/mosque/1ef9ebbe-ede8-6c46-aa68-0671c73660c5.jpg",
    "address": "Via Massimiliano Kolbe 17/A",
    "city": "Thiene,-Vicenza",
    "zipcode": "36016",
    "countryFullName": "Italy",
    "lng": 11.4902475,
    "lat": 45.6939151
  },
  {
    "slug": "xhamia-teuhid-guastalla-guastalla-42016-italy",
    "name": "Xhamia \"Teuhid\" Guastalla",
    "image1": "https://cdn.mawaqit.net/images/backend/mosque_default_picture.png",
    "address": "via Santa Ignazio 2/b",
    "city": "Guastalla",
    "zipcode": "42016",
    "countryFullName": "Italy",
    "lng": 10.6868393,
    "lat": 44.9150053
  },
  {
    "slug": "associazione-vivere-inseime-mariano-comense-22066-italy",
    "name": "مركز التوحيد - Centro Attawhid",
    "image1": "https://cdn.mawaqit.net/images/backend/mosque/4eda7549-0abf-47e7-a967-2efcf7e85773/mosque/1eea8e5a-df51-61fe-ad37-066ed47a7584.jpg",
    "address": "Via Como 5",
    "city": "Mariano-Comense",
    "zipcode": "22066",
    "countryFullName": "Italy",
    "lng": 9.1742766,
    "lat": 45.7034732
  },
  {
    "slug": "baytun-noor-monza-20900-italy",
    "name": "BAYTUN NOOR",
    "image1": "https://cdn.mawaqit.net/images/backend/mosque/1c78f7f5-43eb-4e5c-bf8c-f130cb036b30/mosque/1eea8e5c-e84d-6e5e-8093-066ed47a7584.jpg",
    "address": "Via Torquato Tasso, 10",
    "city": "Monza",
    "zipcode": "20900",
    "countryFullName": "Italy",
    "lng": 9.2880254,
    "lat": 45.5821157
  },
  {
    "slug": "jm-y-lrhm-san-dona-di-piave-30027-italy-1",
    "name": "جمعية الرحمة",
    "image1": "https://cdn.mawaqit.net/images/backend/mosque/bca084dd-bd48-419f-8915-3da090dbe9a6/mosque/1eea8e5d-9ddd-665c-aad7-066ed47a7584.jpg",
    "address": "VIA G.LA PIRA 13",
    "city": "San-Dona-Di-Piave",
    "zipcode": "30027",
    "countryFullName": "Italy",
    "lng": 12.5414891,
    "lat": 45.6524881
  },
  {
    "slug": "assalam-bologna-40051-italy",
    "name": "السلام ALTEDO",
    "image1": "https://cdn.mawaqit.net/images/backend/mosque/c7c627cc-f24b-46d9-8008-ce0b04d213ca/mosque/1eea8e5e-c0cc-686a-a7c9-066ed47a7584.jpg",
    "address": "VIA NAZIONALE 186 MALALGERGO",
    "city": "Bologna",
    "zipcode": "40051",
    "countryFullName": "Italy",
    "lng": 11.4914964,
    "lat": 44.676454
  },
  {
    "slug": "centro-culturale-el-salam-di-bologna-bologna-40129-italy",
    "name": "Centro Culturale El Salam di Bologna.",
    "image1": "https://cdn.mawaqit.net/images/backend/mosque/66735505-622b-4e00-ab37-0e60dc176220/mosque/1eea8e60-6e0d-6348-a792-066ed47a7584.jpg",
    "address": "Via della Casa Buia, 3,",
    "city": "Bologna",
    "zipcode": "40129",
    "countryFullName": "Italy",
    "lng": 11.3508346,
    "lat": 44.5424079
  },
  {
    "slug": "moschea-nuova-generazione-jm-y-ljyl-l-modena-41124-italy",
    "name": "Nuova Generazione - مسجد الجيل الجديد",
    "image1": "https://cdn.mawaqit.net/images/backend/mosque/4f79476b-fd21-4001-a4a8-fe446413a7d5/mosque/1eea8e60-991b-6102-b7cb-066ed47a7584.jpg",
    "address": "Strada San Faustino 155/3",
    "city": "Modena",
    "zipcode": "41124",
    "countryFullName": "Italy",
    "lng": 10.9054305,
    "lat": 44.6434155
  },
  {
    "slug": "masjid-al-rayan-ferrara-msjd-lryn-ferrara-44122-italy",
    "name": "Masjid Al-Rayan Ferrara مسجد الريان",
    "image1": "https://cdn.mawaqit.net/images/backend/mosque/5eecdb4c-617d-4cf1-8790-df8c83f11a38/mosque/1eea8e61-69ed-665e-95a2-066ed47a7584.jpg",
    "address": "Via Bongiovanni 36/B",
    "city": "Ferrara",
    "zipcode": "44122",
    "countryFullName": "Italy",
    "lng": 11.5972241,
    "lat": 44.8487999
  },
  {
    "slug": "msjd-montagnana-montagnana-35044-italy",
    "name": "Associazione culturale montagnanese",
    "image1": "https://cdn.mawaqit.net/images/backend/mosque/6e1ccdac-9d99-4a1b-8030-72038cbedabf/mosque/1eea8e61-781f-66f0-abd5-066ed47a7584.jpg",
    "address": "Via sant'Antonio 60",
    "city": "Montagnana",
    "zipcode": "35044",
    "countryFullName": "Italy",
    "lng": 11.457771,
    "lat": 45.228113
  },
  {
    "slug": "associazione-islamica-di-viterbo-viterbo-01100-italy",
    "name": "Associazione Islamica di Viterbo",
    "image1": "https://cdn.mawaqit.net/images/backend/mosque/28b811a0-b946-4dbc-b998-0ddaa0d560cb/mosque/1eea8e62-2549-63f8-981f-066ed47a7584.jpg",
    "address": "Via Enrico Viventi, 106",
    "city": "Viterbo",
    "zipcode": "01100",
    "countryFullName": "Italy",
    "lng": 12.0988554,
    "lat": 42.4304621
  },
  {
    "slug": "centro-i-fiori-di-oggiona-msjd-lzhwr-oggiona-con-santo-stefano-21040-italy",
    "name": "Centro I Fiori di Oggiona - مسجد الزهور",
    "image1": "https://cdn.mawaqit.net/images/backend/mosque/1f4db577-9e5d-4e60-b8d9-b09f75c70636/mosque/1eea8e63-6ee7-6ed2-9c32-066ed47a7584.jpg",
    "address": "Via Del Laghetto,13",
    "city": "Oggiona-Con-Santo-Stefano",
    "zipcode": "21040",
    "countryFullName": "Italy",
    "lng": 8.8189885,
    "lat": 45.7081358
  },
  {
    "slug": "consiglio-islamico-di-verona-verona-37133-italy",
    "name": "Consiglio Islamico di Verona",
    "image1": "https://cdn.mawaqit.net/images/backend/mosque/4b99c0e2-5262-443c-907c-05d4f62656db/mosque/1eea8e66-8a12-6f06-963e-066ed47a7584.jpg",
    "address": "Via Bencivenga Biondani 18",
    "city": "Verona",
    "zipcode": "37133",
    "countryFullName": "Italy",
    "lng": 10.9976442,
    "lat": 45.4270383
  },
  {
    "slug": "associazione-culturale-bader-follina-31051-italy",
    "name": "ASSOCIAZIONE CULTURALE BADER",
    "image1": "https://cdn.mawaqit.net/images/backend/mosque/8dd9a502-2b12-4977-8d47-791ecf9c4ba3/mosque/1eea8e77-0e1f-6276-a965-066ed47a7584.jpg",
    "address": "VIA DEI CAVALLI N10",
    "city": "Follina",
    "zipcode": "31051",
    "countryFullName": "Italy",
    "lng": 12.1370698,
    "lat": 45.9642215
  },
  {
    "slug": "masjid-addoha-san-giorgio-di-piano-40016-italy",
    "name": "Masjid addoha",
    "image1": "https://cdn.mawaqit.net/images/backend/mosque/aa53e3db-c754-45ac-8cfc-ee10cd2f3640/mosque/1eea8e77-dbb7-68d2-bf40-066ed47a7584.jpg",
    "address": "Via Ossola 3",
    "city": "San-Giorgio-Di-Piano",
    "zipcode": "40016",
    "countryFullName": "Italy",
    "lng": 11.3649829,
    "lat": 44.6476113
  },
  {
    "slug": "al-ghofrane-bologna-40127-italy",
    "name": "Masjid Al Ghofrane - مسجد الغفران",
    "image1": "https://cdn.mawaqit.net/images/backend/mosque/ad21ec9b-561c-451a-979d-dee23ae5cd0d/mosque/1eea8e78-9bc9-63f0-b235-066ed47a7584.jpg",
    "address": "Via Giovanni Natali, 5/A-B",
    "city": "Bologna",
    "zipcode": "40127",
    "countryFullName": "Italy",
    "lng": 11.3980639,
    "lat": 44.5096817
  },
  {
    "slug": "ltwb-ferrara-44121-italy",
    "name": "التوبة",
    "image1": "https://cdn.mawaqit.net/images/backend/mosque/76b311f1-98c7-45e5-b4ec-0540a50df6a9/mosque/1eea8e7c-2bfb-639e-ab45-066ed47a7584.jpg",
    "address": "VIA DEL COMMERCIO 79",
    "city": "Ferrara",
    "zipcode": "44121",
    "countryFullName": "Italy",
    "lng": 11.6027802,
    "lat": 44.872005
  },
  {
    "slug": "moschea-alferdauss-trino-vercellese-13039-italy",
    "name": "Moschea AlFerdauss",
    "image1": "https://cdn.mawaqit.net/images/backend/mosque/a369874b-c70f-4316-ab49-eeb2e0dd8b10/mosque/1eea8e7d-ba9b-6918-9b8d-066ed47a7584.jpg",
    "address": "Via Monte Santo 9C",
    "city": "Trino-Vercellese",
    "zipcode": "13039",
    "countryFullName": "Italy",
    "lng": 8.2946707,
    "lat": 45.1891236
  },
  {
    "slug": "moschea-annour-spoleto-06049-italy",
    "name": "SPOLETO   مسجد النور",
    "image1": "https://cdn.mawaqit.net/images/backend/mosque/4f81c8f7-5f77-4636-aff3-6f8d4dfd4518/mosque/1eea8e7f-7e60-650a-9844-066ed47a7584.jpg",
    "address": "Via dei vetrai Santo chiodo n 7",
    "city": "Spoleto",
    "zipcode": "06049",
    "countryFullName": "Italy",
    "lng": 12.704916000366,
    "lat": 42.748808514825
  },
  {
    "slug": "msjd-lmdyn-lqdym-jnw-genova-16123-italy",
    "name": "MOSCHEA CENTRO STORICO GENOVA",
    "image1": "https://cdn.mawaqit.net/images/backend/mosque/07a86e84-4fed-4da5-afbe-3bccfe8c0624/mosque/1eea8e80-6b03-6c36-a91a-066ed47a7584.jpg",
    "address": "VICO DEL FORNARO 3/R",
    "city": "جنوة-Genova",
    "zipcode": "16123",
    "countryFullName": "Italy",
    "lng": 8.9309819,
    "lat": 44.4100551
  },
  {
    "slug": "masjid-empoli-empoli-50053-italy",
    "name": "Masjid Empoli",
    "image1": "https://cdn.mawaqit.net/images/backend/mosque/75c7e94d-b465-4909-8394-b8188b870483/mosque/1eea8e80-7d73-6e34-8724-066ed47a7584.jpg",
    "address": "via luigi Pirandello 36",
    "city": "Empoli",
    "zipcode": "50053",
    "countryFullName": "Italy",
    "lng": 10.9410116,
    "lat": 43.7103233
  },
  {
    "slug": "msjd-lsdq-erba-22036-italy",
    "name": "مسجد الصداقة",
    "image1": "https://cdn.mawaqit.net/images/backend/mosque/65e9b828-0ec5-4c9a-a1c8-f93f8f555efb/mosque/1eea8e81-3cb8-690c-b72f-066ed47a7584.jpg",
    "address": "Via Lecco 22",
    "city": "Erba",
    "zipcode": "22036",
    "countryFullName": "Italy",
    "lng": 9.2395926,
    "lat": 45.8097053
  },
  {
    "slug": "masjid-valenza-valenza-15048-italy",
    "name": "Masjid Valenza مسجد فالينسا",
    "image1": "https://cdn.mawaqit.net/images/backend/mosque/950ce625-d0fa-4bdf-b890-d31a7a3972fe/mosque/1eea8e82-465e-6ee2-bbb8-066ed47a7584.jpg",
    "address": "Largo anna frank 3",
    "city": "Valenza",
    "zipcode": "15048",
    "countryFullName": "Italy",
    "lng": 8.6488057,
    "lat": 45.0137613
  },
  {
    "slug": "centro-culturale-bangladesi-di-piovene-r-piovene-rocchette-36013-italy",
    "name": "Centro Culturale Bangladesi di Piovene R",
    "image1": "https://cdn.mawaqit.net/images/backend/mosque/d962e86c-cee3-49a7-a4e1-27b5c500565f/mosque/1eea8e83-2d72-69a0-a0f4-066ed47a7584.jpg",
    "address": "Via roma-12",
    "city": "Piovene-Rocchette",
    "zipcode": "36013",
    "countryFullName": "Italy",
    "lng": 11.4332665,
    "lat": 45.7639084
  },
  {
    "slug": "msjd-twrtwn-tortona-15057-italy",
    "name": "مسجد طورطونا",
    "image1": "https://cdn.mawaqit.net/images/backend/mosque/203f75ca-c784-4a03-b264-a8b3046e776e/mosque/1eea8e84-0975-6b6e-98e4-066ed47a7584.jpg",
    "address": "Via Giolitti SN",
    "city": "Tortona",
    "zipcode": "15057",
    "countryFullName": "Italy",
    "lng": 8.8723757,
    "lat": 44.9042658
  },
  {
    "slug": "msjd-lslm-castelnuovo-rangone-41051-italy",
    "name": "الجمعية الثقافية السلام",
    "image1": "https://cdn.mawaqit.net/images/backend/mosque/99fc5f14-8539-419d-9398-6049e71ba7d0/mosque/1eea8e84-1762-6222-afdd-066ed47a7584.jpg",
    "address": "Via case bruciate, 8c",
    "city": "Castelnuovo-Rangone",
    "zipcode": "41051",
    "countryFullName": "Italy",
    "lng": 10.9416734,
    "lat": 44.5519512
  },
  {
    "slug": "associazione-culturale-essalam-bondeno-44122-italy",
    "name": "Associazione culturale Essalam",
    "image1": "https://cdn.mawaqit.net/images/backend/mosque/136c99c2-9aeb-4f9f-b942-73106a6d0dd6/mosque/1eea8e86-649f-613c-8711-066ed47a7584.jpg",
    "address": "Via Carlo Goldoni 48",
    "city": "Bondeno",
    "zipcode": "44122",
    "countryFullName": "Italy",
    "lng": 11.4064073,
    "lat": 44.8885984
  },
  {
    "slug": "associazione-islamica-di-jolanda-di-savo-copparo-44034-italy",
    "name": "Ass. islamica di Jolanda di Savoia",
    "image1": "https://cdn.mawaqit.net/images/backend/mosque/67f67800-ad7e-400e-8010-6ace75a6c8b9/mosque/1eea8e86-7bec-6420-a5b3-066ed47a7584.jpg",
    "address": "Via San Carlo 150",
    "city": "Copparo",
    "zipcode": "44034",
    "countryFullName": "Italy",
    "lng": 11.9214108,
    "lat": 44.9076159
  },
  {
    "slug": "moschea-ar-rahma-di-albenga-albenga-sv-17031-italy",
    "name": "Moschea Ar-rahma",
    "image1": "https://cdn.mawaqit.net/images/backend/mosque/333070b6-16fd-43ef-b6fb-9389311aba69/mosque/1eea8e87-c91b-6bdc-a6ce-066ed47a7584.jpg",
    "address": "Reg. Bottino 1/B",
    "city": "ALBENGA",
    "zipcode": "17031",
    "countryFullName": "Italy",
    "lng": 8.1923021,
    "lat": 44.0545834
  },
  {
    "slug": "msjd-lslm-san-giovanni-valdarno-52027-italy",
    "name": "مسجد السلام سان جوفاني فالدارنو",
    "image1": "https://cdn.mawaqit.net/images/backend/mosque/51cd50ce-2088-4a8a-90c2-378812b4a47f/mosque/1eea8e8b-82eb-605a-9ecb-066ed47a7584.jpg",
    "address": "Via firenze num 50 san giovanni valdarno",
    "city": "SAN GIOVANNI VALDARNO",
    "zipcode": "52027",
    "countryFullName": "Italy",
    "lng": 11.528436765075,
    "lat": 43.57077945937
  },
  {
    "slug": "moschea-di-porretta-terme-porretta-terme-bologna-40046-italy",
    "name": "Moschea di Porretta Terme",
    "image1": "https://cdn.mawaqit.net/images/backend/mosque/9112a280-2241-45ed-b079-f257451f46fc/mosque/1eea8e8c-1e4d-6dd6-8c70-066ed47a7584.jpg",
    "address": "Via Mazzini, loc. Porretta Terme 196C",
    "city": "ALTO RENO TERME - BOLOGNA",
    "zipcode": "40046",
    "countryFullName": "Italy",
    "lng": 10.9738174,
    "lat": 44.1599403
  },
  {
    "slug": "msjd-lb-alba-12051-italy",
    "name": "مسجد ألبا",
    "image1": "https://cdn.mawaqit.net/images/backend/mosque/7eecb346-3dcf-4dba-bc14-136cbb57084b/mosque/1eea8e8e-1d6e-62e2-98c7-066ed47a7584.jpg",
    "address": "8 Via Carlo Biglino",
    "city": "ALBA",
    "zipcode": "12051",
    "countryFullName": "Italy",
    "lng": 8.0313406,
    "lat": 44.703392
  },
  {
    "slug": "moschea-an-nur-monteprandone-ap-63076-italy",
    "name": "Moschea An nur",
    "image1": "https://cdn.mawaqit.net/images/backend/mosque/b48460dd-de7f-4171-bdd5-1773cdcd9a22/mosque/1eea8e91-d551-6028-9426-066ed47a7584.jpg",
    "address": "Via G. Garibaldi, 4 Centobuchi",
    "city": "MONTEPRANDONE (AP)",
    "zipcode": "63076",
    "countryFullName": "Italy",
    "lng": 13.8567502,
    "lat": 42.8933229
  },
  {
    "slug": "msjd-kbnwry-moschea-di-capannori-lucca-55100-italy",
    "name": "مسجد كبانوري - moschea di Capannori",
    "image1": "https://cdn.mawaqit.net/images/backend/mosque/58079e4d-10c9-4074-a87a-2b67a3a8f34a/mosque/1eea8e94-16ca-628c-8de7-066ed47a7584.jpg",
    "address": "via Romana 437 Capannori",
    "city": "LUCCA",
    "zipcode": "55100",
    "countryFullName": "Italy",
    "lng": 10.5239943,
    "lat": 43.844787
  },
  {
    "slug": "moschea-dar-as-salaam-pavia-pavia-27100-italy",
    "name": "Moschea Dar As-Salaam  Pavia",
    "image1": "https://cdn.mawaqit.net/images/backend/mosque/fb2edf48-d7c8-4fa0-adab-bfbfae422793/mosque/1eea8e94-dc8d-6c44-863a-066ed47a7584.jpg",
    "address": "Via San Giovannino 4",
    "city": "PAVIA",
    "zipcode": "27100",
    "countryFullName": "Italy",
    "lng": 9.1708646,
    "lat": 45.1823975
  },
  {
    "slug": "centro-culturale-islamico-carnate-carnate-20866-italy",
    "name": "CENTRO ISLAMICO مسجد الايمان",
    "image1": "https://cdn.mawaqit.net/images/backend/mosque/aed24426-5ab2-4919-b71d-2d6030671363/mosque/1eea8e95-42c9-6d46-bcce-066ed47a7584.jpg",
    "address": "Via Dante 15",
    "city": "CARNATE",
    "zipcode": "20866",
    "countryFullName": "Italy",
    "lng": 9.3727786,
    "lat": 45.6522688
  },
  {
    "slug": "associazione-dialogo-aps-vidor-31020-italy",
    "name": "ASSOCIAZIONE DIALOGO APS",
    "image1": "https://cdn.mawaqit.net/images/backend/mosque/6f762eab-0234-44ee-864b-194eb4cf8156/mosque/1eea8e96-5309-694e-a472-066ed47a7584.jpg",
    "address": "PIAZZALE CAPITELLO 5/9",
    "city": "VIDOR",
    "zipcode": "31020",
    "countryFullName": "Italy",
    "lng": 12.0450316,
    "lat": 45.8582224
  },
  {
    "slug": "msjd-mwrtr-mortara-27036-italy",
    "name": "مسجد مورطارا",
    "image1": "https://cdn.mawaqit.net/images/backend/mosque/f8bc5d76-faca-48e6-b8dd-46762ec5169d/mosque/1eea8e97-24ca-6b0e-b1c5-066ed47a7584.jpg",
    "address": "via marianini 3",
    "city": "MORTARA",
    "zipcode": "27036",
    "countryFullName": "Italy",
    "lng": 8.731469,
    "lat": 45.2490432
  },
  {
    "slug": "msjd-lfjr-mirandola-41037-italy",
    "name": "مسجد الفجر",
    "image1": "https://cdn.mawaqit.net/images/backend/mosque/464485be-6b36-4e3d-8d2c-3cce4c99f750/mosque/1eea8e98-0c97-6072-83da-066ed47a7584.jpg",
    "address": "Via delle valli 389",
    "city": "TRE GOBBI",
    "zipcode": "41037",
    "countryFullName": "Italy",
    "lng": 11.202629,
    "lat": 44.9304956
  },
  {
    "slug": "msjdflkwnk-valconca-san-clemente-san-clemente-rimini-47832-italy",
    "name": "مسجد فلكونكا",
    "image1": "https://cdn.mawaqit.net/images/backend/mosque/574f7ce0-115b-4237-b827-c3fc0c8d25e3/mosque/1eea8e98-2a2a-6e36-a010-066ed47a7584.jpg",
    "address": "VIA FAGNANO 124",
    "city": "SAN CLEMENTE RIMINI",
    "zipcode": "47832",
    "countryFullName": "Italy",
    "lng": 12.663239,
    "lat": 43.938308
  },
  {
    "slug": "ass-centro-islamico-santangelo-in-vado-santangelo-in-vado-61048-italy",
    "name": "ASS.CENTRO ISLAMICO SANT'ANGELO IN VADO",
    "image1": "https://cdn.mawaqit.net/images/backend/mosque/94212004-b353-4c1c-88f8-12c1e5f22d45/mosque/1eea8e99-a4db-6544-af8b-066ed47a7584.jpg",
    "address": "VIA MAREMMA 8",
    "city": "SANT'ANGELO IN VADO",
    "zipcode": "61048",
    "countryFullName": "Italy",
    "lng": 12.4119222,
    "lat": 43.664853
  },
  {
    "slug": "masjid-al-ittihad-venezia-30171-italy",
    "name": "MASJID AL ITTIHAD",
    "image1": "https://cdn.mawaqit.net/images/backend/mosque/67134a53-434d-481f-9199-b093fba44aff/mosque/1eea8e9b-45b2-6fde-8b13-066ed47a7584.jpg",
    "address": "Via Piave 17",
    "city": "VENEZIA",
    "zipcode": "30171",
    "countryFullName": "Italy",
    "lng": 12.2352815,
    "lat": 45.4905147
  },
  {
    "slug": "moschea-al-falah-montegiorgio-fm-63833-italy",
    "name": "moschea Al Falah",
    "image1": "https://cdn.mawaqit.net/images/backend/mosque/43b72cc1-7224-48ea-a568-a24076fbb4d8/mosque/1eea8e9d-b5da-6990-85f5-066ed47a7584.jpg",
    "address": "via ospedale Diotallevi 13",
    "city": "MONTEGIORGIO (FM)",
    "zipcode": "63833",
    "countryFullName": "Italy",
    "lng": 13.5390557,
    "lat": 43.133802
  },
  {
    "slug": "u-c-i-v-unione-comunita-islamica-valte-sondrio-23100-italy",
    "name": "U.C.I.V. Unione Comunita' Islamica Valte",
    "image1": "https://cdn.mawaqit.net/images/backend/mosque/948d729c-55c3-4dfa-8ba5-d4cef0133c83/mosque/1eea8e9f-0668-6a46-9096-066ed47a7584.jpg",
    "address": "Tremogge 21",
    "city": "SONDRIO",
    "zipcode": "23100",
    "countryFullName": "Italy",
    "lng": 9.85082,
    "lat": 46.2654872
  },
  {
    "slug": "associazione-culturale-rahma-padova-35129-italy",
    "name": "Associazione culturale rahma",
    "image1": "https://cdn.mawaqit.net/images/backend/mosque/0ea427c3-efd4-4dd9-a7d8-a894d01386fb/mosque/1eea8ea1-b169-6e20-a705-066ed47a7584.jpg",
    "address": "Via dell'ippodromo 12",
    "city": "PADOVA",
    "zipcode": "35129",
    "countryFullName": "Italy",
    "lng": 11.9267919,
    "lat": 45.4242637
  },
  {
    "slug": "associazione-culturale-la-pace-ormelle-31024-italy",
    "name": "مسجد السلام",
    "image1": "https://cdn.mawaqit.net/images/backend/mosque/1cf9c468-1d60-492a-ba85-092fa5c7e7e6/mosque/1eea8ea3-6cf2-61e6-ab00-066ed47a7584.jpg",
    "address": "via Dante Alighieri 20",
    "city": "ORMELLE",
    "zipcode": "31024",
    "countryFullName": "Italy",
    "lng": 12.4096678,
    "lat": 45.7574592
  },
  {
    "slug": "associazione-badia-polesine-badia-polesine-45021-italy",
    "name": "NAJAH",
    "image1": "https://cdn.mawaqit.net/images/backend/mosque/ea4860f1-da30-496b-854e-fc9b5515711e/mosque/1ef8eb4c-69e9-6576-9792-0671c73660c5.jpeg",
    "address": "Via Fratelli Rosselli n. 169",
    "city": "BADIA POLESINE",
    "zipcode": "45021",
    "countryFullName": "Italy",
    "lng": 11.4930528,
    "lat": 45.092988
  },
  {
    "slug": "associazione-culturale-al-madina-abano-terme-35031-italy",
    "name": "Associazione culturale al madina",
    "image1": "https://cdn.mawaqit.net/images/backend/mosque/966f2284-2df1-408c-8261-30baa7997b85/mosque/1eea8ea7-2a0b-6e5a-bcc9-066ed47a7584.jpg",
    "address": "Piazza mercato 16",
    "city": "ABANO TERME",
    "zipcode": "35031",
    "countryFullName": "Italy",
    "lng": 11.7870637,
    "lat": 45.3603615
  },
  {
    "slug": "centro-culturale-al-ghufran-villafranca-di-bagnone-54028-italy",
    "name": "Centro culturale Al Ghufran مسجد الغفران",
    "image1": "https://cdn.mawaqit.net/images/backend/mosque/33036e6b-f722-41c2-a8e9-3965b414aa1b/mosque/1eea8ea7-8d95-6ac0-9645-066ed47a7584.jpg",
    "address": "Via Roma 28",
    "city": "VILLAFRANCA DI BAGNONE",
    "zipcode": "54028",
    "countryFullName": "Italy",
    "lng": 10.8474267,
    "lat": 45.3552546
  },
  {
    "slug": "msjd-lkhyr-camposanto-41031-italy",
    "name": "مسجد الخير",
    "image1": "https://cdn.mawaqit.net/images/backend/mosque/555f9507-c7bc-4a61-88fd-f5f55c78b0b5/mosque/1eea8ea8-94d9-64b6-bd3a-066ed47a7584.jpg",
    "address": "Via giannone n21",
    "city": "CAMPOSANTO",
    "zipcode": "41031",
    "countryFullName": "Italy",
    "lng": 11.1369504,
    "lat": 44.7902218
  },
  {
    "slug": "msjd-lsn-masjid-alsonnah-monsummano-terme-51015-italy",
    "name": "Masjid alsonnah Monsummano",
    "image1": "https://cdn.mawaqit.net/images/backend/mosque/2eab6bcf-b773-4c19-a902-6e753aad0061/mosque/1eea8ead-9437-6bac-a806-066ed47a7584.jpg",
    "address": "Via del catano 272l",
    "city": "MONSUMMANO TERME",
    "zipcode": "51015",
    "countryFullName": "Italy",
    "lng": 10.809013,
    "lat": 43.866116
  },
  {
    "slug": "moschea-dellisolotto-firenze-50124-italy",
    "name": "moschea dell'isolotto",
    "image1": "https://cdn.mawaqit.net/images/backend/mosque/9fb2995d-1650-4585-be57-a7a49515fca3/mosque/1eea8ead-f4a1-6c0e-bbcd-066ed47a7584.jpg",
    "address": "via della casella 1",
    "city": "FIRENZE",
    "zipcode": "50124",
    "countryFullName": "Italy",
    "lng": 11.1921976,
    "lat": 43.7686816
  },
  {
    "slug": "lmrkz-ltqfy-lslmy-krmskw-crema-26013-italy",
    "name": "المركز الثقافي الإسلامي كريماسكو",
    "image1": "https://cdn.mawaqit.net/images/backend/mosque/8a7b2ca4-656b-4f82-8431-bc6fb97b7c75/mosque/1eea8eae-4423-6264-91d5-066ed47a7584.jpg",
    "address": "Via Carlo Rossignoli 37",
    "city": "CREMA",
    "zipcode": "26013",
    "countryFullName": "Italy",
    "lng": 9.6537808,
    "lat": 45.3587064
  },
  {
    "slug": "centro-culturale-islamico-dogaro-san-felice-sul-panaro-41038-italy",
    "name": "Centro Culturale Islamico Dogaro",
    "image1": "https://cdn.mawaqit.net/images/backend/mosque/234f92c9-14cc-4d90-a461-8010feee3d47/mosque/1eea8eb0-0a30-6fd2-84a6-066ed47a7584.jpg",
    "address": "Via dogaro 4097",
    "city": "SAN FELICE SUL PANARO",
    "zipcode": "41038",
    "countryFullName": "Italy",
    "lng": 11.1859844,
    "lat": 44.8081764
  },
  {
    "slug": "msjd-lkhw-poggio-renatico-44028-italy",
    "name": "مسجد الأخوة",
    "image1": "https://cdn.mawaqit.net/images/backend/mosque/706e5782-c887-4995-8400-600a5f7374aa/mosque/1eea8eb0-f117-6d10-ae72-066ed47a7584.jpg",
    "address": "Via uccellino 118",
    "city": "POGGIO RENATICO",
    "zipcode": "44028",
    "countryFullName": "Italy",
    "lng": 11.497186,
    "lat": 44.7672707
  },
  {
    "slug": "moschea-la-citta-msjd-lmdyn-lecco-23900-italy",
    "name": "MOSCHEA LA CITTÀ  - مسجد المدينة",
    "image1": "https://cdn.mawaqit.net/images/backend/mosque/79134bec-e841-4e59-9ba6-04ef8107c569/mosque/1eea8eb4-b470-6fb6-893a-066ed47a7584.jpg",
    "address": "Corso Promessi Sposi, 23u",
    "city": "LECCO",
    "zipcode": "23900",
    "countryFullName": "Italy",
    "lng": 9.4042794406414,
    "lat": 45.856707537228
  },
  {
    "slug": "associazione-culturale-la-conversione-arzignano-36071-italy",
    "name": "Associazione culturale is.La conversione",
    "image1": "https://cdn.mawaqit.net/images/backend/mosque/243d279a-a6a9-442e-be0c-547afa89b425/mosque/1eea8ebb-46ee-6946-90cf-066ed47a7584.jpg",
    "address": "Via Antonio pellizzari 47",
    "city": "ARZIGNANO",
    "zipcode": "36071",
    "countryFullName": "Italy",
    "lng": 11.3409383,
    "lat": 45.518562
  },
  {
    "slug": "mosc-di-vigevano-msjd-lmdyn-fydjyfnw-vigevano-27029-italy",
    "name": "مسجد مدينة فيدجيفانو",
    "image1": "https://cdn.mawaqit.net/images/backend/mosque/ad868536-59b8-4079-ba20-e23afb4598b9/mosque/1eea8ebf-16a4-6070-9b0c-066ed47a7584.jpg",
    "address": "Via Rovereto n5",
    "city": "VIGEVANO",
    "zipcode": "27029",
    "countryFullName": "Italy",
    "lng": 8.8866,
    "lat": 45.289
  },
  {
    "slug": "moschea-mohammed-vi-di-torino-torino-10127-italy",
    "name": "Moschea Mohammed VI di Torino",
    "image1": "https://cdn.mawaqit.net/images/backend/mosque/fd46a87c-a1ab-4fc5-b0c6-c6f9eba30d3a/mosque/1eea8ebf-dea0-61a0-af97-066ed47a7584.jpg",
    "address": "Via Genova 268",
    "city": "TORINO",
    "zipcode": "10127",
    "countryFullName": "Italy",
    "lng": 7.6629272,
    "lat": 45.0166992
  },
  {
    "slug": "ass-culturale-islamica-la-misericordia-verona-37015-italy",
    "name": "مسجد الرحمة  دوميليارا",
    "image1": "https://cdn.mawaqit.net/images/backend/mosque/55f4f552-214c-4963-867a-1491207237f2/mosque/1eea8ebf-eb99-6fa0-b0a8-066ed47a7584.jpg",
    "address": "via armando Diaz 4 Sant'Ambrogio di Valpolicella",
    "city": "VERONA",
    "zipcode": "37015",
    "countryFullName": "Italy",
    "lng": 10.8171028,
    "lat": 45.5243567
  },
  {
    "slug": "moschea-annur-bologna-40138-italy",
    "name": "MOSCHEA ANNUR",
    "image1": "https://cdn.mawaqit.net/images/backend/mosque/c9eb737e-3ebe-45c4-b5d2-056b4f9870cf/mosque/1eea8ec0-71a8-66c8-987e-066ed47a7584.jpg",
    "address": "VIA PALLAVICINI 13",
    "city": "BOLOGNA",
    "zipcode": "40138",
    "countryFullName": "Italy",
    "lng": 11.4024705,
    "lat": 44.4905805
  },
  {
    "slug": "msjd-bwdjwrwskw-poggio-rusco-46025-italy",
    "name": "مسجد بودجوروسكو",
    "image1": "https://cdn.mawaqit.net/images/backend/mosque/cc0e9cae-279a-48a4-8c8d-853758031693/mosque/1eea8ec2-3246-6d7a-bc49-066ed47a7584.jpg",
    "address": "via Marconi 110",
    "city": "POGGIO RUSCO",
    "zipcode": "46025",
    "countryFullName": "Italy",
    "lng": 11.13819,
    "lat": 44.97608
  },
  {
    "slug": "churga-aziz-renate-20383-italy",
    "name": "جمعية السلام ريناطي",
    "image1": "https://cdn.mawaqit.net/images/backend/mosque/5f1d6e1a-1545-405f-8c9d-cf0a5a8b2eb3/mosque/1eea8ec4-77f2-628c-bcf6-066ed47a7584.jpg",
    "address": "Via Roma 16",
    "city": "RENATE",
    "zipcode": "20383",
    "countryFullName": "Italy",
    "lng": 8.9197313,
    "lat": 39.4246487
  },
  {
    "slug": "associazione-nouva-alba-brescia-25080-italy",
    "name": "Nuova alba",
    "image1": "https://cdn.mawaqit.net/images/backend/mosque/7ee72987-9bd1-4b9f-804f-b7bfe359a7cf/mosque/1eea8ec4-f057-6da8-86ad-066ed47a7584.jpg",
    "address": "Via abate 4, nouvolento",
    "city": "BRESCIA",
    "zipcode": "25080",
    "countryFullName": "Italy",
    "lng": 10.392657,
    "lat": 45.5463409
  },
  {
    "slug": "masjid-ltaqwa-santilario-denza-42049-italy",
    "name": "مسجد التقوى & Sant’Ilario D’enza",
    "image1": "https://cdn.mawaqit.net/images/backend/mosque/cd93d76e-bfaf-4e87-acc2-30583b07cc56/mosque/1eea8ec5-cf87-61c2-960c-066ed47a7584.jpg",
    "address": "Via indipendenza 2f/2",
    "city": "SANT'ILARIO D'ENZA",
    "zipcode": "42049",
    "countryFullName": "Italy",
    "lng": 10.445553,
    "lat": 44.760402
  },
  {
    "slug": "masjid-attaqua-guastalla-42016-italy-1",
    "name": "Masjid attaqua",
    "image1": "https://cdn.mawaqit.net/images/backend/mosque/38e50de0-b819-4685-be5a-822a7d4b1892/mosque/1eea8ec8-c7a0-6b04-8138-066ed47a7584.jpg",
    "address": "Via Roncaglio Superiore, 31",
    "city": "GUASTALLA",
    "zipcode": "42016",
    "countryFullName": "Italy",
    "lng": 10.6505542,
    "lat": 44.893932
  },
  {
    "slug": "al-tawba-le-lecce-73100-italy",
    "name": "MASJID AL-BARAKA",
    "image1": "https://cdn.mawaqit.net/images/backend/mosque/da5cb136-4a05-422a-acc1-2d97f92a1997/mosque/1eea8eca-fd9f-6cd0-a35a-066ed47a7584.jpg",
    "address": "VIA FORMOSO LUBELLO 9",
    "city": "LE - LECCE",
    "zipcode": "73100",
    "countryFullName": "Italy",
    "lng": 18.1753297,
    "lat": 40.3616402
  },
  {
    "slug": "al-nour-ente-di-culto-villa-bartolomea-vr-37049-italy",
    "name": "AL NOUR",
    "image1": "https://cdn.mawaqit.net/images/backend/mosque/6e054dba-595f-4e85-916f-4bff182860fe/mosque/1eea8ecb-8832-63c0-8694-066ed47a7584.jpg",
    "address": "VIA L.A.BELLINI 19",
    "city": "VILLA BARTOLOMEA VR",
    "zipcode": "37049",
    "countryFullName": "Italy",
    "lng": 11.351022,
    "lat": 45.1583298
  },
  {
    "slug": "msjd-dry-adria-45011-italy",
    "name": "جمعية الإخوة-مسجد أدريا",
    "image1": "https://cdn.mawaqit.net/images/backend/mosque/87224013-5a10-441f-9bf6-66c2d0b0a174/mosque/1eea8ed1-63f2-6270-9d60-066ed47a7584.jpg",
    "address": "Viale risorgimento 35",
    "city": "ADRIA",
    "zipcode": "45011",
    "countryFullName": "Italy",
    "lng": 12.0473312,
    "lat": 45.0583038
  },
  {
    "slug": "centro-culturale-essalam-soragna-43019-italy",
    "name": "CENTRO ESSALAM",
    "image1": "https://cdn.mawaqit.net/images/backend/mosque/fcfc42da-4b45-432b-8b88-5e8000e6bfa4/mosque/1eea8ed5-f37b-6b7c-a6f1-066ed47a7584.jpg",
    "address": "VICOLO FILZI 15/A",
    "city": "SORAGNA",
    "zipcode": "43019",
    "countryFullName": "Italy",
    "lng": 10.1235773,
    "lat": 44.9288802
  },
  {
    "slug": "istituto-culturale-averroe-mozzecane-vr-37060-italy",
    "name": "c.i.averroe",
    "image1": "https://cdn.mawaqit.net/images/backend/mosque/6d86dfcb-85a6-4da9-a29d-ae02521c00bb/mosque/1eea8ed8-03e4-6ae8-a805-066ed47a7584.jpg",
    "address": "Via dell'artigianato 15",
    "city": "MOZZECANE VR",
    "zipcode": "37060",
    "countryFullName": "Italy",
    "lng": 10.82739918159,
    "lat": 45.314788636454
  },
  {
    "slug": "moschea-an-nur-castel-bolognese-48014-italy",
    "name": "Moschea An-Nur",
    "image1": "https://cdn.mawaqit.net/images/backend/mosque/e4d544a4-2c75-4dfa-9f2a-00e199661ae3/mosque/1eea8ed8-d4c1-64ae-82a7-066ed47a7584.jpg",
    "address": "Via Serraglio, 30, 48014 Castel Bolognese RA, Italie",
    "city": "CASTEL BOLOGNESE",
    "zipcode": "48014",
    "countryFullName": "Italy",
    "lng": 11.8061835,
    "lat": 44.3233113
  },
  {
    "slug": "msjd-gavardo-gavardo-25085-italy",
    "name": "مسجد gavardo",
    "image1": "https://cdn.mawaqit.net/images/backend/mosque/b9a3096d-9943-4693-b8bc-5b56ca234aa0/mosque/1eea8edb-a219-61ca-9044-066ed47a7584.jpg",
    "address": "Via martiri della libertà 19",
    "city": "GAVARDO",
    "zipcode": "25085",
    "countryFullName": "Italy",
    "lng": 10.4346326,
    "lat": 45.5759089
  },
  {
    "slug": "moschea-pendimi-bologna-40127-italy",
    "name": "Moschea Pendimi",
    "image1": "https://cdn.mawaqit.net/images/backend/mosque/214bc4da-f32e-4f36-a6ba-5d5d9ab0b4bc/mosque/1eea8edb-f8c6-6cca-b6d5-066ed47a7584.jpg",
    "address": "Via Ranzani 13/5F",
    "city": "BOLOGNA",
    "zipcode": "40127",
    "countryFullName": "Italy",
    "lng": 11.35838,
    "lat": 44.5005614
  },
  {
    "slug": "masjid-al-ghufran-lecce-lecce-73100-italy",
    "name": "Masjid Al Ghufran ~~ مسجد الغفران",
    "image1": "https://cdn.mawaqit.net/images/backend/mosque/2b9cf38c-e506-42ee-af7f-e4770cea1617/mosque/1eea8ee3-73e4-6554-a6fa-066ed47a7584.jpg",
    "address": "Via Livio tempesta 6. Lecce",
    "city": "LECCE",
    "zipcode": "73100",
    "countryFullName": "Italy",
    "lng": 18.1611576,
    "lat": 40.3539726
  },
  {
    "slug": "associazione-culturale-sportiva-issalam-arsiero-36011-italy-1",
    "name": "Associazione culturale sportiva Issalam",
    "image1": "https://cdn.mawaqit.net/images/backend/mosque/5e362df4-f81e-40d5-ad1f-ec0dd196499e/mosque/1eea8ee3-9f1b-6650-b0ee-066ed47a7584.jpg",
    "address": "Via castrente n15/a",
    "city": "ARSIERO",
    "zipcode": "36011",
    "countryFullName": "Italy",
    "lng": 11.3598792,
    "lat": 45.8053007
  },
  {
    "slug": "fontanellato-mrkz-lsdq-fontanellato-43012-italy",
    "name": "FONTANELLATO- مركز الصدق",
    "image1": "https://cdn.mawaqit.net/images/backend/mosque/d8cf60d2-2bc1-4a53-9856-701415e72550/mosque/1eea8ee3-d159-6022-943b-066ed47a7584.jpg",
    "address": "Via ghiara sabbioni 18",
    "city": "FONTANELLATO",
    "zipcode": "43012",
    "countryFullName": "Italy",
    "lng": 10.190508013758,
    "lat": 44.877543536045
  },
  {
    "slug": "masjid-assalam-msjd-lslm-villanova-dasti-14019-italy",
    "name": "Villanova d'Asti مسجد السلام",
    "image1": "https://cdn.mawaqit.net/images/backend/mosque/07e0c925-749f-4453-95b9-485b1bb3c545/mosque/1eea8ee5-2052-6e66-9e88-066ed47a7584.jpg",
    "address": "Via Roma 41",
    "city": "VILLANOVA D'ASTI",
    "zipcode": "14019",
    "countryFullName": "Italy",
    "lng": 7.939297,
    "lat": 44.94212
  },
  {
    "slug": "moschea-di-budrio-budrio-40054-italy",
    "name": "Centro Culturale El Amal APS",
    "image1": "https://cdn.mawaqit.net/images/backend/mosque/c8aac5c2-23ba-41b1-a932-b1527ddb214a/mosque/1eea8ee6-5609-6766-8e07-066ed47a7584.jpg",
    "address": "Via Cesare Battisti 5",
    "city": "BUDRIO",
    "zipcode": "40054",
    "countryFullName": "Italy",
    "lng": 11.523625,
    "lat": 44.5334753
  },
  {
    "slug": "moschea-di-pontassieve-pontassieve-50065-italy",
    "name": "moschea di Pontassieve",
    "image1": "https://cdn.mawaqit.net/images/backend/mosque/e1283172-1294-4d12-b97d-dddb2bba45c7/mosque/1eea8ee7-3134-6aca-af5e-066ed47a7584.jpg",
    "address": "via Palagi 16 D/E/F",
    "city": "PONTASSIEVE",
    "zipcode": "50065",
    "countryFullName": "Italy",
    "lng": 11.4463139,
    "lat": 43.780914
  },
  {
    "slug": "centro-culturale-islamico-milano-20141-italy-1",
    "name": "Bangladesh Islamic Center",
    "image1": "https://cdn.mawaqit.net/images/backend/mosque/74cfa2e0-881c-4efc-95b5-4f6592fad5aa/mosque/1eea8ee7-6a53-6aa4-b805-066ed47a7584.jpg",
    "address": "Via Sibari 11",
    "city": "MILANO",
    "zipcode": "20141",
    "countryFullName": "Italy",
    "lng": 9.1996893707521,
    "lat": 45.432714067623
  },
  {
    "slug": "aciqa-venezia-30020-italy",
    "name": "ACIQA Quarto d'altino",
    "image1": "https://cdn.mawaqit.net/images/backend/mosque/5085d058-2dca-4647-ba73-70e5cfbc3be0/mosque/1eea8ee8-04ba-6fde-9b75-066ed47a7584.jpg",
    "address": "Via Pascoli 26/b/3 quarto d'altino",
    "city": "VENEZIA",
    "zipcode": "30020",
    "countryFullName": "Italy",
    "lng": 12.3528346,
    "lat": 45.5762858
  },
  {
    "slug": "medicina-primo-binario-aps-medicina-40059-italy",
    "name": "MEDICINA Masjid",
    "image1": "https://cdn.mawaqit.net/images/backend/mosque/455792ec-4bce-4960-b8e6-cbfa3946c22b/mosque/1eea9376-1224-6548-8fbc-0edc40567d2a.jpg",
    "address": "Via dell' artigianato 189b",
    "city": "MEDICINA",
    "zipcode": "40059",
    "countryFullName": "Italy",
    "lng": 11.6306166,
    "lat": 44.4823774
  },
  {
    "slug": "msjd-lwfq-associazione-wifaq-settala-20049-italy",
    "name": "مسجد الوفاق Associazione al wifaq",
    "image1": "https://cdn.mawaqit.net/images/backend/mosque/f6644abe-3ddf-444e-a881-4096c457fcdf/mosque/1eeaca7f-ab62-6ada-83fc-0a37e98ce7aa.jpg",
    "address": "Settala km10",
    "city": "SETTALA",
    "zipcode": "20049",
    "countryFullName": "Italy",
    "lng": 9.39013,
    "lat": 45.42888
  },
  {
    "slug": "lmrkz-lthqfy-lslmy-kwy-trmy-acqui-terme-15011-italy-1",
    "name": "المركز الثقافي الإسلامي أكوي طرمي",
    "image1": "https://cdn.mawaqit.net/images/backend/mosque/064b8f66-aac7-4e16-acf1-ce4354107901/mosque/1eeaf0ee-6e99-63fc-ba87-06acfcd1c88a.jpg",
    "address": "133, via nizza",
    "city": "ACQUI TERME",
    "zipcode": "15011",
    "countryFullName": "Italy",
    "lng": 8.4718358,
    "lat": 44.6786088
  },
  {
    "slug": "associazione-culturale-al-noor-brescia-25125-italy",
    "name": "ASSOCIAZIONE CULTURALE AL-NOOR",
    "image1": "https://cdn.mawaqit.net/images/backend/mosque/4677db7e-feae-41ac-bb21-df1f8a07ce70/mosque/1eeb3722-5777-629e-a72a-06acfcd1c88a.png",
    "address": "Via Fratelli Bonardi, 9 25126 Brescia (BS)",
    "city": "BRESCIA",
    "zipcode": "25125",
    "countryFullName": "Italy",
    "lng": 10.1914162,
    "lat": 45.5414739
  },
  {
    "slug": "20540",
    "name": "Moschea Gallarate",
    "image1": "https://cdn.mawaqit.net/images/backend/mosque/b8d31a86-2068-4178-84bf-3b0936d14f87/mosque/1efe3640-a70e-68d6-85bf-0e61b0058d45.jpeg",
    "address": "Via Varese, 84 b, VA",
    "city": "GALLARATE",
    "zipcode": "21013",
    "countryFullName": "Italy",
    "lng": 8.8018377,
    "lat": 45.684792
  },
  {
    "slug": "msjd-lslm-la-pace-isernia-86170-italy",
    "name": "مسجد السلام LA PACE",
    "image1": "https://cdn.mawaqit.net/images/backend/mosque/3a06aa62-cde4-46f6-ad84-ff209b4e3ace/mosque/1eeb6c0c-20d1-6ae0-82d0-06acfcd1c88a.jpeg",
    "address": "CORSO RISORGIMENTO 218B",
    "city": "ISERNIA",
    "zipcode": "86170",
    "countryFullName": "Italy",
    "lng": 14.2426501,
    "lat": 41.5972705
  },
  {
    "slug": "moschea-omar-alfaruk-varese-21100-italy",
    "name": "Moschea Omar Alfaruk",
    "image1": "https://cdn.mawaqit.net/images/backend/mosque/1e6014d2-1608-4f78-ad0b-656f21561575/mosque/1eeb6cac-2b9f-6bb6-8edb-0ede686d7942.jpg",
    "address": "Via Giuseppe Giusti, 14",
    "city": "VARESE",
    "zipcode": "21100",
    "countryFullName": "Italy",
    "lng": 8.8438208,
    "lat": 45.8022405
  },
  {
    "slug": "lmrkz-lthqfy-lbdr-tryfylyw-treviglio-24047-italy-1",
    "name": "المركز الثقافي البدر تريفيليو",
    "image1": "https://cdn.mawaqit.net/images/backend/mosque/60a99ef5-22c9-45ab-ba3d-81f581dd3c7f/mosque/1eeb78c1-4f0d-6028-9302-0aedfd0440f0.jpeg",
    "address": "Viale Vittorio Veneto, 161",
    "city": "TREVIGLIO",
    "zipcode": "24047",
    "countryFullName": "Italy",
    "lng": 9.5865355,
    "lat": 45.5157253
  },
  {
    "slug": "lflh-bagnoli-di-sopra-35023-italy",
    "name": "جمعية الفلاح",
    "image1": "https://cdn.mawaqit.net/images/backend/mosque/2e4fe325-ab37-4ef6-a782-3c9aa8ccdd77/mosque/1eebbc42-f64b-6bd6-8ad5-0aedfd0440f0.jpg",
    "address": "VIA CAIROLI  24",
    "city": "BAGNOLI DI SOPRA",
    "zipcode": "35023",
    "countryFullName": "Italy",
    "lng": 11.924327,
    "lat": 45.184163
  },
  {
    "slug": "msjd-lslm-monte-vidon-corrado-63836-italy-1",
    "name": "مسجد السلام",
    "image1": "https://cdn.mawaqit.net/images/backend/mosque/47f1be27-02f9-4ec2-a4d6-743c5179ef7a/mosque/1eebdd49-cfe1-6cc0-bfc5-0ede686d7942.jpg",
    "address": "Fiori fantastici,6",
    "city": "MONTE VIDON CORRADO",
    "zipcode": "63836",
    "countryFullName": "Italy",
    "lng": 13.4867849,
    "lat": 43.1213627
  },
  {
    "slug": "associazione-culturale-darul-salam-malo-36034-italy",
    "name": "ASSOCIAZIONE CULTURALE DARUL SALAM",
    "image1": "https://cdn.mawaqit.net/images/backend/mosque/cd4e6a6e-31bf-4df0-bb24-ab620e7c1262/mosque/1eebe09f-c9d6-6d40-9e78-0aedfd0440f0.jpg",
    "address": "VIA LEONARDO DA VINCI 47",
    "city": "MALO",
    "zipcode": "36034",
    "countryFullName": "Italy",
    "lng": 11.4223661,
    "lat": 45.6489818
  },
  {
    "slug": "msjd-lslm-alfonsine-48011-italy",
    "name": "مسجد السلام",
    "image1": "https://cdn.mawaqit.net/images/backend/mosque/7fefb801-f41c-44a9-8d38-d950efcc65e0/mosque/1eec46ea-2ed3-69a4-b32f-06acfcd1c88a.jpeg",
    "address": "via mario angeloni 4",
    "city": "ALFONSINE",
    "zipcode": "48011",
    "countryFullName": "Italy",
    "lng": 12.0419652,
    "lat": 44.5036423
  },
  {
    "slug": "moschea-takwah-modena-modena-41124-italy",
    "name": "Moschea  \"TAKWAH\"",
    "image1": "https://cdn.mawaqit.net/images/backend/mosque/e5c8eca6-6c87-4166-9cc8-5daba772309e/mosque/1eec600e-e042-6ec8-bd97-0ede686d7942.jpeg",
    "address": "VIA ALASSIO 228",
    "city": "MODENA",
    "zipcode": "41124",
    "countryFullName": "Italy",
    "lng": 10.9359262,
    "lat": 44.6230079
  },
  {
    "slug": "moschea-assalam-vercelli-13100-italy",
    "name": "Moschea Assalam - مسجد السلام",
    "image1": "https://cdn.mawaqit.net/images/backend/mosque/53d2c812-cd98-4c68-8da9-e519d4a00603/mosque/1eec8eae-132a-6f66-874c-0a7eba2dd6b3.jpg",
    "address": "Corso Papa Giovanni Paolo II 34",
    "city": "VERCELLI",
    "zipcode": "13100",
    "countryFullName": "Italy",
    "lng": 8.4374629,
    "lat": 45.3131543
  },
  {
    "slug": "centro-culturale-islamico-fiorenzuola-fiorenzuola-darda-29017-italy",
    "name": "Centro culturale islamico Fiorenzuola",
    "image1": "https://cdn.mawaqit.net/images/backend/mosque/78fa0afd-ff33-42bd-8402-8cd1b8eb5d4a/mosque/1eecab7b-0316-638e-be94-06acfcd1c88a.jpg",
    "address": "Via Roveda ,2",
    "city": "FIORENZUOLA D'ARDA",
    "zipcode": "29017",
    "countryFullName": "Italy",
    "lng": 9.932512,
    "lat": 44.9175649
  },
  {
    "slug": "d-lkhyr-centro-culturale-islamico-genova-16162-italy",
    "name": "دعاة الخير Centro Culturale Islamico",
    "image1": "https://cdn.mawaqit.net/images/backend/mosque/7f493011-b27d-4401-84d5-38a64879f292/mosque/1eeccf6c-c41e-6530-b864-0ede686d7942.jpg",
    "address": "Via Costantino Reta, 4A",
    "city": "GENOVA",
    "zipcode": "16162",
    "countryFullName": "Italy",
    "lng": 8.898128,
    "lat": 44.4549488
  },
  {
    "slug": "moschea-di-castelnovo-di-sotto-castelnovo-di-sotto-42024-italy",
    "name": "MOSCHEA DI CASTELNOVO DI SOTTO",
    "image1": "https://cdn.mawaqit.net/images/backend/mosque/697e2bdd-774a-48f0-8cb1-54384cf68415/mosque/1eecb676-7f07-6cc6-85f3-0a7eba2dd6b3.jpeg",
    "address": "VIA PRATO BOVINO,111",
    "city": "CASTELNOVO DI SOTTO",
    "zipcode": "42024",
    "countryFullName": "Italy",
    "lng": 10.5773613,
    "lat": 44.832813
  },
  {
    "slug": "masjid-marchirolo-msjd-mrkrwlw-marchirolo-21030-italy",
    "name": "MASJID MARCHIROLO مسجد ماركرولو",
    "image1": "https://cdn.mawaqit.net/images/backend/mosque/9a840e1b-95f9-45b9-925f-73a5052f6225/mosque/1eece691-b6a4-631e-812e-06acfcd1c88a.jpeg",
    "address": "via valleggio 16",
    "city": "MARCHIROLO",
    "zipcode": "21030",
    "countryFullName": "Italy",
    "lng": 8.8322489,
    "lat": 45.950989
  },
  {
    "slug": "msjd-ysh-milano-20148-italy",
    "name": "مسجد عائشة",
    "image1": "https://cdn.mawaqit.net/images/backend/mosque/70742394-07d3-4275-94ad-9bfd4f8827aa/mosque/1eed1c98-c261-6ebc-a92e-0a7eba2dd6b3.jpeg",
    "address": "Via daniele ricciarelli 18",
    "city": "MILANO",
    "zipcode": "20148",
    "countryFullName": "Italy",
    "lng": 9.140214,
    "lat": 45.4708622
  },
  {
    "slug": "moschea-di-maniago-maniago-33085-italy-1",
    "name": "Moschea di Maniago",
    "image1": "https://cdn.mawaqit.net/images/backend/mosque/a4a7890c-9013-4cb5-9a04-4b8d44a652c3/mosque/1eed33c6-6516-63bc-80f9-0a7eba2dd6b3.jpeg",
    "address": "Via Arba 6",
    "city": "MANIAGO",
    "zipcode": "33085",
    "countryFullName": "Italy",
    "lng": 12.7125741,
    "lat": 46.1654351
  },
  {
    "slug": "associazione-most-il-ponte-asolo-31011-italy",
    "name": "Associazione MOST Il ponte",
    "image1": "https://cdn.mawaqit.net/images/backend/mosque/ed2713ee-9a24-4150-ada3-b1e283bb3d5c/mosque/1eed3d0a-5f19-6246-9a99-06acfcd1c88a.jpg",
    "address": "Via fermi 55",
    "city": "ASOLO",
    "zipcode": "31011",
    "countryFullName": "Italy",
    "lng": 11.9094191,
    "lat": 45.7807366
  },
  {
    "slug": "xhamia-shiptare-assal-genoa-16151-italy",
    "name": "Centro Moschea ASSAL",
    "image1": "https://cdn.mawaqit.net/images/backend/mosque/151d6205-7f09-4fc9-a982-87be57987f91/mosque/1eed4d45-3f2e-6260-83f0-06acfcd1c88a.jpeg",
    "address": "Via del Campasso 18r",
    "city": "GENOA",
    "zipcode": "16151",
    "countryFullName": "Italy",
    "lng": 8.8895582,
    "lat": 44.4204847
  },
  {
    "slug": "centro-culturale-islamico-fabriano-fabriano-60044-italy",
    "name": "Centro Culturale Islamico Fabriano",
    "image1": "https://cdn.mawaqit.net/images/backend/mosque/fe4a6878-ed0c-4a76-be2a-679cb64cb40b/mosque/1eed658b-ce76-6eaa-8d67-063a15b2a59f.jpeg",
    "address": "Via Bruno Buozzi 46",
    "city": "FABRIANO",
    "zipcode": "60044",
    "countryFullName": "Italy",
    "lng": 12.9213044,
    "lat": 43.3503543
  },
  {
    "slug": "moschea-di-rahman-magenta-20012-italy",
    "name": "Centro Culturale Islamico Magenta",
    "image1": "https://cdn.mawaqit.net/images/backend/mosque/5563fc41-31c8-4eb1-936f-db21310b8791/mosque/1eed8e6b-5b3b-6144-96be-06acfcd1c88a.jpg",
    "address": "Via Vittorio Bachelet, 12",
    "city": "MAGENTA",
    "zipcode": "20012",
    "countryFullName": "Italy",
    "lng": 8.8905394,
    "lat": 45.454611
  },
  {
    "slug": "masjid-al-hoda-costa-masnaga-23845-italy",
    "name": "Masjid Al Hoda مسجد الهدى",
    "image1": "https://cdn.mawaqit.net/images/backend/mosque/4123d025-ca89-40e3-af8d-1fa62913da10/mosque/1eed9170-01b5-6bbc-b994-0a7eba2dd6b3.jpg",
    "address": "Via Cadorna 8",
    "city": "COSTA MASNAGA",
    "zipcode": "23845",
    "countryFullName": "Italy",
    "lng": 9.2813173,
    "lat": 45.765889
  },
  {
    "slug": "elassad-youssef-udine-33100-italy",
    "name": "مسجد السلام",
    "image1": "https://cdn.mawaqit.net/images/backend/mosque/3df6f86f-b417-4fb9-9688-754c4c2b4367/mosque/1eed9935-5084-6f14-a88c-0a7eba2dd6b3.jpg",
    "address": "Via San Rocco,185",
    "city": "UDINE",
    "zipcode": "33100",
    "countryFullName": "Italy",
    "lng": 13.2172246,
    "lat": 46.0543792
  },
  {
    "slug": "attawhid-crevacuore-bi-13864-italy",
    "name": "ATTAWHID",
    "image1": "https://cdn.mawaqit.net/images/backend/mosque/71169e89-4af6-498d-8bd3-9b8ca2930dc8/mosque/1eeda03b-6582-66f2-ab02-0ede686d7942.jpeg",
    "address": "1 Via Circonvallazione",
    "city": "CREVACUORE BI",
    "zipcode": "13864",
    "countryFullName": "Italy",
    "lng": 8.2480867,
    "lat": 45.6846093
  },
  {
    "slug": "masjid-al-ihtizaam-chiampo-36072-italy",
    "name": "MASJID AL-IHTIZAAM",
    "image1": "https://cdn.mawaqit.net/images/backend/mosque/daad6774-5edc-4a72-8fad-525d5a370c92/mosque/1eeda23f-f609-6f6c-8cf2-0ede686d7942.jpeg",
    "address": "VIA BRUNO DAL MASO  57/B",
    "city": "CHIAMPO",
    "zipcode": "36072",
    "countryFullName": "Italy",
    "lng": 11.2838642,
    "lat": 45.5428931
  },
  {
    "slug": "msjd-lnwr-cannara-06033-italy",
    "name": "مسجد النور",
    "image1": "https://cdn.mawaqit.net/images/backend/mosque/9bb7a3a6-82d1-4cbd-81e0-b18efc6b4c04/mosque/1eedb0f9-c6c8-6618-8f17-0a70dbd58def.jpg",
    "address": "Via Santa Elisabetta Snc",
    "city": "CANNARA",
    "zipcode": "06033",
    "countryFullName": "Italy",
    "lng": 12.5777916,
    "lat": 42.998878
  },
  {
    "slug": "centro-culturale-assalam-la-spezia-19122-italy",
    "name": "Centro Culturale Assalam مسجد السلام",
    "image1": "https://cdn.mawaqit.net/images/backend/mosque/314e4cae-1057-4b7e-a21c-79ccb857b51c/mosque/1eedd9f1-26fa-60c0-8bb8-06acfcd1c88a.jpg",
    "address": "VIA AGOSTINO OLDOINI 4",
    "city": "LA SPEZIA",
    "zipcode": "19122",
    "countryFullName": "Italy",
    "lng": 9.8094076,
    "lat": 44.1130421
  },
  {
    "slug": "centro-culturale-islamico-di-san-teodoro-san-teodoro-07052-italy",
    "name": "مسجد الهدى - Centro Islamico Al-Huda",
    "image1": "https://cdn.mawaqit.net/images/backend/mosque/7257d559-7d1a-4b8a-8fcd-c9e0f00443b0/mosque/1eede0d9-5ab5-68b2-9d49-0a7eba2dd6b3.jpeg",
    "address": "Via Supramonte",
    "city": "SAN TEODORO",
    "zipcode": "07052",
    "countryFullName": "Italy",
    "lng": 9.6553775,
    "lat": 40.7652241
  },
  {
    "slug": "centro-culturale-islamico-la-pace-san-felice-sul-panaro-41038-italy",
    "name": "LA PACE",
    "image1": "https://cdn.mawaqit.net/images/backend/mosque/ccd74473-b180-4323-921d-5c8e3ba8258c/mosque/1ef3b8b7-90ab-6014-9937-0600dbafaeef.jpg",
    "address": "Via perossaro 349 -357",
    "city": "SAN FELICE SUL PANARO",
    "zipcode": "41038",
    "countryFullName": "Italy",
    "lng": 11.1330408,
    "lat": 44.8297883
  },
  {
    "slug": "moschea-al-huda-cascina-cascina-56021-italy",
    "name": "Moschea al Huda",
    "image1": "https://cdn.mawaqit.net/images/backend/mosque/b5ea70de-adb4-4b86-a622-59c6867ba060/mosque/1eedef77-4f5a-6bc8-87a5-0af5bc2bf469.jpg",
    "address": "Via Bruno Genovesi 135",
    "city": "CASCINA",
    "zipcode": "56021",
    "countryFullName": "Italy",
    "lng": 10.550444,
    "lat": 43.67413
  },
  {
    "slug": "masjid-lamal-bettona-06084-italy",
    "name": "مسجد الأمل",
    "image1": "https://cdn.mawaqit.net/images/backend/mosque/31a629c7-e187-4743-8910-14c253703a33/mosque/1eedfec8-d5f5-6d30-be68-06e51c00eb73.jpg",
    "address": "Via s.Biagio 21",
    "city": "BETTONA",
    "zipcode": "06084",
    "countryFullName": "Italy",
    "lng": 12.5070613,
    "lat": 43.0219455
  },
  {
    "slug": "ass-culturale-per-il-bene-comune-clusone-clusone-24023-italy",
    "name": "Ass.culturale per il bene comune",
    "image1": "https://cdn.mawaqit.net/images/backend/mosque/58be7a71-ce45-4e27-a9ac-a00e77da6016/mosque/1eee07b9-79ae-6f0a-8b03-0e7803347c6f.jpg",
    "address": "Via dei tiè",
    "city": "CLUSONE",
    "zipcode": "24023",
    "countryFullName": "Italy",
    "lng": 9.9480311,
    "lat": 45.8889397
  },
  {
    "slug": "masjid-cinisello-balsamo-ahmed-afaf-hotmail-it-italy",
    "name": "مركز الجالية الإسلامية في شينيزلو بالسمو",
    "image1": "https://cdn.mawaqit.net/images/backend/mosque/37c5ad37-24bb-42f8-a5f8-5814e5096c74/mosque/1eee0c3c-5a93-6008-b3c7-0ec3b4f6d7e1.jpg",
    "address": "Via frisia 11 cinisello  balsamo",
    "city": "CINISELLO BALSAMO",
    "zipcode": "AHMED.AFAF@HOTMAIL.IT",
    "countryFullName": "Italy",
    "lng": 9.2312874,
    "lat": 45.5540963
  },
  {
    "slug": "associazione-culturale-islamica-alkhair-venezia-30175-italy",
    "name": "ass. culturale islamica alkhair",
    "image1": "https://cdn.mawaqit.net/images/backend/mosque/30dac386-1f82-4f6d-b3a2-550b96f28efd/mosque/1eee303f-b5f7-60e4-abd6-06f4f2a78253.jpg",
    "address": "via monzani 11",
    "city": "VENEZIA",
    "zipcode": "30175",
    "countryFullName": "Italy",
    "lng": 12.2137863,
    "lat": 45.4635038
  },
  {
    "slug": "associazione-culturale-assiraj-al-monir-sasso-marconi-40037-italy",
    "name": "ASS. ISLAMICA ASSIRAJ AL MONIR APS",
    "image1": "https://cdn.mawaqit.net/images/backend/mosque/301d2c83-1e97-4bcd-86d9-ff3033d64aca/mosque/1eee4afa-b6b9-6c72-9994-060bd329544b.jpg",
    "address": "Via dell'orologio 32",
    "city": "SASSO MARCONI",
    "zipcode": "40037",
    "countryFullName": "Italy",
    "lng": 11.2520363,
    "lat": 44.4047289
  },
  {
    "slug": "abi-bakr-lsidiq-bologna-40131-italy",
    "name": "Masjid abi Bakr sadik",
    "image1": "https://cdn.mawaqit.net/images/backend/mosque/7370713b-9b8c-426a-9145-af0231fe3e44/mosque/1eee6dbb-8a87-69c2-898e-0e8f4a8ce035.png",
    "address": "VIA FRANCESCO ZANARDI 106/6",
    "city": "BOLOGNA",
    "zipcode": "40131",
    "countryFullName": "Italy",
    "lng": 11.323069,
    "lat": 44.5186636
  },
  {
    "slug": "masjid-al-amal-veglie-73010-italy",
    "name": "MASJID AL-AMAL",
    "image1": "https://cdn.mawaqit.net/images/backend/mosque/2f8a239b-70a3-4fc7-8aae-f78dd90426ad/mosque/1eee855a-f2da-6ad6-bfda-0a9258a77f81.jpg",
    "address": "Via gubiti",
    "city": "VEGLIE",
    "zipcode": "73010",
    "countryFullName": "Italy",
    "lng": 17.9679983,
    "lat": 40.3345613
  },
  {
    "slug": "msjd-lfth-moschea-amici-valdarno-firenze-50063-italy",
    "name": "مسجد النور فليني فالدارنوMOSCHEA AL NOOR",
    "image1": "https://cdn.mawaqit.net/images/backend/mosque/c2cd6e4f-adee-444d-9a5f-779ec9adf58c/mosque/1eef0fda-5416-61ba-9577-0e8f4a8ce035.jpg",
    "address": "Via della comunità europea 13 figline incisa valdarno",
    "city": "FIRENZE",
    "zipcode": "50063",
    "countryFullName": "Italy",
    "lng": 11.4629353,
    "lat": 43.6290787
  },
  {
    "slug": "alkaram-san-giovanni-in-persiceto-40017-italy-1",
    "name": "DECIMA-مسجد الكرم",
    "image1": "https://cdn.mawaqit.net/images/backend/mosque/ba903782-2784-42d3-9de1-052046564d58/mosque/1eef28e3-d864-677e-a985-0aca010661ff.jpg",
    "address": "Via cento 105",
    "city": "SAN GIOVANNI IN PERSICETO",
    "zipcode": "40017",
    "countryFullName": "Italy",
    "lng": 11.2251757,
    "lat": 44.6985943
  },
  {
    "slug": "ass-ne-culturale-solidarieta-e-integrazi-bellizzi-84092-italy",
    "name": "Ass.ne culturale solidarietà e integrazi",
    "image1": "https://cdn.mawaqit.net/images/backend/mosque/6af001df-b132-4fa8-8d30-fcfb5722b20f/mosque/1eef5c1b-cfc1-6eda-a897-0e8f4a8ce035.jpeg",
    "address": "Via keplero 2",
    "city": "BELLIZZI",
    "zipcode": "84092",
    "countryFullName": "Italy",
    "lng": 14.9546011,
    "lat": 40.6180792
  },
  {
    "slug": "msjd-lkhw-santagata-bolognese-40019-italy",
    "name": "مسجد الاخوة",
    "image1": "https://cdn.mawaqit.net/images/backend/mosque/da0dad06-5a0f-4cd5-9cce-8c07362098a3/mosque/1eef67fe-80f7-60e0-9400-0aca010661ff.jpg",
    "address": "VIA MAVORA 4",
    "city": "SANT'AGATA BOLOGNESE",
    "zipcode": "40019",
    "countryFullName": "Italy",
    "lng": 11.1314935,
    "lat": 44.6646843
  },
  {
    "slug": "masjid-lmalaa-san-giovanni-in-persiceto-40017-italy",
    "name": "مسجد الملأ",
    "image1": "https://cdn.mawaqit.net/images/backend/mosque/ca1daa63-ce04-4b7c-8af7-15e95bf4572d/mosque/1eef7347-931c-635c-806e-0621eb7171ad.jpeg",
    "address": "VIA G. MARCONI, 21",
    "city": "SAN GIOVANNI IN PERSICETO",
    "zipcode": "40017",
    "countryFullName": "Italy",
    "lng": 11.1878775,
    "lat": 44.640477
  },
  {
    "slug": "masjed-assalam-bra-bra-12042-italy",
    "name": "Masjed Al Salam BRA",
    "image1": "https://cdn.mawaqit.net/images/backend/mosque/a2ba270c-e423-4e93-b2fc-6c3ee8ebcf7e/mosque/1eefa612-0f87-6cb4-9dc7-0a382b7256a1.jpeg",
    "address": "Via cuneo 23",
    "city": "BRA",
    "zipcode": "12042",
    "countryFullName": "Italy",
    "lng": 7.8548843,
    "lat": 44.6908235
  },
  {
    "slug": "msjd-lsn-alsunnah-deruta-06053-italy",
    "name": "مسجد السنة ALSUNNAH",
    "image1": "https://cdn.mawaqit.net/images/backend/mosque/cfdb4c66-5e8c-4705-9164-ee375a923cb8/mosque/1ef00210-c358-6522-b596-0621eb7171ad.jpeg",
    "address": "Via della technica 43",
    "city": "DERUTA",
    "zipcode": "06053",
    "countryFullName": "Italy",
    "lng": 12.4111945,
    "lat": 42.9816016
  },
  {
    "slug": "associazione-nerviano-nerviano-20014-italy",
    "name": "Associazione Culturale Nerviano",
    "image1": "https://cdn.mawaqit.net/images/backend/mosque/9479c392-c50d-4dc8-bbda-59b1da63eff3/mosque/1ef07f3b-4eb2-6350-8234-0a382b7256a1.jpg",
    "address": "14, via vittorio veneto",
    "city": "NERVIANO",
    "zipcode": "20014",
    "countryFullName": "Italy",
    "lng": 8.9770337,
    "lat": 45.5549847
  },
  {
    "slug": "masjid-anwar-ostuni-72017-italy",
    "name": "MASJID ANWAR",
    "image1": "https://cdn.mawaqit.net/images/backend/mosque/7bf1e722-cc7a-439d-bb3c-84103127493d/mosque/1ef0f12f-d075-694e-b834-0a33d0408e15.jpg",
    "address": "Via Tito speri 8/10",
    "city": "OSTUNI",
    "zipcode": "72017",
    "countryFullName": "Italy",
    "lng": 17.5807528,
    "lat": 40.7248975
  },
  {
    "slug": "futuro-dei-giovani-isola-della-scala-vr-37063-italy",
    "name": "Futuro Dei Giovani",
    "image1": "https://cdn.mawaqit.net/images/backend/mosque/4aed2453-9be6-4de0-984f-f5ef09ec6cdd/mosque/1ef0f13a-3fe9-69b0-bf50-0e8f4a8ce035.jpg",
    "address": "VIA I MAGGIO 8",
    "city": "ISOLA DELLA SCALA VR",
    "zipcode": "37063",
    "countryFullName": "Italy",
    "lng": 11.007674,
    "lat": 45.271631
  },
  {
    "slug": "avi-aps-salorno-salorno-39040-italy-2",
    "name": "AVI APS Salorno",
    "image1": "https://cdn.mawaqit.net/images/backend/mosque/180c06ee-9470-42e6-b19c-01786ca3f36b/mosque/1ef154b6-5837-6f78-bdb6-0a33d0408e15.jpg",
    "address": "via naziona44",
    "city": "SALORNO",
    "zipcode": "39040",
    "countryFullName": "Italy",
    "lng": 11.2088186,
    "lat": 46.2411435
  },
  {
    "slug": "msjd-lhdy-zocca-41059-italy",
    "name": "مسجد الهداية",
    "image1": "https://cdn.mawaqit.net/images/backend/mosque/af66e4f9-718a-419e-8925-e8dc3addb6fc/mosque/1ef1600e-c50b-6574-8658-06724289ed6b.jpg",
    "address": "Via Mauro tesi 2282",
    "city": "ZOCCA",
    "zipcode": "41059",
    "countryFullName": "Italy",
    "lng": 10.9951377,
    "lat": 44.3402622
  },
  {
    "slug": "msjd-lbdr-castelfranco-emilia-41013-italy-1",
    "name": "MOSCHEA AL BADR",
    "image1": "https://cdn.mawaqit.net/images/backend/mosque/4443ed12-2e05-43d5-b7b1-a330c4a9c6bc/mosque/1ef16ad1-dac6-6652-8dd1-0e8f4a8ce035.jpg",
    "address": "Via ripa superiore 35",
    "city": "CASTELFRANCO EMILIA",
    "zipcode": "41013",
    "countryFullName": "Italy",
    "lng": 11.0539603,
    "lat": 44.593274
  },
  {
    "slug": "amici-della-pace-mezzanego-16046-italy",
    "name": "Amici Della Pace جمعية أصدقاء السلام",
    "image1": "https://cdn.mawaqit.net/images/backend/mosque/304d38c2-84f8-4d1d-911d-d0350fd4a912/mosque/1ef18674-01bf-6598-8e4c-0aca279fa1dd.jpg",
    "address": "Loc. Isola di vignolo 2",
    "city": "MEZZANEGO",
    "zipcode": "16046",
    "countryFullName": "Italy",
    "lng": 9.3794497,
    "lat": 44.3880503
  },
  {
    "slug": "lrahma-sommariva-del-bosco-12048-italy",
    "name": "مسجد الرحمة Masjid Arrahma",
    "image1": "https://cdn.mawaqit.net/images/backend/mosque/2f0a79b0-7beb-4655-b0da-4583ac0d71f5/mosque/1ef20fd2-db51-6300-92c3-0ecb5e3f0f5f.jpg",
    "address": "Via Vittorio Emanuele  98",
    "city": "SOMMARIVA DEL BOSCO",
    "zipcode": "12048",
    "countryFullName": "Italy",
    "lng": 7.7832789,
    "lat": 44.7697148
  },
  {
    "slug": "moschea-elhidaya-torino-10137-italy-1",
    "name": "MOSCHEA ELHIDAYA - مسجد الهداية",
    "image1": "https://cdn.mawaqit.net/images/backend/mosque/53cb7eec-323d-4346-94d2-5357dbf0b3b2/mosque/1ef22b4a-9bd8-6884-93f4-069cfb0c4e97.jpeg",
    "address": "P.za Riccardo Cattaneo, 18",
    "city": "TORINO",
    "zipcode": "10137",
    "countryFullName": "Italy",
    "lng": 7.6243102,
    "lat": 45.0362837
  },
  {
    "slug": "associazione-culturale-la-luna-agrate-brianza-20864-italy-1",
    "name": "ASSOCIAZIONE CULTURALE LA LUNA",
    "image1": "https://cdn.mawaqit.net/images/backend/mosque/4a73927e-fe9d-4367-9180-b07e1512ce2a/mosque/1ef24d27-36c5-6a88-80c2-0abc556dbbf3.png",
    "address": "Via Archimede 41 Agrate Brianza",
    "city": "AGRATE BRIANZA",
    "zipcode": "20864",
    "countryFullName": "Italy",
    "lng": 9.3341773,
    "lat": 45.5672551
  },
  {
    "slug": "moschea-di-ca-di-sola-ca-di-sola-41014-italy",
    "name": "Moschea di Ca' di sola",
    "image1": "https://cdn.mawaqit.net/images/backend/mosque/16e3dc98-9421-4b63-9d15-f51b51e7f6fb/mosque/1ef2b5c5-7601-6984-bf4b-0ecb5e3f0f5f.jpg",
    "address": "Via statale 11",
    "city": "CA' DI SOLA",
    "zipcode": "41014",
    "countryFullName": "Italy",
    "lng": 10.96152,
    "lat": 44.52876
  },
  {
    "slug": "26221",
    "name": "مسجد الروضة",
    "image1": "https://cdn.mawaqit.net/images/backend/mosque/4b78f6fe-b696-41b6-83e9-7df15a265ac6/mosque/1efa43e7-4a3f-6d66-8046-0e9d077f5bb1.jpeg",
    "address": "Kafr Dariyan, Syria",
    "city": "سرمدا",
    "zipcode": "99610",
    "countryFullName": "Italy",
    "lng": 36.6660572,
    "lat": 36.1747996
  },
  {
    "slug": "centro-culturale-islamica-di-dronero-dronero-12025-italy",
    "name": "Centro Culturale Islamico Di Dronero",
    "image1": "https://cdn.mawaqit.net/images/backend/mosque/832c11fc-6939-49f8-b074-e8b8aef62f9e/mosque/1ef37f03-c2c4-6e30-ace0-0a67bcb0d635.png",
    "address": "Regione Archero 3",
    "city": "DRONERO",
    "zipcode": "12025",
    "countryFullName": "Italy",
    "lng": 7.3497537,
    "lat": 44.4620745
  },
  {
    "slug": "msjd-ns-crevalcore-40014-italy-1",
    "name": "مسجد انس",
    "image1": "https://cdn.mawaqit.net/images/backend/mosque/baa9b198-d552-4d34-8736-ae71fccee5f1/mosque/1ef3af04-75d5-68b4-a9df-0a67bcb0d635.jpg",
    "address": "via sbaraglia n181",
    "city": "CREVALCORE",
    "zipcode": "40014",
    "countryFullName": "Italy",
    "lng": 11.1469022,
    "lat": 44.7219054
  },
  {
    "slug": "masjeed-alboshra-roma-00049-italy-1",
    "name": "masjeed alboshra",
    "image1": "https://cdn.mawaqit.net/images/backend/mosque/1e9e86d6-0d82-4016-a80d-a39472da533c/mosque/1ef42229-1fe7-6c02-b588-0600dbafaeef.jpeg",
    "address": "via Fontana delle rose, 83",
    "city": "ROMA",
    "zipcode": "00049",
    "countryFullName": "Italy",
    "lng": 12.775945,
    "lat": 41.692405
  },
  {
    "slug": "masjed-assalam-savigliano-savigliano-12038-italy",
    "name": "Masjed Assalam - SAVIGLIANO",
    "image1": "https://cdn.mawaqit.net/images/backend/mosque/050aff5c-81ea-4baf-8d8f-f6944c04d1b4/mosque/1ef40807-c29b-69f8-9cb2-0a67bcb0d635.jpeg",
    "address": "Via Pietro Massia 14",
    "city": "SAVIGLIANO",
    "zipcode": "12038",
    "countryFullName": "Italy",
    "lng": 7.6749382,
    "lat": 44.650161
  },
  {
    "slug": "moschea-ar-rahman-torino-10152-italy",
    "name": "Moschea Ar-Rahman",
    "image1": "https://cdn.mawaqit.net/images/backend/mosque/ceb98887-a83a-4f15-9d3d-fb621589e508/mosque/1ef4126a-c925-6cc0-b211-0eccd22c0f01.png",
    "address": "via Urbino 5",
    "city": "TORINO",
    "zipcode": "10152",
    "countryFullName": "Italy",
    "lng": 7.6760078,
    "lat": 45.0855664
  },
  {
    "slug": "moschea-san-carlo-msjd-sn-krlw-san-carlo-44047-italy",
    "name": "مسجد سان كارلو - SAN CARLO (FE)",
    "image1": "https://cdn.mawaqit.net/images/backend/mosque/94c3faf3-74fa-413e-a3dd-9a32f2b5e78a/mosque/1ef4b9ab-51f3-6fa6-bed9-0600dbafaeef.jpeg",
    "address": "Via martiri della libertà 12",
    "city": "SAN CARLO",
    "zipcode": "44047",
    "countryFullName": "Italy",
    "lng": 11.4001293,
    "lat": 44.799629
  },
  {
    "slug": "msjd-lm-rf-chieri-10023-italy",
    "name": "مسجد المعرفة",
    "image1": "https://cdn.mawaqit.net/images/backend/mosque/76d3f253-e66c-45b6-aae3-8c47fd1fe218/mosque/1ef51c0c-5a36-6fc4-ab8e-0600dbafaeef.jpeg",
    "address": "via della fornace 10",
    "city": "CHIERI",
    "zipcode": "10023",
    "countryFullName": "Italy",
    "lng": 7.8311154,
    "lat": 45.0056241
  },
  {
    "slug": "iqraa-pisa-56121-italy",
    "name": "MASJID IQRAA Pisa",
    "image1": "https://cdn.mawaqit.net/images/backend/mosque/8ecb083d-5fe0-404d-a6ec-93cff740aab3/mosque/1ef53e17-3b53-6792-8f68-0600dbafaeef.png",
    "address": "VIA MONTE ROSA 1",
    "city": "PISA",
    "zipcode": "56121",
    "countryFullName": "Italy",
    "lng": 10.4178604,
    "lat": 43.7016532
  },
  {
    "slug": "moschea-della-misericomsjd-lrhm-ktny-catania-italy-95131-italy",
    "name": "Moschea della Misericordia  مسجد الرحمة",
    "image1": "https://cdn.mawaqit.net/images/backend/mosque/13c14d1f-25d0-4ef7-ac41-8ef54a8367bb/mosque/1ef56106-6cec-6c1a-bbdd-0a97492a3fc9.jpg",
    "address": "Piazza Cutelli, 6A",
    "city": "CATANIA, ITALY",
    "zipcode": "95131",
    "countryFullName": "Italy",
    "lng": 15.0926748,
    "lat": 37.5030239
  },
  {
    "slug": "msjd-ltwhyd-wlsn-pescia-pt-51017-italy",
    "name": "مسجد التوحيد والسنة",
    "image1": "https://cdn.mawaqit.net/images/backend/mosque/6be6648f-7d43-436a-97bc-4aeb465b4546/mosque/1ef5f506-fb50-695e-8b5d-0e4a41cdad45.jpg",
    "address": "Via Leopoldo Galeotti, 78",
    "city": "PESCIA (PT)",
    "zipcode": "51017",
    "countryFullName": "Italy",
    "lng": 10.6872691,
    "lat": 43.8929423
  },
  {
    "slug": "msjd-lslm-ormelle-ormelle-31024-italy",
    "name": "مسجد السلام",
    "image1": "https://cdn.mawaqit.net/images/backend/mosque/5fdf0ae4-25e1-4bc5-95fe-57b1a36d1d7e/mosque/1ef618ad-9d2d-6c30-a441-0e4a41cdad45.jpg",
    "address": "Via Dante Alighieri 20",
    "city": "ORMELLE",
    "zipcode": "31024",
    "countryFullName": "Italy",
    "lng": 12.409596741199,
    "lat": 45.757404905876
  },
  {
    "slug": "jm-yy-lrsl-olgiate-molgora-olgiate-molgora-23887-italy-2",
    "name": "جمعية الرسالة Olgiate Molgora",
    "image1": "https://cdn.mawaqit.net/images/backend/mosque/924f6e82-0499-428f-abe7-510eefa5d460/mosque/1ef63d2f-efbb-66ae-aa42-0600dbafaeef.jpg",
    "address": "via canova 06",
    "city": "OLGIATE MOLGORA",
    "zipcode": "23887",
    "countryFullName": "Italy",
    "lng": 9.4021712,
    "lat": 45.7291395
  },
  {
    "slug": "centro-culturale-islamico-di-novara-novara-28100-italy",
    "name": "Centro culturale Islamico",
    "image1": "https://cdn.mawaqit.net/images/backend/mosque/e1840aca-9241-4925-a4c7-e85f395771ff/mosque/1ef62e44-37a4-6b6e-839a-0a30a0d770d7.jpg",
    "address": "Via Antonio Pigafetta, 32, 28100 Novara NO",
    "city": "NOVARA",
    "zipcode": "28100",
    "countryFullName": "Italy",
    "lng": 8.6391505,
    "lat": 45.4509749
  },
  {
    "slug": "msjd-lnwr-cormano-20032-italy",
    "name": "مسجد النور",
    "image1": "https://cdn.mawaqit.net/images/backend/mosque/a7f6e1d2-7cf3-4088-b950-f7d2a81adfe9/mosque/1ef7804b-cae9-66a4-898a-0600dbafaeef.jpg",
    "address": "Via G. Donizetti, 5, 20032 Cormano MI",
    "city": "CORMANO",
    "zipcode": "20032",
    "countryFullName": "Italy",
    "lng": 9.1651536,
    "lat": 45.5394699
  },
  {
    "slug": "afaaq-cadimarco-25020-italy",
    "name": "مسجد آفاق",
    "image1": "https://cdn.mawaqit.net/images/backend/mosque/d29d003f-076e-43d7-8e72-c1468d552b81/mosque/1ef781cc-f42b-6616-8b1b-0ecd6770c589.jpg",
    "address": "VIA MARTIRI DELLA LIBERTà 110/112",
    "city": "CADIMARCO",
    "zipcode": "25020",
    "countryFullName": "Italy",
    "lng": 10.3584807,
    "lat": 45.2208841
  },
  {
    "slug": "lmrkzlslm-ybkwnkwrdy-concordia-41033-italy",
    "name": "Centro culturale islamico di concordia",
    "image1": "https://cdn.mawaqit.net/images/backend/mosque/d2b3cb47-c8ba-486a-b5ad-76b81300b287/mosque/1ef7be4d-54e8-6f46-b928-0ecd6770c589.png",
    "address": "via Giosue Carducci'6_c concordia sulla secchia",
    "city": "CONCORDIA",
    "zipcode": "41033",
    "countryFullName": "Italy",
    "lng": 10.9840951,
    "lat": 44.9121132
  },
  {
    "slug": "asmu-unipr-parma-43125-italy-1",
    "name": "Asmu.unipr",
    "image1": "https://cdn.mawaqit.net/images/backend/mosque/21169c09-7eb1-4314-a908-4e6e5d8268b6/mosque/1ef7aa75-b6dc-646e-bdf1-0600dbafaeef.jpg",
    "address": "Via John Fitzgerald Kennedy, 8",
    "city": "PARMA",
    "zipcode": "43125",
    "countryFullName": "Italy",
    "lng": 10.3166998,
    "lat": 44.8046677
  },
  {
    "slug": "ar-rahmah-montecchio-maggiore-36075-italy",
    "name": "الرحمة",
    "image1": "https://cdn.mawaqit.net/images/backend/mosque/b66ea231-5594-4bc3-b99d-c17051bc5a7c/mosque/1ef7db85-b878-6f8e-ba59-0600dbafaeef.jpg",
    "address": "Viale Milano 38",
    "city": "MONTECCHIO MAGGIORE",
    "zipcode": "36075",
    "countryFullName": "Italy",
    "lng": 11.4296999,
    "lat": 45.4939805
  },
  {
    "slug": "moschea-di-collecchio-collecchio-43044-italy",
    "name": "Moschea Di Collecchio",
    "image1": "https://cdn.mawaqit.net/images/backend/mosque/6ce1ac62-d8ea-43d4-8cd4-1d2b39514b70/mosque/1ef826d8-9048-6264-a3f9-0671c73660c5.png",
    "address": "Via VIII Marzo 22",
    "city": "COLLECCHIO",
    "zipcode": "43044",
    "countryFullName": "Italy",
    "lng": 10.2027432,
    "lat": 44.7475575
  },
  {
    "slug": "msjd-ltwsl-rozzano-20089-italy",
    "name": "مسجد التواصل روتصانو",
    "image1": "https://cdn.mawaqit.net/images/backend/mosque/9049d995-e7c4-4718-aaa9-d89dcbb32e99/mosque/1ef857ea-669f-6708-8528-0671c73660c5.jpg",
    "address": "VIALE LOMBARDIA  56A",
    "city": "ROZZANO",
    "zipcode": "20089",
    "countryFullName": "Italy",
    "lng": 9.1485927,
    "lat": 45.386184
  },
  {
    "slug": "moschea-al-umma-ghedi-25016-italy-1",
    "name": "Masjid Al Umma",
    "image1": "https://cdn.mawaqit.net/images/backend/mosque/1d3473ac-6253-47e0-bf07-51751d9c558f/mosque/1ef8e280-58e0-6bdc-b712-0e9d077f5bb1.jpeg",
    "address": "Via castenedolo 70",
    "city": "GHEDI",
    "zipcode": "25016",
    "countryFullName": "Italy",
    "lng": 10.27671333552,
    "lat": 45.416579984368
  },
  {
    "slug": "alrahna-dozza-40060-italy",
    "name": "AL- RAHMA",
    "image1": "https://cdn.mawaqit.net/images/backend/mosque/2a4cac4e-4929-4492-b19d-d45d774e9edc/mosque/1ef8f819-b547-687c-9cb4-0e9d077f5bb1.jpg",
    "address": "Via morandi 36",
    "city": "DOZZA",
    "zipcode": "40060",
    "countryFullName": "Italy",
    "lng": 11.6423889,
    "lat": 44.3784548
  },
  {
    "slug": "moschea-di-rho-rho-20017-italy",
    "name": "Moschea di Rho",
    "image1": "https://cdn.mawaqit.net/images/backend/mosque/c8329e32-4321-470a-98f2-3bc6a11f358e/mosque/1ef90630-1400-6fa2-a54e-0affcb0701ab.jpg",
    "address": "Via Pozzobonelli 2",
    "city": "RHO",
    "zipcode": "20017",
    "countryFullName": "Italy",
    "lng": 9.0549979,
    "lat": 45.527961
  },
  {
    "slug": "a-i-c-badr-bussolengo-37012-italy",
    "name": "Masjid Badr",
    "image1": "https://cdn.mawaqit.net/images/backend/mosque/5dc7e176-e46e-43ba-8844-ebbee175a1b2/mosque/1ef9065e-2cce-6740-ab9d-0e9d077f5bb1.jpg",
    "address": "Via del commercio N 4",
    "city": "BUSSOLENGO",
    "zipcode": "37012",
    "countryFullName": "Italy",
    "lng": 10.874455,
    "lat": 45.4484387
  },
  {
    "slug": "centro-islamico-di-vittoria-msjd-ftwry-ragusa-97019-italy",
    "name": "Moschea DI VITTORIA مسجد فتوريا",
    "image1": "https://cdn.mawaqit.net/images/backend/mosque/820008e5-ff3b-4b7f-951b-8a6f8f27b07e/mosque/1ef9241b-2349-6f00-9a61-0affcb0701ab.jpg",
    "address": "Via Ruggero Settimo, 155, 97019 Vittoria RAGUSA",
    "city": "RAGUSA",
    "zipcode": "97019",
    "countryFullName": "Italy",
    "lng": 14.5339115,
    "lat": 36.9484833
  },
  {
    "slug": "masjid-al-baraqa-tarcento-33017-italy",
    "name": "Masjid al-Baraqa",
    "image1": "https://cdn.mawaqit.net/images/backend/mosque/fb6d1edb-e2fd-4749-846d-ed728edc3799/mosque/1ef9559e-e887-6b5a-ab96-0a0389a4e0f5.png",
    "address": "via angelo angeli 69",
    "city": "TARCENTO",
    "zipcode": "33017",
    "countryFullName": "Italy",
    "lng": 13.221377,
    "lat": 46.2118488
  },
  {
    "slug": "bangladesh-muslim-cultural-center-stra-30039-italy",
    "name": "BMCC",
    "image1": "https://cdn.mawaqit.net/images/backend/mosque/e66f55bd-20e5-41fb-8134-92d7178c2946/mosque/1ef95d68-be67-66b4-871a-0e9d077f5bb1.jpg",
    "address": "VIA G. MAZZINI 14",
    "city": "STRA",
    "zipcode": "30039",
    "countryFullName": "Italy",
    "lng": 12.0041002,
    "lat": 45.4097043
  },
  {
    "slug": "lmrkz-lslmy-bfwznynw-fusignano-48034-italy",
    "name": "المركز الاسلامي بفوزنيانو",
    "image1": "https://cdn.mawaqit.net/images/backend/mosque/9c28e1e7-93cd-4cb8-a938-f674890e1fd4/mosque/1ef97033-230e-6cfc-8718-0671c73660c5.jpg",
    "address": "Via dell’Artigianato n.25",
    "city": "FUSIGNANO",
    "zipcode": "48034",
    "countryFullName": "Italy",
    "lng": 11.9468921,
    "lat": 44.4618117
  },
  {
    "slug": "msjd-ltqw-ponte-buggianese-51019-italy",
    "name": "مسجد التقوى",
    "image1": "https://cdn.mawaqit.net/images/backend/mosque/97ce274d-b893-4a48-945d-7833e54f364f/mosque/1ef9a236-9305-6d78-a50a-0671c73660c5.jpg",
    "address": "Via Degli Ulivi 4",
    "city": "PONTE BUGGIANESE",
    "zipcode": "51019",
    "countryFullName": "Italy",
    "lng": 10.7429215,
    "lat": 43.8586998
  },
  {
    "slug": "msjd-sn-lwrnsw-san-lorenzo-in-campo-san-lorenzo-in-campo-pu-61047-italy",
    "name": "مسجد سان لورنسو",
    "image1": "https://cdn.mawaqit.net/images/backend/mosque/7e72adef-5e49-4cd2-a7a4-3a4b7a9c2ebb/mosque/1ef9d3e7-9413-65ac-8d19-0671c73660c5.jpg",
    "address": "Via Giovanni XXIII n 5",
    "city": "SAN LORENZO IN CAMPO PU",
    "zipcode": "61047",
    "countryFullName": "Italy",
    "lng": 12.9316363,
    "lat": 43.5968207
  },
  {
    "slug": "mosque-borgoricco-35010-italy",
    "name": "مسجد بوركوريكو",
    "image1": "https://cdn.mawaqit.net/images/backend/mosque/058acad5-8fa1-48e5-bfd4-68c24c5b18bc/mosque/1ef9f7c0-5d57-60fc-8c0f-0e9d077f5bb1.jpeg",
    "address": "Via dandolo 17",
    "city": "BORGORICCO",
    "zipcode": "35010",
    "countryFullName": "Italy",
    "lng": 11.9717721,
    "lat": 45.5352797
  },
  {
    "slug": "msjd-byrgmw-moschea-di-bergamo-citta-bergamo-24125-italy",
    "name": "مسجد بيرغامو Moschea di Bergamo città",
    "image1": "https://cdn.mawaqit.net/images/backend/mosque/107185e9-2e4f-4355-8dc6-8c0855fde8ad/mosque/1efa211b-cf0d-6af0-8206-0e9d077f5bb1.png",
    "address": "Via Monte Cenisio 3",
    "city": "BERGAMO",
    "zipcode": "24125",
    "countryFullName": "Italy",
    "lng": 9.6922399,
    "lat": 45.6963674
  },
  {
    "slug": "moschea-an-nour-chieri-10023-italy",
    "name": "مسجد النور",
    "image1": "https://cdn.mawaqit.net/images/backend/mosque/f133d695-ee7d-4090-9855-946c2de6be66/mosque/1efa7671-4c21-60d2-b1e1-0e9d077f5bb1.jpeg",
    "address": "Via guglielmo marconi 2",
    "city": "CHIERI",
    "zipcode": "10023",
    "countryFullName": "Italy",
    "lng": 7.8247201,
    "lat": 45.014562
  },
  {
    "slug": "jm-trtwn-tortona-15057-italy",
    "name": "جامع طرطونا",
    "image1": "https://cdn.mawaqit.net/images/backend/mosque/37a76f26-09a3-4628-bb78-9625ded96fc6/mosque/1efa80cf-3bca-66bc-bf81-0a0389a4e0f5.jpg",
    "address": "Via Giancarlo Pernigotti, 5A",
    "city": "TORTONA",
    "zipcode": "15057",
    "countryFullName": "Italy",
    "lng": 8.8659999,
    "lat": 44.9030491
  },
  {
    "slug": "masjid-lsalam-boulounia-40129-italy",
    "name": "مسجد السلام",
    "image1": "https://cdn.mawaqit.net/images/backend/mosque/949931bc-9b20-4059-b476-ca7bc4733f47/mosque/1efae63d-2f80-6446-9596-066b4b62726d.jpg",
    "address": "Via della Casa bulia 3",
    "city": "بولونيا",
    "zipcode": "40129",
    "countryFullName": "Italy",
    "lng": 11.3394826,
    "lat": 44.5216099
  },
  {
    "slug": "msjd-lrhm-cortona-52044-italy",
    "name": "مسجد الرحمة",
    "image1": "https://cdn.mawaqit.net/images/backend/mosque/b3b4054a-8b93-4dd4-99d1-18e9290343bd/mosque/1efafd58-2906-68cc-b968-0e9d077f5bb1.jpg",
    "address": "Via dell'Esse, 30, 52044 Camucia AR",
    "city": "CORTONA",
    "zipcode": "52044",
    "countryFullName": "Italy",
    "lng": 11.9771594,
    "lat": 43.2597782
  },
  {
    "slug": "al-baraka-borgo-a-mozzano-55023-italy",
    "name": "مسجد التوبة",
    "image1": "https://cdn.mawaqit.net/images/backend/mosque/2ad35452-a4c6-4a2f-90d0-e44f8977ebd4/mosque/1efb0a97-2733-67a6-8a20-0e9d077f5bb1.jpg",
    "address": "via del piano, 15 chifenti",
    "city": "BORGO A MOZZANO",
    "zipcode": "55023",
    "countryFullName": "Italy",
    "lng": 10.559468,
    "lat": 44.001925
  },
  {
    "slug": "c-culturale-islamico-di-campi-bisenzio-campi-bisenzio-50013-italy",
    "name": "C. culturale islamico di Campi Bisenzio",
    "image1": "https://cdn.mawaqit.net/images/backend/mosque/5d5baede-6314-4d65-b8b6-9b294dc0e321/mosque/1efb4907-8505-67e0-8842-065b15099ccb.jpg",
    "address": "Via Ugo Novelli 58",
    "city": "CAMPI BISENZIO",
    "zipcode": "50013",
    "countryFullName": "Italy",
    "lng": 11.1212232,
    "lat": 43.8224751
  },
  {
    "slug": "dar-alarkm-gazzada-21045-italy",
    "name": "DAR ALARKM",
    "image1": "https://cdn.mawaqit.net/images/backend/mosque/e7158faf-fc6c-4721-9bdf-13fb3c7c8bcc/mosque/1efb6759-260b-6260-acfa-0ef2881d9837.jpeg",
    "address": "Via Cesare Battisti n5",
    "city": "GAZZADA",
    "zipcode": "21045",
    "countryFullName": "Italy",
    "lng": 8.8154516,
    "lat": 45.7701553
  },
  {
    "slug": "baytul-aman-monza-monza-20900-italy-1",
    "name": "BAYTUL AMAN MONZA",
    "image1": "https://cdn.mawaqit.net/images/backend/mosque/0af95195-9b8e-48ef-ac6e-e7fa85f8ef67/mosque/1efb7f25-2f51-6bec-b8ee-0a21b15e7a1f.jpeg",
    "address": "VIA CARLO ANTONIETTI 12 ANGOLO DI VIA GALILELO GALILEI 24",
    "city": "MONZA",
    "zipcode": "20900",
    "countryFullName": "Italy",
    "lng": 9.2854639,
    "lat": 45.5805507
  },
  {
    "slug": "madjid-ummah-modena-41122-italy",
    "name": "Masjid Ummah",
    "image1": "https://cdn.mawaqit.net/images/backend/mosque/416b1fcc-5587-4b5a-abb5-3c854d0fc6c7/mosque/1efb8a82-43ee-6f88-be62-069dbb1b261f.jpg",
    "address": "Via Crocetta 11",
    "city": "MODENA",
    "zipcode": "41122",
    "countryFullName": "Italy",
    "lng": 10.9408013,
    "lat": 44.65338
  },
  {
    "slug": "moschea-alsalam-carmagnola-10022-italy",
    "name": "moschea alsalam مسجد السلام",
    "image1": "https://cdn.mawaqit.net/images/backend/mosque/ad4288a2-61bd-4fa9-a81b-ae82893a9cec/mosque/1efc09df-6939-669e-9b98-0a21b15e7a1f.png",
    "address": "via avigliana 22",
    "city": "CARMAGNOLA",
    "zipcode": "10022",
    "countryFullName": "Italy",
    "lng": 7.7226016,
    "lat": 44.8531837
  },
  {
    "slug": "centro-islamico-di-casalpusterlengo-casalpusterlengo-26841-italy",
    "name": "Centro islamico di Casalpusterlengo",
    "image1": "https://cdn.mawaqit.net/images/backend/mosque/5c233245-2f41-460a-b2e5-db8b24130780/mosque/1efc52f1-383d-6788-973f-06bada7b305f.png",
    "address": "Via Crema snc",
    "city": "CASALPUSTERLENGO",
    "zipcode": "26841",
    "countryFullName": "Italy",
    "lng": 9.6501702,
    "lat": 45.1838803
  },
  {
    "slug": "masjid-al-fath-lodi-26900-italy",
    "name": "Masjid Al fath",
    "image1": "https://cdn.mawaqit.net/images/backend/mosque/ac0cbbc4-2fad-4ad6-a7ec-9ef00f233759/mosque/1efc5faf-e66b-6dda-a0e5-0ef2881d9837.jpeg",
    "address": "Via lodivecchio 41",
    "city": "LODI",
    "zipcode": "26900",
    "countryFullName": "Italy",
    "lng": 9.4848523,
    "lat": 45.3092832
  },
  {
    "slug": "masjid-zamzam-santangelo-26866-italy",
    "name": "Masjid Zamzam",
    "image1": "https://cdn.mawaqit.net/images/backend/mosque/94347b38-1ddb-4601-aa93-eaea540d155f/mosque/1efc5ff1-d0fc-6fb6-a3d9-0a21b15e7a1f.png",
    "address": "Via salvo d'acquisto 7",
    "city": "SANT'ANGELO",
    "zipcode": "26866",
    "countryFullName": "Italy",
    "lng": 9.3995594,
    "lat": 45.2283436
  },
  {
    "slug": "dar-assalam-oggiono-oggiono-23848-italy",
    "name": "DAR AL SALAM",
    "image1": "https://cdn.mawaqit.net/images/backend/mosque/22ee9095-dc96-4f3e-b0ce-1511896b4ed1/mosque/1efc8892-a723-6ed2-93a5-0e61b0058d45.png",
    "address": "ASSOCIAZIONE DAR-ASSALAM  Via G.Leopardi, 1P/B . OGGIONO (LC)",
    "city": "OGGIONO",
    "zipcode": "23848",
    "countryFullName": "Italy",
    "lng": 9.3382124,
    "lat": 45.788839
  },
  {
    "slug": "al-amal-villafranca-dasti-14018-italy",
    "name": "AL AMAL",
    "image1": "https://cdn.mawaqit.net/images/backend/mosque/b2f827b5-c836-4a10-84f5-48fbbbf0f413/mosque/1efc952f-5e29-6174-8a84-0e61b0058d45.jpeg",
    "address": "Via Roma 94",
    "city": "VILLAFRANCA D’ASTI",
    "zipcode": "14018",
    "countryFullName": "Italy",
    "lng": 8.0336684,
    "lat": 44.9136325
  },
  {
    "slug": "masjid-al-wassat-bologna-40133-italy-2",
    "name": "MASJID AL WASSAT",
    "image1": "https://cdn.mawaqit.net/images/backend/mosque/14699ad9-d806-484b-8a27-9aaf546d3cf3/mosque/1efcb51d-fe0f-6716-8e2b-0e61b0058d45.jpeg",
    "address": "VIA RINALDO RIGOLA 17",
    "city": "BOLOGNA",
    "zipcode": "40133",
    "countryFullName": "Italy",
    "lng": 11.2870956,
    "lat": 44.4952198
  },
  {
    "slug": "asscociazione-al-baraka-di-melegnano-melegnano-20077-italy",
    "name": "Associazione Al Baraka di Melegnano",
    "image1": "https://cdn.mawaqit.net/images/backend/mosque/fe035c77-c171-4502-8de0-5fa63773e8e1/mosque/1efcc2d9-2068-6e66-93ab-0e61b0058d45.png",
    "address": "Via Rodolfo Morandi, 15",
    "city": "MELEGNANO",
    "zipcode": "20077",
    "countryFullName": "Italy",
    "lng": 9.312928,
    "lat": 45.356711
  },
  {
    "slug": "msjd-fwkyr-voghera-27058-italy",
    "name": "مسجد الأُمّه  Moschea Al Umma",
    "image1": "https://cdn.mawaqit.net/images/backend/mosque/035be6ad-b2f9-48e7-9cec-7a5f1c3b0dc7/mosque/1efcdf2c-0801-602a-b5c7-06bada7b305f.jpeg",
    "address": "Via Ugo Foscolo 3",
    "city": "VOGHERA",
    "zipcode": "27058",
    "countryFullName": "Italy",
    "lng": 9.0054759,
    "lat": 44.98722
  },
  {
    "slug": "centro-culturale-al-nour-valdagno-valdagno-36078-italy",
    "name": "Centro Culturale  EL NOUR",
    "image1": "https://cdn.mawaqit.net/images/backend/mosque/10a5d6f4-e035-4bf0-95f8-415431649dd3/mosque/1efcf76a-f0e2-68ec-bab7-06bada7b305f.png",
    "address": "via santissima trinità, 51",
    "city": "VALDAGNO",
    "zipcode": "36078",
    "countryFullName": "Italy",
    "lng": 11.256854,
    "lat": 45.674337
  },
  {
    "slug": "lmrkz-lthqfy-brnzty-baranzate-20021-italy",
    "name": "المركز الثقافي برانزاتي",
    "image1": "https://cdn.mawaqit.net/images/backend/mosque/3a7f667d-af1e-49a0-8b51-efab7d22a095/mosque/1efd6749-2e13-640c-8690-0ac178b258e1.jpeg",
    "address": "Via dei Giovi 22",
    "city": "BARANZATE",
    "zipcode": "20021",
    "countryFullName": "Italy",
    "lng": 9.1105556,
    "lat": 45.5336352
  },
  {
    "slug": "ltdmn-conselice-48017-italy-1",
    "name": "التضامن",
    "image1": "https://cdn.mawaqit.net/images/backend/mosque/028e78d4-11ee-46bf-9879-bc8a89294c99/mosque/1efd31ed-71c6-630c-b4e4-06bada7b305f.jpg",
    "address": "Via giovanni amendola 35",
    "city": "CONSELICE",
    "zipcode": "48017",
    "countryFullName": "Italy",
    "lng": 11.8345936,
    "lat": 44.5088236
  },
  {
    "slug": "msjd-lfth-cortona-52044-italy",
    "name": "مسجد الفتح",
    "image1": "https://cdn.mawaqit.net/images/backend/mosque/957f5623-0c4e-49fc-ae63-9e77e659b1a4/mosque/1efd386b-4631-6e88-872d-0ac178b258e1.jpg",
    "address": "Vial antonio Gramsci,48",
    "city": "CORTONA",
    "zipcode": "52044",
    "countryFullName": "Italy",
    "lng": 11.9806001,
    "lat": 43.256984
  },
  {
    "slug": "msjd-lhkm-cotignola-48033-italy-1",
    "name": "مسجد الحكمة",
    "image1": "https://cdn.mawaqit.net/images/backend/mosque/3be85e2f-dabd-4ebb-bee5-dc8781182b1a/mosque/1efd5087-005a-6b9c-b156-0ac178b258e1.jpg",
    "address": "Piazza G. Mazzini,1",
    "city": "COTIGNOLA",
    "zipcode": "48033",
    "countryFullName": "Italy",
    "lng": 11.56,
    "lat": 44.23
  },
  {
    "slug": "msjd-lutrujwa-lodi-26900-italy",
    "name": "مسجد الأُتْرُجَّة",
    "image1": "https://cdn.mawaqit.net/images/backend/mosque/23cbf544-d470-422f-9dfa-91fe63020789/mosque/1efd586d-a2a3-6d52-8f28-06bada7b305f.png",
    "address": "Via po, 5",
    "city": "LODI",
    "zipcode": "26900",
    "countryFullName": "Italy",
    "lng": 9.5144988,
    "lat": 45.3191392
  },
  {
    "slug": "i-s-0-0-k-masjid-assunnah-tilburg-5011-ee-netherlands",
    "name": "Associazione Musulmani di Bergamo",
    "image1": "https://cdn.mawaqit.net/images/backend/mosque/f3d89738-0e50-484d-8810-95fdfe90e562/mosque/1efe6e35-2274-66a2-8734-0e61b0058d45.jpeg",
    "address": "Via Gabriele Rosa",
    "city": "BERGAMO BG",
    "zipcode": "24125",
    "countryFullName": "Italy",
    "lng": 9.6885166666667,
    "lat": 45.6900944
  },
  {
    "slug": "associazione-arrahma-limbiate-limbiate-20812-italy",
    "name": "Centro Culturale Arrahma  Limbiate",
    "image1": "https://cdn.mawaqit.net/images/backend/mosque/176e10a7-ab43-4504-9cd0-f6663535ef8e/mosque/1efdf049-1954-6ece-bed7-063aa5df5c67.jpg",
    "address": "Via Isonzo",
    "city": "LIMBIATE",
    "zipcode": "20812",
    "countryFullName": "Italy",
    "lng": 9.1324065,
    "lat": 45.6092591
  },
  {
    "slug": "qaid-abdulkhaleq-saleh-ahmed-san-bonifacio-37047-italy",
    "name": "جمعية الأخوة الاجتماعية -Ass.fraternità",
    "image1": "https://cdn.mawaqit.net/images/backend/mosque/af54102b-0147-42e2-bf7d-0a5c386653c6/mosque/1efdf68b-0fc4-6772-960a-063aa5df5c67.png",
    "address": "VIA 1 MAGGIO N 4",
    "city": "SAN BONIFACIO",
    "zipcode": "37047",
    "countryFullName": "Italy",
    "lng": 11.307724129032,
    "lat": 45.388809688198
  },
  {
    "slug": "masjid-al-wifaq-legnago-37045-italy",
    "name": "مسجد الوفاق",
    "image1": "https://cdn.mawaqit.net/images/backend/mosque/4f7dcf2a-a1a4-4752-80fd-bd33465045cb/mosque/1efe099d-5963-6b74-bd07-063aa5df5c67.jpeg",
    "address": "Via della repubblica 9",
    "city": "LEGNAGO",
    "zipcode": "37045",
    "countryFullName": "Italy",
    "lng": 11.3137431,
    "lat": 45.1917266
  },
  {
    "slug": "associazione-noor-mwss-nwr-milano-20138-italy",
    "name": "ASSOCIAZIONE NOOR | مؤسسة نور",
    "image1": "https://cdn.mawaqit.net/images/backend/mosque/ff7adc31-0c3f-4b2d-8f0f-a981855db173/mosque/1efe3f68-bb54-69b8-81d6-0a7d06691847.jpeg",
    "address": "VIA DEGLI UMILIATI 8",
    "city": "MILANO",
    "zipcode": "20138",
    "countryFullName": "Italy",
    "lng": 9.264792375488,
    "lat": 45.443131715773
  },
  {
    "slug": "associazione-culturale-islamica-marscian-marsciano-06055-italy",
    "name": "Asociazione culturale islamica Marsciano",
    "image1": "https://cdn.mawaqit.net/images/backend/mosque/f892d6b4-b260-4145-8786-3837a146b2a0/mosque/1efe6304-ff84-6c22-8904-0a7d06691847.jpg",
    "address": "via carlo poerio 13",
    "city": "MARSCIANO",
    "zipcode": "06055",
    "countryFullName": "Italy",
    "lng": 12.3397558,
    "lat": 42.9079681
  },
  {
    "slug": "moschea-di-palermo-palermo-90134-italy",
    "name": "Moschea di Palermo",
    "image1": "https://cdn.mawaqit.net/images/backend/mosque/fd6e7082-10b6-4138-b564-2aee55015fab/mosque/1efe71ba-a4d6-69fa-8360-0a7d06691847.jpg",
    "address": "Piazza del gran Cancelliere 10",
    "city": "PALERMO",
    "zipcode": "90134",
    "countryFullName": "Italy",
    "lng": 13.359388,
    "lat": 38.115993
  },
  {
    "slug": "associazione-culturale-islamica-di-tv-villorba-31020-italy",
    "name": "Associazione culturale islamica di TV",
    "image1": "https://cdn.mawaqit.net/images/backend/mosque/81791d1c-fd09-4d7d-8ab6-2d8a0331b0b2/mosque/1efea082-f14a-6272-adcc-0e61b0058d45.jpg",
    "address": "Via volta 40",
    "city": "VILLORBA",
    "zipcode": "31020",
    "countryFullName": "Italy",
    "lng": 12.2460934,
    "lat": 45.7247049
  },
  {
    "slug": "associazione-culturale-islamica-onlus-bi-biella-13900-italy",
    "name": "A.C.I.B Onlus Biella Assalam",
    "image1": "https://cdn.mawaqit.net/images/backend/mosque/941b6b5f-f62c-455e-b164-c1d35861724f/mosque/1efead6b-596e-621e-a5fb-06ef9144e88f.png",
    "address": "Via Milano 54",
    "city": "BIELLA",
    "zipcode": "13900",
    "countryFullName": "Italy",
    "lng": 8.0736565,
    "lat": 45.5688633
  },
  {
    "slug": "masjid-lmadina-torino-10155-italy-1",
    "name": "مسجد المدينة تورينو",
    "image1": "https://cdn.mawaqit.net/images/backend/mosque/0e30b247-4df4-42c5-8d39-f4adaf2888da/mosque/1efeb191-b1d4-63fc-9415-06ef9144e88f.jpg",
    "address": "Via Sesia 1",
    "city": "TORINO",
    "zipcode": "10155",
    "countryFullName": "Italy",
    "lng": 7.6896185,
    "lat": 45.0908372
  },
  {
    "slug": "moschea-al-manar-roma-00133-italy",
    "name": "Moschea Al Manar",
    "image1": "https://cdn.mawaqit.net/images/backend/mosque/65faf503-839a-4a90-9643-9dcb23ca5ac7/mosque/1efebd4e-2220-6a62-a2b1-06ef9144e88f.jpg",
    "address": "Via Giuseppe Toraldo, 19",
    "city": "ROMA",
    "zipcode": "00133",
    "countryFullName": "Italy",
    "lng": 12.6200992,
    "lat": 41.8644952
  },
  {
    "slug": "moschea-di-novi-ligure-novi-ligure-15067-italy",
    "name": "Moschea di Novi Ligure",
    "image1": "https://cdn.mawaqit.net/images/backend/mosque/068e5f50-5838-4e96-bd2d-f22405a30653/mosque/1efed53b-b6d7-6fde-a21e-0a7d06691847.jpg",
    "address": "Via Mazzini 90",
    "city": "NOVI LIGURE",
    "zipcode": "15067",
    "countryFullName": "Italy",
    "lng": 8.7896389,
    "lat": 44.7712587
  },
  {
    "slug": "unione-comunita-islamiche-di-curno-curno-24035-italy",
    "name": "Unione comunità islamiche di Curno",
    "image1": "https://cdn.mawaqit.net/images/backend/mosque/ad71b5d6-8376-4a0f-a947-c4a23bae4020/mosque/1eff0443-8fa5-6132-90c6-0a7d06691847.jpg",
    "address": "Via Giacomo Manzù 11",
    "city": "CURNO",
    "zipcode": "24035",
    "countryFullName": "Italy",
    "lng": 9.612404,
    "lat": 45.6923367
  },
  {
    "slug": "associazione-aciv-cassano-valcuvia-21030-italy",
    "name": "Associazione ACIV",
    "image1": "https://cdn.mawaqit.net/images/backend/mosque/8faae858-a742-4c99-8f54-f0f19d4a7303/mosque/1eff1482-739d-6e90-be28-06ef9144e88f.jpg",
    "address": "Via Provinciale, 1140",
    "city": "CASSANO VALCUVIA",
    "zipcode": "21030",
    "countryFullName": "Italy",
    "lng": 8.7718214,
    "lat": 45.9390765
  },
  {
    "slug": "associazione-es-salam-vestone-bs-25078-italy",
    "name": "Associazione Es-Salam",
    "image1": "https://cdn.mawaqit.net/images/backend/mosque/2f2ee6b3-af0a-4781-ad91-8a3ebb8a84ec/mosque/1eff1bf4-3cc5-6fb6-8abe-0a7d06691847.jpg",
    "address": "Via M. Bettinzoli 25",
    "city": "VESTONE (BS)",
    "zipcode": "25078",
    "countryFullName": "Italy",
    "lng": 10.4054652,
    "lat": 45.7110117
  },
  {
    "slug": "al-baraka-fornaci-di-barga-55051-italy",
    "name": "مسجد البركة",
    "image1": "https://cdn.mawaqit.net/images/backend/mosque/901c6958-9e2d-4897-8e81-2c1f907bcf3f/mosque/1eff1e14-4fba-69b0-b43c-0a7d06691847.jpg",
    "address": "via traversa 9",
    "city": "FORNACI DI BARGA",
    "zipcode": "55051",
    "countryFullName": "Italy",
    "lng": 10.4755408,
    "lat": 44.0478381
  },
  {
    "slug": "associazione-culturale-markazul-islam-ancona-60128-italy",
    "name": "ASSOCIAZIONE CULTURALE MARKAZUL ISLAM",
    "image1": "https://cdn.mawaqit.net/images/backend/mosque/1150dccd-84c7-4179-9a83-78eb644c7d74/mosque/1eff20ac-4647-6672-bd75-0a7d06691847.jpeg",
    "address": "Via lauro rossi  12",
    "city": "ANCONA",
    "zipcode": "60128",
    "countryFullName": "Italy",
    "lng": 13.5085277,
    "lat": 43.6042831
  },
  {
    "slug": "centro-culturale-masjid-enteimako-grumolo-delle-abbadesse-36040-italy",
    "name": "CENTRO CULTURALE",
    "image1": "https://cdn.mawaqit.net/images/backend/mosque/047bb7e0-f714-4c7a-a675-b12a394af334/mosque/1eff792b-6b7a-6ab6-963a-0eae332a1b31.jpg",
    "address": "Via Roma 2",
    "city": "GRUMOLO DELLE ABBADESSE",
    "zipcode": "36040",
    "countryFullName": "Italy",
    "lng": 11.6591269,
    "lat": 45.5208208
  },
  {
    "slug": "centro-culturale-islamico-al-huda-jesi-60035-italy",
    "name": "Centro Culturale Islamico Al Huda",
    "image1": "https://cdn.mawaqit.net/images/backend/mosque/b8d916b7-dda5-407b-9b92-f7853bf5f6cb/mosque/1eff910d-0c42-68ce-b295-0e4fa23cf9cb.jpg",
    "address": "Via del Cascamificio 19/b",
    "city": "JESI",
    "zipcode": "60035",
    "countryFullName": "Italy",
    "lng": 13.2540296,
    "lat": 43.5233485
  },
  {
    "slug": "masjid-arrahma-lavezzola-48017-italy-1",
    "name": "مسجد الرحمة",
    "image1": "https://cdn.mawaqit.net/images/backend/mosque/6b52adb8-bf01-4688-9b41-7a5e5088a7ae/mosque/1eff9f56-c56b-6e66-97f4-0e4fa23cf9cb.jpg",
    "address": "Via Bellagrande 32",
    "city": "LAVEZZOLA",
    "zipcode": "48017",
    "countryFullName": "Italy",
    "lng": 11.8857483,
    "lat": 44.5627744
  },
  {
    "slug": "associazione-convivenza-verona-37135-italy",
    "name": "Associazione Convivenza",
    "image1": "https://cdn.mawaqit.net/images/backend/mosque/66fba883-d0f1-4a6d-873a-f43f829a82ab/mosque/1effad69-d7e0-64cc-afe7-06ef9144e88f.jpg",
    "address": "Via Antonio Pacinotti 5",
    "city": "VERONA",
    "zipcode": "37135",
    "countryFullName": "Italy",
    "lng": 10.9733885,
    "lat": 45.4060235
  },
  {
    "slug": "centro-rayan-torino-torino-10148-italy",
    "name": "Centro rayan Torino مسجد الريان",
    "image1": "https://cdn.mawaqit.net/images/backend/mosque/eec03db3-c6f5-407f-855e-5ac8c6a19198/mosque/1effc054-645d-6d30-bd64-0e4fa23cf9cb.png",
    "address": "Via Enrico Reycend, 51, 10148 Torino TO",
    "city": "TORINO",
    "zipcode": "10148",
    "countryFullName": "Italy",
    "lng": 7.6703466,
    "lat": 45.1088096
  },
  {
    "slug": "moschea-arrahman-campli-64012-italy",
    "name": "MOSCHEA  ARRAHMAN",
    "image1": "https://cdn.mawaqit.net/images/backend/mosque/46d7570f-f6f1-499d-ab6f-c530e3fcc0cb/mosque/1effdd12-fb4a-60ba-88f5-0e61b0058d45.jpg",
    "address": "Zona artigianale Villa Camera",
    "city": "CAMPLI",
    "zipcode": "64012",
    "countryFullName": "Italy",
    "lng": 13.7358459,
    "lat": 42.7478692
  },
  {
    "slug": "moschea-mirandola-mirandola-41037-italy",
    "name": "مسجد الإخلاص بميراندولا",
    "image1": "https://cdn.mawaqit.net/images/backend/mosque/762831a8-0338-4cf8-b252-73981f363371/mosque/1effc689-9ed2-6642-81ca-06ef9144e88f.jpeg",
    "address": "Via serafina19",
    "city": "MIRANDOLA",
    "zipcode": "41037",
    "countryFullName": "Italy",
    "lng": 11.0634524,
    "lat": 44.8865488
  },
  {
    "slug": "msjd-lslm-moschea-assalam-castelnuovo-scrivia-al-15053-italy",
    "name": "مسجدAssalam السلام  Castelnuovo.s(AL)",
    "image1": "https://cdn.mawaqit.net/images/backend/mosque/f236d398-2c37-4171-a828-768bf8639d00/mosque/1effdd13-2865-67fc-86b9-06ef9144e88f.jpg",
    "address": "Viale scrivia  n 6",
    "city": "CASTELNUOVO SCRIVIA AL",
    "zipcode": "15053",
    "countryFullName": "Italy",
    "lng": 8.8766976,
    "lat": 44.9835802
  },
  {
    "slug": "msjd-lnwr-carignano-10041-italy",
    "name": "مسجد النور",
    "image1": "https://cdn.mawaqit.net/images/backend/mosque/221dfe11-ca84-499b-b80b-15a171c89e36/mosque/1effdfc4-b524-6c48-bc9b-06ef9144e88f.jpeg",
    "address": "corso cesare batistti 52",
    "city": "CARIGNANO",
    "zipcode": "10041",
    "countryFullName": "Italy",
    "lng": 7.676699,
    "lat": 44.9113163
  },
  {
    "slug": "giovani-per-il-bene-fondazione-ets-san-donato-milanese-20097-italy",
    "name": "Giovani Per Il Bene Fondazione ETS",
    "image1": "https://cdn.mawaqit.net/images/backend/mosque/22e85fe8-a78b-4452-82c1-7566c92ed3e5/mosque/1f000f22-41d5-63f4-b053-06bdda781935.jpg",
    "address": "Via bruno buozzi, 33",
    "city": "SAN DONATO MILANESE",
    "zipcode": "20097",
    "countryFullName": "Italy",
    "lng": 9.257074,
    "lat": 45.4117168
  },
  {
    "slug": "masjid-tahwid-lonate-pozzolo-21015-italy",
    "name": "Associazione Culturale Educativa",
    "image1": "https://cdn.mawaqit.net/images/backend/mosque/d79318fd-d6bd-40ae-a79e-9ee6c01027b5/mosque/1f00263a-4fc3-6d60-af45-0e61b0058d45.jpeg",
    "address": "Via Montello 2",
    "city": "LONATE POZZOLO",
    "zipcode": "21015",
    "countryFullName": "Italy",
    "lng": 8.7586409,
    "lat": 45.5848554
  },
  {
    "slug": "centro-culturale-islamico-la-speranza-castel-goffredo-46042-italy",
    "name": "CASTEL GOFFREDO  مسجد",
    "image1": "https://cdn.mawaqit.net/images/backend/mosque/a134eaae-5d64-4aa5-9741-e113316591a5/mosque/1f0026b0-ac87-65a8-b26c-0e61b0058d45.jpeg",
    "address": "via Austria n. 11/13",
    "city": "CASTEL GOFFREDO",
    "zipcode": "46042",
    "countryFullName": "Italy",
    "lng": 10.468765,
    "lat": 45.2876531
  },
  {
    "slug": "mosquee-ettuba-frosinone-03100-italy",
    "name": "Moschea Ettuba مسجد التوبة",
    "image1": "https://cdn.mawaqit.net/images/backend/mosque/9c4162f8-3ae1-4dbc-8e89-0444fb3c7f20/mosque/1f00427c-3bf1-64f0-bced-0656c8e7198d.jpg",
    "address": "via maria n320",
    "city": "FROSINONE",
    "zipcode": "03100",
    "countryFullName": "Italy",
    "lng": 13.3543122,
    "lat": 41.6533502
  },
  {
    "slug": "noor-merano-39012-italy",
    "name": "Moschea Noor",
    "image1": "https://cdn.mawaqit.net/images/backend/mosque/504f4c59-2f24-4122-bd0b-2c96ce21d8af/mosque/1f0067b2-bf69-6e12-9628-0a2e1c0b5725.jpg",
    "address": "Via Luis Zuegg, 68d, 39012 Merano BZ",
    "city": "MERANO",
    "zipcode": "39012",
    "countryFullName": "Italy",
    "lng": 11.1461728,
    "lat": 46.6603315
  },
  {
    "slug": "moschea-al-rahma-albamsjd-lrhm-fy-lb-alba-12051-italy",
    "name": "Moschea Al Rahma ALBAمسجد الرحمة في البا",
    "image1": "https://cdn.mawaqit.net/images/backend/mosque/24e63b53-4fff-4351-9e30-6b4cf6730754/mosque/1f008e35-8647-6d56-bdf5-0a14129c203d.jpg",
    "address": "Corso Europa 92/1",
    "city": "ALBA",
    "zipcode": "12051",
    "countryFullName": "Italy",
    "lng": 8.0264999,
    "lat": 44.6950062
  },
  {
    "slug": "la-misericordia-a-p-s-bagnolo-san-vito-46031-italy",
    "name": "La MISERICORDIA A.P.S",
    "image1": "https://cdn.mawaqit.net/images/backend/mosque/09b44dcf-d454-435c-9f18-d691ed98a231/mosque/1f00910b-0d7b-6336-993a-06bdda781935.jpg",
    "address": "Via Giuseppe Di Vittorio 29",
    "city": "BAGNOLO SAN VITO",
    "zipcode": "46031",
    "countryFullName": "Italy",
    "lng": 10.8474388,
    "lat": 45.0959691
  },
  {
    "slug": "centro-culturale-assalam-pontedera-pontedera-56025-italy",
    "name": "Centro culturale Assalam",
    "image1": "https://cdn.mawaqit.net/images/backend/mosque/60668c5d-74fd-4c0a-b97b-2d666eff03ca/mosque/1f00ce9b-6c06-655e-862c-0e61b0058d45.png",
    "address": "Via dei Pratacci 14",
    "city": "PONTEDERA",
    "zipcode": "56025",
    "countryFullName": "Italy",
    "lng": 10.64896,
    "lat": 43.6685651
  },
  {
    "slug": "centro-culturale-islamico-assonna-noventa-vicentina-36025-italy",
    "name": "،مسجد السنة",
    "image1": "https://cdn.mawaqit.net/images/backend/mosque/cea03bf4-344f-4498-8752-29ac91802350/mosque/1f00d659-47d3-6b30-a7d9-0e4fa23cf9cb.jpg",
    "address": "Via delle arti ,12",
    "city": "NOVENTA VICENTINA",
    "zipcode": "36025",
    "countryFullName": "Italy",
    "lng": 11.5322935,
    "lat": 45.288654
  },
  {
    "slug": "centro-islamico-motta-di-livenza-31045-italy",
    "name": "الجمعية الثقافية الإسلامية موطا",
    "image1": "https://cdn.mawaqit.net/images/backend/mosque/63165f0a-bb1b-4324-9345-5142aac25d3a/mosque/1f0139b2-bb8c-6bf0-b911-0e61b0058d45.jpg",
    "address": "via cadamure 8  BIS",
    "city": "MOTTA DI LIVENZA",
    "zipcode": "31045",
    "countryFullName": "Italy",
    "lng": 12.6194365,
    "lat": 45.7550845
  },
  {
    "slug": "msjd-rwftw-rovato-25038-italy",
    "name": "جمعية الاخوة",
    "image1": "https://cdn.mawaqit.net/images/backend/mosque/d7e9a576-c0b6-4b61-8641-e09bcbf30465/mosque/1f01572c-9ece-69f4-b279-0e61b0058d45.jpeg",
    "address": "Via Europa 52",
    "city": "ROVATO",
    "zipcode": "25038",
    "countryFullName": "Italy",
    "lng": 9.9965291,
    "lat": 45.5542416
  },
  {
    "slug": "associazione-pace-san-giovanni-valdarno-san-giovanni-valdarno-52027-italy",
    "name": "Associazione Pace San Giovanni Valdarno",
    "image1": "https://cdn.mawaqit.net/images/backend/mosque/f79d2785-009f-4108-a317-74b90cb78c84/mosque/1f01a049-0a62-6e94-b3e6-06bdda781935.jpg",
    "address": "Via Firenze, 50, San Giovanni Valdarno, AR, Italia",
    "city": "SAN GIOVANNI VALDARNO",
    "zipcode": "52027",
    "countryFullName": "Italy",
    "lng": 11.5285092,
    "lat": 43.5707041
  },
  {
    "slug": "moschea-di-livorno-livorno-57121-italy",
    "name": "Moschea di Livorno",
    "image1": "https://cdn.mawaqit.net/images/backend/mosque/cfe6b22f-9164-4fc0-8734-23271e1d244a/mosque/1f01bc85-6a3c-6a06-88c7-0e61b0058d45.jpg",
    "address": "Via Gian Battista Guarini, 14a, Livorno, LI, Italia",
    "city": "LIVORNO",
    "zipcode": "57121",
    "countryFullName": "Italy",
    "lng": 10.3407614,
    "lat": 43.5635002
  },
  {
    "slug": "viareggio-centro-jame-moschea-viareggio-55049-italy",
    "name": "Viareggio Centro Jame Moschea",
    "image1": "https://cdn.mawaqit.net/images/backend/mosque/611c6935-d376-46df-8e7a-abe67965fffb/mosque/1f02d0e6-8497-6a7e-b926-0ac08f730885.jpeg",
    "address": "Via delle Catene, 28, Viareggio, LU, Italia",
    "city": "VIAREGGIO",
    "zipcode": "55049",
    "countryFullName": "Italy",
    "lng": 10.2559918,
    "lat": 43.8675479
  },
  {
    "slug": "altruismo-di-corsico-corsico-20094-italy",
    "name": "Altruismo di Corsico",
    "image1": "https://cdn.mawaqit.net/images/backend/mosque/6dd3ba1d-d273-413e-969b-f1de14c81959/mosque/1f01dfec-b3ef-63c6-b7c1-06bdda781935.jpg",
    "address": "Via Cristoforo Colombo, 6, Corsico, MI, Italia",
    "city": "CORSICO",
    "zipcode": "20094",
    "countryFullName": "Italy",
    "lng": 9.1062715,
    "lat": 45.4484279
  },
  {
    "slug": "associazione-islamica-tradate-tradate-21049-italy-2",
    "name": "associazione islamica tradate",
    "image1": "https://cdn.mawaqit.net/images/backend/mosque/af732f7d-9faf-48ff-abcd-2b3bd1c26cd7/mosque/1f01ebd1-735c-6e1c-9035-0e61b0058d45.jpg",
    "address": "Via Chiesa Damiano, 21, Tradate, مقاطعة فاريزي، إيطاليا",
    "city": "TRADATE",
    "zipcode": "21049",
    "countryFullName": "Italy",
    "lng": 8.9087306,
    "lat": 45.7074077
  },
  {
    "slug": "ar-rayan-trieste-34125-italy",
    "name": "Moschea Ar-Rayan -  مسجد الريان",
    "image1": "https://cdn.mawaqit.net/images/backend/mosque/85ae67fe-616d-4f6b-b635-f39e391b736e/mosque/1f021b12-5c3a-6502-9977-0ac73cfd41db.jpg",
    "address": "Via della Maiolica, 17a, Trieste, TS, Italia",
    "city": "TRIESTE",
    "zipcode": "34125",
    "countryFullName": "Italy",
    "lng": 13.7796745,
    "lat": 45.6497067
  },
  {
    "slug": "msjd-lnwr-pontecurone-15055-italy-1",
    "name": "مسجد النور",
    "image1": "https://cdn.mawaqit.net/images/backend/mosque/e46f945c-73cf-4379-b9db-96c7ecbfe708/mosque/1f021e64-1201-6a1c-86d4-0ac73cfd41db.jpg",
    "address": "Via Santa Maria delle grazie 19",
    "city": "PONTECURONE",
    "zipcode": "15055",
    "countryFullName": "Italy",
    "lng": 8.9309812,
    "lat": 44.9596127
  },
  {
    "slug": "masdjid-parma-parma-43122-italy",
    "name": "المركز الإسلامي لمدينة بارما وضواحيها",
    "image1": "https://cdn.mawaqit.net/images/backend/mosque/a213dbb3-be5c-4c41-bc7a-333e8faa3235/mosque/1f022e36-545e-60cc-83a3-06bdda781935.jpg",
    "address": "Via Pietro Campanini, Parma, PR, Italia",
    "city": "PARMA",
    "zipcode": "43122",
    "countryFullName": "Italy",
    "lng": 10.3529804,
    "lat": 44.8109732
  },
  {
    "slug": "associazione-culturale-italo-araba-di-le-legnano-20025-italy",
    "name": "Associazione culturale italo araba",
    "image1": "https://cdn.mawaqit.net/images/backend/mosque/0c63ba62-1800-47a2-a176-684a2e1ab4ce/mosque/1f037313-e7a8-6c92-b24a-0630793f08f7.jpg",
    "address": "Via XX Settembre, 96, Legnano, Milan, Italie",
    "city": "LEGNANO",
    "zipcode": "20025",
    "countryFullName": "Italy",
    "lng": 8.9111664,
    "lat": 45.5834688
  },
  {
    "slug": "lmrkz-lthqfy-w-lslmy-lnwr-malcantone-46028-italy",
    "name": "المركز الثقافي و الإسلامي النور",
    "image1": "https://cdn.mawaqit.net/images/backend/mosque/286a8c5b-32af-45c5-9787-3f6d0fdc3b86/mosque/1f025ee6-dec5-6d24-a4e1-0ac73cfd41db.jpg",
    "address": "Via Ludovico Ariosto, 241, Malcantone, MN, Italia",
    "city": "MALCANTONE",
    "zipcode": "46028",
    "countryFullName": "Italy",
    "lng": 11.2438949,
    "lat": 44.9602907
  },
  {
    "slug": "associazione-culturale-al-nur-italia-milano-20124-italy",
    "name": "Associazione Hazi Shariatullah",
    "image1": "https://cdn.mawaqit.net/images/backend/mosque/ab9c2c88-d648-4a9f-8e79-761a4b77ec82/mosque/1f026047-7856-65f4-b7ab-0e61b0058d45.jpg",
    "address": "Via Giacomo Carissimi, 19, 20124 Milano, Milano Metropolitan City of Milan, Italy",
    "city": "MILANO",
    "zipcode": "20124",
    "countryFullName": "Italy",
    "lng": 9.2008732,
    "lat": 45.4915357
  },
  {
    "slug": "masjid-ennour-ancona-60126-italy",
    "name": "Masjid Alnour - مسجد النور",
    "image1": "https://cdn.mawaqit.net/images/backend/mosque/36e76bfb-6fc1-4cb3-9e99-ab635a367233/mosque/1f027922-c7d7-6a8a-9e28-0aae5cc50e23.jpg",
    "address": "Via Dalmazia, 60",
    "city": "ANCONA",
    "zipcode": "60126",
    "countryFullName": "Italy",
    "lng": 13.5006576,
    "lat": 43.6057537
  },
  {
    "slug": "moschea-della-pace-vercelli-13100-italy",
    "name": "Moschea della Pace",
    "image1": "https://cdn.mawaqit.net/images/backend/mosque/acf9e57c-7e14-4eee-9103-2409d6948c43/mosque/1f029045-344a-6e4a-b0fb-0aa0def8c88b.jpg",
    "address": "Corso Papa Giovanni Paolo II, Vercelli, VC, Italia",
    "city": "VERCELLI",
    "zipcode": "13100",
    "countryFullName": "Italy",
    "lng": 8.4371037,
    "lat": 45.3130654
  },
  {
    "slug": "associazione-italo-araba-di-legnano-legnano-20025-italy-1",
    "name": "Associazione italo araba di Legnano",
    "image1": "https://cdn.mawaqit.net/images/backend/mosque/9ce2c88c-a2ee-4f39-917c-15056d4ad8dd/mosque/1f02c0b8-dad9-6f7e-8c41-0ab233a5b545.jpg",
    "address": "Via XX Settembre, 96, Legnano, MI, Italia",
    "city": "LEGNANO",
    "zipcode": "20025",
    "countryFullName": "Italy",
    "lng": 8.9111664,
    "lat": 45.5834688
  },
  {
    "slug": "lmrkz-lthqfy-lslmy-kwmysw-comiso-97013-italy",
    "name": "المركز الثقافي الإسلامي كوميسو",
    "image1": "https://cdn.mawaqit.net/images/backend/mosque/1d43f7a9-7b72-481e-93c5-8cb7962a2baa/mosque/1f02e705-d4a1-6e86-86dc-0e562460e637.jpg",
    "address": "45 ,Via Alfonso F. La marmora",
    "city": "COMISO",
    "zipcode": "97013",
    "countryFullName": "Italy",
    "lng": 14.6037762,
    "lat": 36.9473654
  },
  {
    "slug": "la-fratellanza-aps-vallese-37050-italy",
    "name": "LA FRATELLANZA APS",
    "image1": "https://cdn.mawaqit.net/images/backend/mosque/e445f6fa-132e-4ec0-bfcb-b5cded64b3c4/mosque/1f02f685-3fdf-6476-adc0-06d617d5cc55.jpg",
    "address": "Via Spinetti, 148, Vallese, VR, Italia",
    "city": "VALLESE",
    "zipcode": "37050",
    "countryFullName": "Italy",
    "lng": 11.091144,
    "lat": 45.32595
  },
  {
    "slug": "associazione-culturale-islamica-el-burak-como-22100-italy",
    "name": "associazione culturale islamica el burak",
    "image1": "https://cdn.mawaqit.net/images/backend/mosque/f232fa97-4974-41c8-a50f-55cb16c771e3/mosque/1f032825-d910-6632-bf52-0e325d5c4035.jpg",
    "address": "Via Marco Cumano, كومو، مقاطعة كومو، إيطاليا41",
    "city": "COMO",
    "zipcode": "22100",
    "countryFullName": "Italy",
    "lng": 9.0885374,
    "lat": 45.7870572
  },
  {
    "slug": "associazione-culturale-islamica-el-burak-como-22100-italy-1",
    "name": "associazione culturale islamica el burak",
    "image1": "https://cdn.mawaqit.net/images/backend/mosque/8d277a88-0fbb-4078-ba2a-243ab40175fc/mosque/1f033132-58fd-6a92-a29e-0e325d5c4035.jpg",
    "address": "Via Marco Cumano, 41, Como, مقاطعة كومو، إيطاليا",
    "city": "COMO",
    "zipcode": "22100",
    "countryFullName": "Italy",
    "lng": 9.0873121,
    "lat": 45.7856899
  },
  {
    "slug": "centro-islamico-culturale-di-perugia-perugia-06129-italy",
    "name": "Centro islamico culturale di perugia",
    "image1": "https://cdn.mawaqit.net/images/backend/mosque/61146143-7dd8-4e10-a291-aa9b1288189b/mosque/1f033c9c-c3dc-61ae-978e-0a3d2d454b8f.jpeg",
    "address": "Via Pietro Carattoli, Perugia, PG, Italia",
    "city": "PERUGIA",
    "zipcode": "06129",
    "countryFullName": "Italy",
    "lng": 12.3705395,
    "lat": 43.0934912
  },
  {
    "slug": "dar-al-iman-torino-10154-italy-1",
    "name": "Dar Al-Iman",
    "image1": "https://cdn.mawaqit.net/images/backend/mosque/226ea390-d76a-449c-9180-825627b3f3f4/mosque/1f033b2b-2091-635e-a4b1-062b68c2166d.jpg",
    "address": "Via Sandro Botticelli, 55, Torino, TO, Italia",
    "city": "TORINO",
    "zipcode": "10154",
    "countryFullName": "Italy",
    "lng": 7.7016507,
    "lat": 45.102169
  },
  {
    "slug": "centro-culturale-islamico-iqraa-bologna-40128-italy",
    "name": "Centro culturale islamico IQRAA",
    "image1": "https://cdn.mawaqit.net/images/backend/mosque/42fb2f6d-54c9-4a1e-91f5-4000cad582e5/mosque/1f034438-de0b-668a-9d5c-0a3d2d454b8f.jpg",
    "address": "Via Jacopo di Paolo, 32, Bologna, BO, Italia",
    "city": "BOLOGNA",
    "zipcode": "40128",
    "countryFullName": "Italy",
    "lng": 11.352186,
    "lat": 44.5208927
  },
  {
    "slug": "msjd-kwlwny-cologne-25033-italy",
    "name": "Moschea di Cologne",
    "image1": "https://cdn.mawaqit.net/images/backend/mosque/4d932f17-d5c2-4db4-9ede-f1ed49420783/mosque/1f035921-e027-6556-adfc-0a8428051ce1.png",
    "address": "Via Liguria, 38, Cologne, BS, Italia",
    "city": "COLOGNE",
    "zipcode": "25033",
    "countryFullName": "Italy",
    "lng": 9.9423589,
    "lat": 45.581139
  },
  {
    "slug": "ass-el-khattab-di-este-este-35042-italy",
    "name": "Ass. El Khattab di Este",
    "image1": "https://cdn.mawaqit.net/images/backend/mosque/7bc357c8-e8dd-4f61-8c6c-610510647f6f/mosque/1f036806-a2a8-6fc4-9581-0a49bdd020ed.jpg",
    "address": "Via Atheste, 44, Este, مقاطعة بادوفا، إيطاليا",
    "city": "ESTE",
    "zipcode": "35042",
    "countryFullName": "Italy",
    "lng": 11.6808506,
    "lat": 45.2190176
  },
  {
    "slug": "centro-culturale-islamico-di-sermide-sermide-46028-italy",
    "name": "Centro Culturale islamico di Sermide",
    "image1": "https://cdn.mawaqit.net/images/backend/mosque/24c29172-0e2a-474b-adcb-04db7219a160/mosque/1f03757c-c03e-663c-b4ae-0acbbde44e7f.jpeg",
    "address": "Via XXIV Aprile, 38, Sermide, MN, Italia",
    "city": "SERMIDE",
    "zipcode": "46028",
    "countryFullName": "Italy",
    "lng": 11.296125,
    "lat": 45.0093997
  },
  {
    "slug": "moschea-ennur-piadena-26034-italy",
    "name": "MOSCHEA ENNUR",
    "image1": "https://cdn.mawaqit.net/images/backend/mosque/07039ecc-e88b-4d04-a6f4-106121539ccb/mosque/1f0394a3-a319-61ce-ae68-0abb1d73129d.jpg",
    "address": "Via Nino Bixio, 1, Piadena, CR, Italia",
    "city": "PIADENA",
    "zipcode": "26034",
    "countryFullName": "Italy",
    "lng": 10.3660493,
    "lat": 45.1319061
  },
  {
    "slug": "lmrkz-lthqfy-lslmy-lmnr-soresina-26015-italy",
    "name": "المركز الثقافي الإسلامي المنار",
    "image1": "https://cdn.mawaqit.net/images/backend/mosque/b42d8f04-a96d-42db-81b9-3863861d2df7/mosque/1f03a772-2d0f-6f32-873d-0611a4e5dd55.jpeg",
    "address": "Via Cremona, 8, Soresina Province of Cremona, Italy",
    "city": "SORESINA",
    "zipcode": "26015",
    "countryFullName": "Italy",
    "lng": 9.867794,
    "lat": 45.2864932
  },
  {
    "slug": "massjid-alghofrane-racconigi-12035-italy",
    "name": "Massjid alghofrane",
    "image1": "https://cdn.mawaqit.net/images/backend/mosque/5165e0d4-cf5e-4c46-93cb-2253d4268fe0/mosque/1f03e3e4-a813-60cc-8bf3-0a26bfab197b.jpg",
    "address": "Via Fossati, 25, Racconigi, CN, Italia",
    "city": "RACCONIGI",
    "zipcode": "12035",
    "countryFullName": "Italy",
    "lng": 7.6761099,
    "lat": 44.7633627
  },
  {
    "slug": "associazione-culturale-islamica-asar-cittadella-35013-italy",
    "name": "ASSOCIAZIONE CULTURALE ISLAMICA ASAR",
    "image1": "https://cdn.mawaqit.net/images/backend/mosque/814868d5-a74d-4b5e-adb2-7435f3547801/mosque/1f03f230-7db0-6208-8ac0-0a26bfab197b.jpg",
    "address": "Via Giovanni Pascoli, 53, Cittadella, PD, Italia",
    "city": "CITTADELLA",
    "zipcode": "35013",
    "countryFullName": "Italy",
    "lng": 11.7675183,
    "lat": 45.6428435
  }
]