[
  {
    "slug": "masjid-cheikh-ahmed-lbaza-zlitn-1004-libya",
    "name": "مسجد الشيخ أحمد البازة",
    "image1": "https://cdn.mawaqit.net/images/backend/mosque/09e6d6a6-a384-4abf-9e09-593b8c9542b8/mosque/1eea8ea6-fbd7-6750-be86-066ed47a7584.jpg",
    "address": "البازة زليتن",
    "city": "زليتن",
    "zipcode": "1004",
    "countryFullName": "Libya",
    "lng": 14.5628506,
    "lat": 32.4799331
  },
  {
    "slug": "17962",
    "name": "مسجد حطين - صبراته",
    "image1": "https://cdn.mawaqit.net/images/backend/mosque/eda26a8f-8a9d-4155-bad0-35a98eae84c2/mosque/1efc8d0d-50fb-6a6c-9f71-0e61b0058d45.png",
    "address": "النهضة",
    "city": "صبراته",
    "zipcode": "45113",
    "countryFullName": "Libya",
    "lng": 12.4495221,
    "lat": 32.7811016
  },
  {
    "slug": "masjid-lredouane-trabless-21822-libya",
    "name": "مسجد الرضوان - غوط الشعال",
    "image1": "https://cdn.mawaqit.net/images/backend/mosque/9ac1816d-3836-46d9-b34b-8ad114a5be8f/mosque/1eea8eba-0448-66e2-bf79-066ed47a7584.jpg",
    "address": "غوط الشعال",
    "city": "طرابلس",
    "zipcode": "21822",
    "countryFullName": "Libya",
    "lng": 13.093128204346,
    "lat": 32.847514001913
  },
  {
    "slug": "18629",
    "name": "مسجد بئر الكرمة",
    "image1": "https://cdn.mawaqit.net/images/backend/mosque/70b4c499-956b-4ccf-af8f-d80b65d42bb0/mosque/1efa2811-9bc3-6030-9e9d-0e9d077f5bb1.jpeg",
    "address": "Surman",
    "city": "SABRATHA",
    "zipcode": "21821",
    "countryFullName": "Libya",
    "lng": 12.5642261,
    "lat": 32.7473047
  },
  {
    "slug": "19992",
    "name": "مسجد النصر",
    "image1": "https://cdn.mawaqit.net/images/backend/mosque/dd58c9b2-84ba-4b57-9cdc-df434ae526c1/mosque/1efdcc2b-964d-686e-8aa6-063aa5df5c67.png",
    "address": "الفتحلية",
    "city": "صبراته",
    "zipcode": "1990",
    "countryFullName": "Libya",
    "lng": 12.4495221,
    "lat": 32.7811016
  },
  {
    "slug": "masjid-lmoujahid-lhaj-moukhtar-zlitn-522-libya",
    "name": "مسجد المجاهد الحاج مختار علي خليل العاتي",
    "image1": "https://cdn.mawaqit.net/images/backend/mosque/e3d1f71e-82c4-4f24-ae2b-6f352d259852/mosque/1eed32d0-9067-6134-a304-0ede686d7942.jpeg",
    "address": "زليتن طريق الساحلي",
    "city": "زليتن",
    "zipcode": "522",
    "countryFullName": "Libya",
    "lng": 14.676641,
    "lat": 32.4326383
  },
  {
    "slug": "22270",
    "name": "مسجد صبراته العتيق",
    "image1": "https://cdn.mawaqit.net/images/backend/mosque/9501d76b-22e0-4558-b986-01fb401d4d4f/mosque/1efe155c-e488-6c8e-8704-0ac178b258e1.png",
    "address": "المدينة",
    "city": "صبراته",
    "zipcode": "026",
    "countryFullName": "Libya",
    "lng": 12.4495221,
    "lat": 32.7811016
  },
  {
    "slug": "jamii-chlabi-lzawia-1123-libya",
    "name": "جامع شلابي",
    "image1": "https://cdn.mawaqit.net/images/backend/mosque/df282c85-da79-4b7a-9fc4-1fe2390610dd/mosque/1ef04003-8e8a-6846-a415-0e8f4a8ce035.jpg",
    "address": "الزاوية شارع الحارة ليبيا",
    "city": "الزاوية",
    "zipcode": "1123",
    "countryFullName": "Libya",
    "lng": 12.7234379,
    "lat": 32.7628653
  },
  {
    "slug": "abouchiifa-msrta-51-libya",
    "name": "مسجد أبوشعيفة",
    "image1": "https://cdn.mawaqit.net/images/backend/mosque/fe7b6fae-d0b9-4dc6-919f-c5e8f5351f96/mosque/1ef1bf76-5e55-6452-bb6b-0e16b454dc53.jpg",
    "address": "قصر أحمد",
    "city": "مصراتة - ليبيا",
    "zipcode": "51",
    "countryFullName": "Libya",
    "lng": 15.1406539,
    "lat": 32.3706927
  },
  {
    "slug": "lharamin-charifin-sbarta-24-libya",
    "name": "مسجد الحرمين",
    "image1": "https://cdn.mawaqit.net/images/backend/mosque/695d30b8-0e5b-499b-b249-eb33f126242b/mosque/1ef1dbb6-b440-6e82-9735-0acd791c875b.jpg",
    "address": "صبراتة ليبيا",
    "city": "صبراتة",
    "zipcode": "24",
    "countryFullName": "Libya",
    "lng": 12.476623,
    "lat": 32.79177
  },
  {
    "slug": "masjid-khadija-lkobra-sbrata-24-libya",
    "name": "مسجد خديجة رضي الله عنها",
    "image1": "https://cdn.mawaqit.net/images/backend/mosque/cb9a517f-b316-4d6f-bf9f-a0a02548bfc3/mosque/1ef36a0c-8559-6bd8-85f5-0a67bcb0d635.jpg",
    "address": "صبراتة ليبيا",
    "city": "صبراتة",
    "zipcode": "24",
    "countryFullName": "Libya",
    "lng": 12.4495221,
    "lat": 32.7811016
  },
  {
    "slug": "masjid-lmsila-lqrha-bouli-218-libya",
    "name": "مسجد المسيلة",
    "image1": "https://cdn.mawaqit.net/images/backend/mosque/2d8837d9-d802-4219-a09e-9ebd9ef88a65/mosque/1ef3b8e2-fdb6-653e-b479-0a67bcb0d635.jpg",
    "address": "قصر الأخيار",
    "city": "القره بولي",
    "zipcode": "218",
    "countryFullName": "Libya",
    "lng": 13.7167853,
    "lat": 32.7443171
  },
  {
    "slug": "masjid-lmokhloson-laajilat-2-libya",
    "name": "مسجد المخلصين",
    "image1": "https://cdn.mawaqit.net/images/backend/mosque/a6ed887e-afc8-4c8e-beda-38022c67bbbb/mosque/1ef41eef-55a3-6b30-8b95-0600dbafaeef.jpg",
    "address": "في العجيلات طريق السكه",
    "city": "العجيلات",
    "zipcode": "2",
    "countryFullName": "Libya",
    "lng": 12.3849328,
    "lat": 32.7670709
  },
  {
    "slug": "masjid-khalid-bn-lwalid-sbrata-24-libya",
    "name": "مسجد خالد بن الوليد",
    "image1": "https://cdn.mawaqit.net/images/backend/mosque/42fd5436-4383-4db8-97e8-b8c72e288c84/mosque/1ef477a3-1e46-659a-b13f-0eccd22c0f01.jpg",
    "address": "دحمان",
    "city": "صبراتة",
    "zipcode": "24",
    "countryFullName": "Libya",
    "lng": 12.4495221,
    "lat": 32.7811016
  },
  {
    "slug": "ltawba-trables-24-libya",
    "name": "التوبة",
    "image1": "https://cdn.mawaqit.net/images/backend/mosque/9c1dab58-c278-4b0f-a2dc-07173b1769ba/mosque/1ef4beea-8113-67de-9350-0eccd22c0f01.jpg",
    "address": "الحكيلي",
    "city": "طرابلس",
    "zipcode": "24",
    "countryFullName": "Libya",
    "lng": 13.187186,
    "lat": 32.8877109
  },
  {
    "slug": "bnwn-2-trbls-2252-libya",
    "name": "مصلى الزاوية الكبيرة",
    "image1": "https://cdn.mawaqit.net/images/backend/mosque/1ca4da6e-1477-425d-8303-1152c2696cf4/mosque/1f03a3aa-85b0-613a-ae3e-0611a4e5dd55.jpg",
    "address": "V5VH+J24 Tripoli, Libya",
    "city": "طرابلس",
    "zipcode": "٢٢٥٢",
    "countryFullName": "Libya",
    "lng": 13.17779535893,
    "lat": 32.894131640456
  },
  {
    "slug": "masjid-omar-bn-lkhatab-sasbrata-24-libya",
    "name": "مسجد عمر بن الخطاب رضي الله عنه",
    "image1": "https://cdn.mawaqit.net/images/backend/mosque/3b6639bd-145a-4910-a46c-128927c15435/mosque/1ef6bafe-d87e-6be2-bec3-0e4a41cdad45.jpg",
    "address": "صبراتة ليبيا",
    "city": "صبراتة",
    "zipcode": "24",
    "countryFullName": "Libya",
    "lng": 12.4495221,
    "lat": 32.7811016
  },
  {
    "slug": "masjid-lmam-lboukhari-sbrta-24-libya",
    "name": "مسجد الإمام البخاري",
    "image1": "https://cdn.mawaqit.net/images/backend/mosque/5873e4f8-428d-4780-ac2b-74ccc3f4ace9/mosque/1ef75812-7cfe-6bda-9d8b-0affcb0701ab.jpg",
    "address": "صبراتة ليبيا",
    "city": "صبراتة",
    "zipcode": "24",
    "countryFullName": "Libya",
    "lng": 12.4495221,
    "lat": 32.7811016
  },
  {
    "slug": "mina-lsadra-ras-lanouf-00218-libya",
    "name": "السدرة",
    "image1": "https://cdn.mawaqit.net/images/backend/mosque/cc6f1aab-e379-46c1-99ca-31f7149bffab/mosque/1ef7767a-f4d2-66bc-8219-0600dbafaeef.jpg",
    "address": "ميناء السدرة",
    "city": "راس لانوف",
    "zipcode": "00218",
    "countryFullName": "Libya",
    "lng": 18.347962,
    "lat": 30.63153
  },
  {
    "slug": "msjd-qb-ljnwby-sbrt-24-libya",
    "name": "مسجد قباء",
    "image1": "https://cdn.mawaqit.net/images/backend/mosque/fe2c325c-53ed-41aa-a669-14ad5bd33f88/mosque/1ef85ad3-3982-686a-989b-0671c73660c5.jpg",
    "address": "صبراتة ليبيا",
    "city": "صبراتة",
    "zipcode": "24",
    "countryFullName": "Libya",
    "lng": 12.4495221,
    "lat": 32.7811016
  },
  {
    "slug": "masjid-ltwahid-sebrata-24-libya",
    "name": "مسجد التوحيد",
    "image1": "https://cdn.mawaqit.net/images/backend/mosque/4acaab64-beb4-413f-8a93-a6467317fa59/mosque/1ef868e1-42aa-6a3e-b353-0671c73660c5.jpg",
    "address": "صبراتة ليبيا",
    "city": "صبراتة",
    "zipcode": "24",
    "countryFullName": "Libya",
    "lng": 12.475206255913,
    "lat": 32.737851483221
  },
  {
    "slug": "masjid-laatiq-sbrta-24-libya",
    "name": "المسجد العتيق العلالقة",
    "image1": "https://cdn.mawaqit.net/images/backend/mosque/b25eabe3-5571-4598-9a58-703a73565794/mosque/1ef89783-35ee-6b4e-a623-0affcb0701ab.jpg",
    "address": "صبراتة ليبيا",
    "city": "صبراتة",
    "zipcode": "24",
    "countryFullName": "Libya",
    "lng": 12.4495221,
    "lat": 32.7811016
  },
  {
    "slug": "masjid-lyarmouk-lzawia-1123-libya",
    "name": "مسجد اليرموك",
    "image1": "https://cdn.mawaqit.net/images/backend/mosque/d72e8a30-b153-40d6-8a27-4f7955e706d7/mosque/1ef8b1cf-72de-69d0-9cf5-0e9d077f5bb1.jpg",
    "address": "الزاوية جود دائم -طريق السراج-",
    "city": "الزاوية",
    "zipcode": "1123",
    "countryFullName": "Libya",
    "lng": 12.7757216,
    "lat": 32.7795162
  },
  {
    "slug": "masjid-laabas-bn-abdlmotalib-sbrt-24-libya",
    "name": "مسجد العباس بن عبدالمطلب",
    "image1": "https://cdn.mawaqit.net/images/backend/mosque/538989e1-5b58-47ff-8b2c-855fef72c1bb/mosque/1ef8f152-d0fd-6ea4-9240-0e9d077f5bb1.jpeg",
    "address": "5 شارع المشتل",
    "city": "صبراتة",
    "zipcode": "24",
    "countryFullName": "Libya",
    "lng": 12.47905254364,
    "lat": 32.717074432572
  },
  {
    "slug": "masjid-abdlrahman-lmadhoun-sbrata-026-libya",
    "name": "مسجد عبدالرحمن  المدهون",
    "image1": "https://cdn.mawaqit.net/images/backend/mosque/2b561873-cb0c-43ed-b83e-a6e3d179fadf/mosque/1ef94625-7b41-654c-9c2b-0a0389a4e0f5.jpg",
    "address": "صبراته",
    "city": "صبراتة",
    "zipcode": "026",
    "countryFullName": "Libya",
    "lng": 12.41161,
    "lat": 32.77148
  },
  {
    "slug": "masjid-omar-bn-abdlaziz-jdbia-21864-libya",
    "name": "مسجد ام القرى",
    "image1": "https://cdn.mawaqit.net/images/backend/mosque/5cf94b86-d274-40f0-876f-14a2444decdc/mosque/1ef9d163-88a0-6a84-93e3-0671c73660c5.jpg",
    "address": "القضائية",
    "city": "اجدابيا",
    "zipcode": "21864",
    "countryFullName": "Libya",
    "lng": 20.2274098,
    "lat": 30.7660993
  },
  {
    "slug": "29951",
    "name": "مسجد عقار المعاوي",
    "image1": "https://cdn.mawaqit.net/images/backend/mosque/af0164ab-0b0e-4cf5-a3c1-649061b0151b/mosque/1eff4ea2-5ebc-631e-af33-0adf9413746d.png",
    "address": "صبراته",
    "city": "صبراته",
    "zipcode": "102038",
    "countryFullName": "Libya",
    "lng": 12.4495221,
    "lat": 32.7811016
  },
  {
    "slug": "masjid-chia-lrhybt-libya",
    "name": "مسجد الشياب",
    "image1": "https://cdn.mawaqit.net/images/backend/mosque/8a5e14f2-08b0-48c5-9cfc-950d603d1ddf/mosque/1efa0f9b-fb34-6dd6-96de-0e9d077f5bb1.jpg",
    "address": "الشياب",
    "city": "الرحيبات",
    "zipcode": "0000",
    "countryFullName": "Libya",
    "lng": 11.95,
    "lat": 32.0333333
  },
  {
    "slug": "masjid-saad-bn-zrarah-lbayda-00218-libya",
    "name": "مسجد أسعد بن زرارة ليبيا",
    "image1": "https://cdn.mawaqit.net/images/backend/mosque/b3dac2ab-d9c7-4cb5-81bf-f789aed9d4ac/mosque/1efe593b-5726-6562-9853-0a7d06691847.jpeg",
    "address": "QPPX+JX، البيضاء، ليبيا",
    "city": "البيضاء",
    "zipcode": "00218",
    "countryFullName": "Libya",
    "lng": 21.7499375,
    "lat": 32.7865625
  },
  {
    "slug": "masjid-lnour-sania-bn-zyad-sbratha-1990-libya",
    "name": "مسجد النور - صبراته",
    "image1": "https://cdn.mawaqit.net/images/backend/mosque/f5e478a9-5d7d-48c1-8412-23a4bd3ed60f/mosque/1efa74e0-dd4e-68bc-8b98-0a0389a4e0f5.jpg",
    "address": "ليبيا",
    "city": "صبراته",
    "zipcode": "1990",
    "countryFullName": "Libya",
    "lng": 12.4495221,
    "lat": 32.7811016
  },
  {
    "slug": "hamza-bn-abd-lmotalib-sahl-ljfa-libya",
    "name": "مسجد حمزة بن عبدالمطلب",
    "image1": "https://cdn.mawaqit.net/images/backend/mosque/f1cf3fff-5474-4f50-81cd-192d90b59e84/mosque/1efab87e-12ff-63d6-935e-0e9d077f5bb1.jpg",
    "address": "المعمورة",
    "city": "سهل الجفارة",
    "zipcode": "0000",
    "countryFullName": "Libya",
    "lng": 17.228331,
    "lat": 26.3351
  },
  {
    "slug": "msjd-ltn-ym-jdby-21864-libya",
    "name": "مسجد التنعيم",
    "image1": "https://cdn.mawaqit.net/images/backend/mosque/5ae1b8f0-2981-496a-a8be-81fcc13bb22c/mosque/1efc047b-3e12-67b8-97b2-0a21b15e7a1f.jpg",
    "address": "شارع انثلاث",
    "city": "اجدابيا",
    "zipcode": "21864",
    "countryFullName": "Libya",
    "lng": 20.2365,
    "lat": 30.76398
  },
  {
    "slug": "31280",
    "name": "مسجد القدس",
    "image1": "https://cdn.mawaqit.net/images/backend/mosque/7156abad-2fb0-4066-b443-3e698a2d892b/mosque/1efd00b0-9afb-6e5c-8786-0e61b0058d45.jpeg",
    "address": "العلالقة",
    "city": "صبراتة",
    "zipcode": "24100",
    "countryFullName": "Libya",
    "lng": 12.4611366,
    "lat": 32.7624893
  },
  {
    "slug": "msjd-by-lrdwn-jdby-21864-libya",
    "name": "مسجد بيعة الرضوان",
    "image1": "https://cdn.mawaqit.net/images/backend/mosque/30c69bdf-b1ac-4ae1-8c1c-d76d194b92fd/mosque/1efd355e-e2c5-6430-ab3b-06bada7b305f.jpg",
    "address": "اجدابيا",
    "city": "اجدابيا",
    "zipcode": "21864",
    "countryFullName": "Libya",
    "lng": 20.2230039,
    "lat": 30.757528
  },
  {
    "slug": "32688",
    "name": "مسجد سعد بن أبي وقاص",
    "image1": "https://cdn.mawaqit.net/images/backend/mosque/b650ab16-56be-4ba8-9a38-1d68b2e6bfb5/mosque/1eff4ea9-798b-658a-a17f-06ef9144e88f.png",
    "address": "صبراته",
    "city": "صبراته",
    "zipcode": "102038",
    "countryFullName": "Libya",
    "lng": 12.45482,
    "lat": 32.70594
  },
  {
    "slug": "masjid-qtibah-bn-muslim-tbraq-216-libya",
    "name": "مسجد قتيبه بن مسلم",
    "image1": "https://cdn.mawaqit.net/images/backend/mosque/e5d4acda-1dc9-4360-84ab-49f8438b9b6c/mosque/1efe7cd0-e739-6aec-a2f2-0e61b0058d45.jpg",
    "address": "حي النصر ج",
    "city": "طبرق",
    "zipcode": "216",
    "countryFullName": "Libya",
    "lng": 23.9407138,
    "lat": 32.0779073
  },
  {
    "slug": "masjid-lmam-malik-tarhouna-218-libya",
    "name": "مسجد الإمام مالك",
    "image1": "https://cdn.mawaqit.net/images/backend/mosque/9c9285ea-370a-4103-b7a0-747d4c4fe688/mosque/1efecbc8-4fb1-6714-b23a-06ef9144e88f.jpg",
    "address": "الطرشان",
    "city": "ترهونة",
    "zipcode": "218",
    "countryFullName": "Libya",
    "lng": 13.799858093262,
    "lat": 32.546234362331
  },
  {
    "slug": "msjd-lkshlf-lzwy-ly-libya",
    "name": "مسجد الكشالفة",
    "image1": "https://cdn.mawaqit.net/images/backend/mosque/2e2c89be-d560-46b2-b645-1095fdc14494/mosque/1efeed93-526c-6cc8-9a5b-06ef9144e88f.jpg",
    "address": "محلة النصر",
    "city": "الزاوية",
    "zipcode": "LY",
    "countryFullName": "Libya",
    "lng": 12.7364962,
    "lat": 32.7630282
  },
  {
    "slug": "msjd-khld-bn-lwlyd-jdby-21864-libya-1",
    "name": "مسجد خالد بن الوليد",
    "image1": "https://cdn.mawaqit.net/images/backend/mosque/200d16ec-2b4a-4e37-8e17-3f337e4965a0/mosque/1eff0b60-2855-6b3e-b8fe-0a7d06691847.jpg",
    "address": "ليبيا",
    "city": "اجدابيا",
    "zipcode": "21864",
    "countryFullName": "Libya",
    "lng": 20.2230039,
    "lat": 30.757528
  },
  {
    "slug": "33345",
    "name": "مسجد الخطاطبة الشمالي العتيق",
    "image1": "https://cdn.mawaqit.net/images/backend/mosque/885eee95-396c-4c27-829a-bc7a31d3b6b7/mosque/1f0212d0-56c6-6e44-a485-0e61b0058d45.jpeg",
    "address": "صبراته",
    "city": "صبراته",
    "zipcode": "102038",
    "countryFullName": "Libya",
    "lng": 12.4495221,
    "lat": 32.7811016
  },
  {
    "slug": "msjd-lstqm-lzwyh-023-libya",
    "name": "مـــســجد أڵـــإســتْـــقـــامـــة",
    "image1": "https://cdn.mawaqit.net/images/backend/mosque/80a61c69-5394-46e4-91a3-2f0480875571/mosque/1f013a96-e0fd-6cc4-9e37-0ac73cfd41db.jpeg",
    "address": "الزاويه",
    "city": "الزاويه",
    "zipcode": "023",
    "countryFullName": "Libya",
    "lng": 12.712780237198,
    "lat": 32.749808276115
  },
  {
    "slug": "msjd-lsbykh-rqdlyn-25-78-165-libya",
    "name": "مسجد السبيخة",
    "image1": "https://cdn.mawaqit.net/images/backend/mosque/091b0cc6-378c-4039-bfe2-76a3cd9d1316/mosque/1eff23dc-dbb8-6430-813f-0a7d06691847.jpg",
    "address": "رقدالين طريق السبيخة",
    "city": "رقدالين",
    "zipcode": "25.78.165",
    "countryFullName": "Libya",
    "lng": 11.9890314,
    "lat": 32.884849
  },
  {
    "slug": "msjd-by-bkr-lsdyq-lmrs-02015-algeria",
    "name": "مسجد فاطمة رضي الله عنها",
    "image1": "https://cdn.mawaqit.net/images/backend/mosque/68f519fb-0c20-4022-9cd3-0b89692e3804/mosque/1effda72-0e6e-6fb8-92f7-0e4fa23cf9cb.jpeg",
    "address": "صبراته",
    "city": "صبراته",
    "zipcode": "102038",
    "countryFullName": "Libya",
    "lng": 12.4495221,
    "lat": 32.7811016
  },
  {
    "slug": "msjd-ms-b-bn-myr-lmsyl-28018-algeria",
    "name": "المسجد المركزي العتيق",
    "image1": "https://cdn.mawaqit.net/images/backend/mosque/3e9bb44f-8e77-45d5-bbf8-76d2dea4494f/mosque/1effc32e-ba51-6386-9e67-0e61b0058d45.png",
    "address": "العجيلات",
    "city": "العجيلات",
    "zipcode": "2",
    "countryFullName": "Libya",
    "lng": 12.334934,
    "lat": 32.7481109
  },
  {
    "slug": "msjd-ljbr-sbrt-23-libya",
    "name": "مسجد الجبار",
    "image1": "https://cdn.mawaqit.net/images/backend/mosque/f505d7a2-f235-4e09-ad9f-14f72645af33/mosque/1effcec7-dd3f-6c7c-85fe-0e61b0058d45.jpeg",
    "address": "صبراتة",
    "city": "صبراتة",
    "zipcode": "23",
    "countryFullName": "Libya",
    "lng": 12.487726807594,
    "lat": 32.734697329663
  },
  {
    "slug": "msjd-hql-jlw-59-jlw-59-libya",
    "name": "مسجد حقل جالو 59",
    "image1": "https://cdn.mawaqit.net/images/backend/mosque/79599091-03f6-4207-86c3-68e62ddd78c7/mosque/1effcfc4-840a-6a5a-aaf0-06ef9144e88f.jpg",
    "address": "حقل جالو",
    "city": "جالو",
    "zipcode": "59",
    "countryFullName": "Libya",
    "lng": 21.41429595542,
    "lat": 28.691305867254
  },
  {
    "slug": "msjd-lmm-lshf-y-jdby-21864-libya",
    "name": "مسجد الامام الشافعي",
    "image1": "https://cdn.mawaqit.net/images/backend/mosque/6b16e86e-35af-4d01-b718-c1908854da6b/mosque/1effcfce-5b6f-6636-b79f-0e4fa23cf9cb.jpg",
    "address": "اجدابيا",
    "city": "اجدابيا",
    "zipcode": "21864",
    "countryFullName": "Libya",
    "lng": 20.231782,
    "lat": 30.76259
  },
  {
    "slug": "masjid-as-salam-sabratha-102038-libya",
    "name": "مسجد السلام",
    "image1": "https://cdn.mawaqit.net/images/backend/mosque/d2a455e5-3a7e-463b-a90e-cc218f8dc2bf/mosque/1f028d99-8b71-6b28-a4f0-0e31fcfe1275.jpeg",
    "address": "صبراته",
    "city": "صبراته",
    "zipcode": "102038",
    "countryFullName": "Libya",
    "lng": 12.4495221,
    "lat": 32.7811016
  },
  {
    "slug": "msjd-ltwb-trhwn-218-libya",
    "name": "مسجد التوبة",
    "image1": "https://cdn.mawaqit.net/images/backend/mosque/8cd3df04-e50b-41a6-8c6c-09eabf5fa6da/mosque/1f00681f-5a39-6818-80d3-0645805d5de7.jpg",
    "address": "الكشاكرة",
    "city": "ترهونة",
    "zipcode": "218",
    "countryFullName": "Libya",
    "lng": 13.582905485893,
    "lat": 32.397472192065
  },
  {
    "slug": "lmm-lsfhny-bngzy-21861-libya",
    "name": "مسجد الامام الاصفهاني",
    "image1": "https://cdn.mawaqit.net/images/backend/mosque/4033ea00-795c-416c-b70f-c0fb0104f53d/mosque/1f0082d3-2305-6846-ae65-0e61b0058d45.jpg",
    "address": "الهواري",
    "city": "بنغازي",
    "zipcode": "21861",
    "countryFullName": "Libya",
    "lng": 20.125883,
    "lat": 32.007535
  },
  {
    "slug": "msjd-lhtyb-marsa-al-brega-libya",
    "name": "مسجد الحطيبة",
    "image1": "https://cdn.mawaqit.net/images/backend/mosque/79a3b701-ee04-4e42-b95a-54cfd6cb1ca1/mosque/1f01d4ef-5492-655c-a6c3-06bdda781935.jpg",
    "address": "مرسى البريقة، Marsa al Brega, Libya",
    "city": "MARSA AL BREGA",
    "zipcode": "--",
    "countryFullName": "Libya",
    "lng": 19.57,
    "lat": 30.41
  },
  {
    "slug": "msjd-hdhyf-bn-lymn-trhwn-218-libya",
    "name": "مسجد حذيفة بن اليمان",
    "image1": "https://cdn.mawaqit.net/images/backend/mosque/88c887ed-0045-4573-afec-2748e33c16eb/mosque/1f01ec1d-65a3-68ec-8d58-0ac73cfd41db.jpg",
    "address": "32.2916834، 13.5572315",
    "city": "ترهونة",
    "zipcode": "+218",
    "countryFullName": "Libya",
    "lng": 13.6420599,
    "lat": 32.4279191
  },
  {
    "slug": "ftm-sirte-libya",
    "name": "مسجد فاطمة رضي الله عنها",
    "image1": "https://cdn.mawaqit.net/images/backend/mosque/0d96104c-1a3f-403c-9353-10762315c213/mosque/1f02ddcd-37c5-63d8-9d8f-063cb081a36d.jpg",
    "address": "سرت، Libya",
    "city": "SIRTE",
    "zipcode": "--",
    "countryFullName": "Libya",
    "lng": 16.5701927,
    "lat": 31.189689
  },
  {
    "slug": "msjd-m-lqr-tajoura-00218-libya",
    "name": "مسجد ام القرى",
    "image1": "https://cdn.mawaqit.net/images/backend/mosque/a50c8017-b771-45a0-8958-52752dcde0e6/mosque/1f022ce8-da1f-60de-ba14-06bdda781935.jpg",
    "address": "V945+PWQ تاجوراء، Libya",
    "city": "TAJOURA",
    "zipcode": "00218",
    "countryFullName": "Libya",
    "lng": 13.3598594,
    "lat": 32.8568375
  },
  {
    "slug": "masjid-qalil-al-atiq-al-gharabliyah-sabratha-24-libya",
    "name": "مسجد قاليل العتيق",
    "image1": "https://cdn.mawaqit.net/images/backend/mosque/6d3a4736-6bec-4070-95bd-794ae6d03d3c/mosque/1f022d65-cf39-6db8-96e9-0e61b0058d45.jpeg",
    "address": "مسجد الغرابلية, Unnamed Road، صبراتة، ليبيا",
    "city": "صبراتة",
    "zipcode": "24",
    "countryFullName": "Libya",
    "lng": 12.5362656,
    "lat": 32.7585375
  },
  {
    "slug": "msjd-zyd-bn-thbt-l-mmr-00218-libya",
    "name": "مسجد زيد بن ثابت",
    "image1": "https://cdn.mawaqit.net/images/backend/mosque/55fbe0b2-4f8e-4bea-99de-67b8e30e0d69/mosque/1f0233dc-e2e8-6eae-8a11-0e61b0058d45.png",
    "address": "ليبيا , الخمس , العمامرة",
    "city": "العمامرة",
    "zipcode": "00218",
    "countryFullName": "Libya",
    "lng": 14.134056,
    "lat": 32.510937
  },
  {
    "slug": "msjd-lswyry-lqdym-zlytn-lywjd-libya",
    "name": "مسجد الصويري القديم",
    "image1": "https://cdn.mawaqit.net/images/backend/mosque/cd38928e-2bb6-4cf7-98b7-92aea7b8cde9/mosque/1f0241fc-063b-649c-92bd-0e61b0058d45.png",
    "address": "ازدو الشمالية، ليبيا",
    "city": "زليتن",
    "zipcode": "0000",
    "countryFullName": "Libya",
    "lng": 14.5862539,
    "lat": 32.4834629
  },
  {
    "slug": "msjd-lgfr-lbyd-21884-libya",
    "name": "مسجد الغفار",
    "image1": "https://cdn.mawaqit.net/images/backend/mosque/172babd6-680e-47d4-b725-e29707419ee5/mosque/1f0272cc-706f-666e-babf-06df4152832f.jpg",
    "address": "QQGV+99R البيضاء، ليبيا",
    "city": "البيضاء",
    "zipcode": "21884",
    "countryFullName": "Libya",
    "lng": 21.7933906,
    "lat": 32.7759875
  },
  {
    "slug": "lmsjd-l-tyq-l-zyzy-1969-libya",
    "name": "المسجد العتيق",
    "image1": "https://cdn.mawaqit.net/images/backend/mosque/2a3dce03-cc28-4063-9ace-285afee0e033/mosque/1f02d158-f183-6f44-89ff-0ac08f730885.jpg",
    "address": "ليبيا",
    "city": "العزيزية",
    "zipcode": "1969",
    "countryFullName": "Libya",
    "lng": 13.0159079,
    "lat": 32.532396
  },
  {
    "slug": "msjd-shyb-bn-snn-slwq-slwq-00218-libya",
    "name": "مسجد صهيب بن سنان سلوق",
    "image1": "https://cdn.mawaqit.net/images/backend/mosque/52638610-1423-41cc-8460-bbe71cafc5e9/mosque/1f02d6b2-9066-64dc-b21c-0ac08f730885.jpg",
    "address": "شارع صهيب بن سنان قرب مدرسة المجد",
    "city": "سلوق",
    "zipcode": "00218",
    "countryFullName": "Libya",
    "lng": 20.2713072,
    "lat": 31.6774341
  },
  {
    "slug": "msjd-mws-bn-nsyr-sidi-as-sais-00000-libya",
    "name": "مسجد موسى بن نصير",
    "image1": "https://cdn.mawaqit.net/images/backend/mosque/7352d098-2bf6-4a56-8364-78587b9d3d32/mosque/1f0322cb-09a1-6202-a66f-0e325d5c4035.jpeg",
    "address": "سيدي السائح، Sidi as Sa'is, ليبيا",
    "city": "SIDI AS SA'IS",
    "zipcode": "00000",
    "countryFullName": "Libya",
    "lng": 13.3166846,
    "lat": 32.5741038
  },
  {
    "slug": "msjd-l-jylt-l-tyq-l-jylt-no-code-libya",
    "name": "مسجد العجيلات العتيق",
    "image1": "https://cdn.mawaqit.net/images/backend/mosque/90bca5c2-b83c-4858-a3e7-fd51b1fce6bb/mosque/1f033218-31d7-610c-878c-0a3d2d454b8f.jpg",
    "address": "شارع المسجد العجيلات",
    "city": "العجيلات",
    "zipcode": "no code",
    "countryFullName": "Libya",
    "lng": 12.334934,
    "lat": 32.7481109
  },
  {
    "slug": "msjd-blqyd-msrt-21891-libya",
    "name": "مسجد بالقائد",
    "image1": "https://cdn.mawaqit.net/images/backend/mosque/9e77465a-ee54-447a-8204-c3db0801c493/mosque/1f0334e3-2e1f-6dac-b3ae-062b68c2166d.jpeg",
    "address": "شاطئ سور سعود، مصراتة‎، ليبيا",
    "city": "مصراتة",
    "zipcode": "21891",
    "countryFullName": "Libya",
    "lng": 15.1642871,
    "lat": 32.3912671
  },
  {
    "slug": "msjd-d-wb-zliten-203650-libya",
    "name": "مسجد دعوب",
    "image1": "https://cdn.mawaqit.net/images/backend/mosque/657bf150-26ef-46f4-8a1b-ae9e21f813c8/mosque/1f037abb-a39b-6cc0-aeed-0630793f08f7.jpeg",
    "address": "مسجد دعوب، Zliten, Libya",
    "city": "ZLITEN",
    "zipcode": "203650",
    "countryFullName": "Libya",
    "lng": 14.5637459,
    "lat": 32.4762476
  },
  {
    "slug": "msjd-bw-hryr-grb-lzwy-mhpq-7f5-libya",
    "name": "مسجد أبو هريرة",
    "image1": "https://cdn.mawaqit.net/images/backend/mosque/1553a97e-d1bb-4092-a1a5-e27006d547f8/mosque/1f03f1f1-44bd-6eee-bd58-0ebaf38e6aa1.png",
    "address": "أبو عيسى، غرب الزاوية، ليبيا",
    "city": "غرب الزاوية",
    "zipcode": "MHPQ+7F5",
    "countryFullName": "Libya",
    "lng": 12.5887344,
    "lat": 32.6856375
  }
]