[
  {
    "slug": "jm-msyr",
    "name": "جامع آل وهيبة",
    "image1": "https://cdn.mawaqit.net/images/backend/mosque_default_picture.png",
    "address": "مصيرة",
    "city": "مصيرة",
    "zipcode": "414",
    "countryFullName": "OMAN",
    "lng": 58.6915912,
    "lat": 20.3173398
  },
  {
    "slug": "msjd-zn-ln-qys-j-ln-bny-bw-hsn",
    "name": "مسجد عزان لن قيس",
    "image1": "https://cdn.mawaqit.net/images/backend/mosque_default_picture.png",
    "address": "جعلان بني بو حسن",
    "city": "جعلان-بني-بو-حسن",
    "zipcode": "415",
    "countryFullName": "OMAN",
    "lng": 59.2765008,
    "lat": 22.0890702
  },
  {
    "slug": "hachia-oman",
    "name": "مسجد الحشية",
    "image1": "https://cdn.mawaqit.net/images/backend/mosque/eba0de4f-08f8-4fc3-ba39-15efb4dfc9c7/mosque/1eea8daa-c63c-6746-ae76-066ed47a7584.jpg",
    "address": "الداخلية",
    "city": "الحمراء",
    "zipcode": "617",
    "countryFullName": "Oman",
    "lng": 57.2875097,
    "lat": 23.1025508
  },
  {
    "slug": "nagady-ibra",
    "name": "مسجد الصبارة النجادي",
    "image1": "https://cdn.mawaqit.net/images/backend/mosque/3216eac3-6206-4c01-b110-bbb7669ce186/mosque/1eea8dc9-8122-65a6-8f8f-066ed47a7584.jpg",
    "address": "النجادي",
    "city": "إبراء",
    "zipcode": "335",
    "countryFullName": "Oman",
    "lng": 58.5258173,
    "lat": 22.7244454
  },
  {
    "slug": "jm-l-qd-brk-320-oman",
    "name": "جامع العقدة الغربية",
    "image1": "https://cdn.mawaqit.net/images/backend/mosque/0a8848e6-decb-4d4a-a975-15e0bfafb300/mosque/1eea8e22-4bf1-6bb2-a7d8-066ed47a7584.jpg",
    "address": "العقدة",
    "city": "بركاء",
    "zipcode": "320",
    "countryFullName": "Oman",
    "lng": 57.788177474717,
    "lat": 23.709132930126
  },
  {
    "slug": "jm-l-qd-brk-320-oman-1",
    "name": "جامع العقدة",
    "image1": "https://cdn.mawaqit.net/images/backend/mosque/0c49d32e-6169-42c6-8d9b-12e896261cab/mosque/1eea8e25-2368-6fc6-8459-066ed47a7584.jpg",
    "address": "العقدة",
    "city": "بركاء",
    "zipcode": "320",
    "countryFullName": "Oman",
    "lng": 57.784223556519,
    "lat": 23.705837566958
  },
  {
    "slug": "masjid-lodifira-bahlaa-222-oman",
    "name": "مسجد المظيفيرة",
    "image1": "https://cdn.mawaqit.net/images/backend/mosque/019318a4-f688-40dc-b849-07a54a5ca6f4/mosque/1eea8e31-6aaa-6004-868e-066ed47a7584.jpg",
    "address": "عملا",
    "city": "بهلاء",
    "zipcode": "222",
    "countryFullName": "Oman",
    "lng": 56.896067105319,
    "lat": 23.107091525323
  },
  {
    "slug": "masjid-lsafa-bediyah-421-oman",
    "name": "مسجد الصفاء",
    "image1": "https://cdn.mawaqit.net/images/backend/mosque/0ccedccd-870b-47ec-aaf0-ba71b6ca498e/mosque/1eea8eb9-f629-6494-b1a0-066ed47a7584.jpg",
    "address": "Bediyah, Oman",
    "city": "BEDIYAH",
    "zipcode": "421",
    "countryFullName": "Oman",
    "lng": 58.8003292,
    "lat": 22.4428429
  },
  {
    "slug": "masjid-abi-al-qasim-muscat-133-oman",
    "name": "جامع أبي القاسم بالخوير",
    "image1": "https://cdn.mawaqit.net/images/backend/mosque/fff9a0c4-7ac5-4e7f-9333-c009e0adc3cf/mosque/1eee5c76-76c9-65e4-9eee-0e8f4a8ce035.jpg",
    "address": "Muscat, Al Khuwair 17-1",
    "city": "MUSCAT",
    "zipcode": "133",
    "countryFullName": "Oman",
    "lng": 58.436443244041,
    "lat": 23.591524468507
  },
  {
    "slug": "masjid-qamiaa-masqat-120-oman",
    "name": "مسجد قميعه",
    "image1": "https://cdn.mawaqit.net/images/backend/mosque/dbf9e951-e90f-443e-a69b-aad2ed24cd7d/mosque/1eef6787-2319-6f62-b746-0e8f4a8ce035.jpg",
    "address": "سلطنة عمان - مسقط - ولاية قريات - المزارع",
    "city": "مسقط",
    "zipcode": "120",
    "countryFullName": "Oman",
    "lng": 58.85544901113,
    "lat": 23.089077066416
  },
  {
    "slug": "-5",
    "name": "مسجد الإمام الربيع بن حبيب",
    "image1": "https://cdn.mawaqit.net/images/backend/mosque/7b564087-94d3-4f74-82ca-2d972d229b17/mosque/1ef48006-f7cd-6dac-adc2-0eccd22c0f01.jpeg",
    "address": "العامرات",
    "city": "الحاجر",
    "zipcode": "968",
    "countryFullName": "Oman",
    "lng": 58.5172492,
    "lat": 23.3955463
  },
  {
    "slug": "masjid-lnour-lmoubin-lhajr-oman",
    "name": "مسجد النور المبين",
    "image1": "https://cdn.mawaqit.net/images/backend/mosque/d0a62eba-4bdf-43b0-9bdd-753fa47610d3/mosque/1ef49d1e-7562-6d7e-9bb3-0600dbafaeef.jpeg",
    "address": "العامرات",
    "city": "الحاجر",
    "zipcode": "968",
    "countryFullName": "Oman",
    "lng": 58.5172492,
    "lat": 23.3955463
  },
  {
    "slug": "lnour-jal-jalaloh-jaalan-bni-bou-ali-767-oman",
    "name": "النور جل جلاله",
    "image1": "https://cdn.mawaqit.net/images/backend/mosque/6e967925-751f-4c2d-a09a-ac5a9250b2d1/mosque/1ef6f5cf-d129-6674-b857-0600dbafaeef.png",
    "address": "جعلان بني بو علي",
    "city": "جعلان بني بو علي",
    "zipcode": "767",
    "countryFullName": "Oman",
    "lng": 59.331478930535,
    "lat": 22.034087263629
  },
  {
    "slug": "lmnizf-lhmer-617-oman",
    "name": "مسجد المنيزف",
    "image1": "https://cdn.mawaqit.net/images/backend/mosque/3788c09f-d0dd-414a-9253-2b2ac1ea130a/mosque/1efb2574-b6db-6dc0-bd65-0e9d077f5bb1.jpeg",
    "address": "الحمراء ، الداخلية ، سلطنة عُمان",
    "city": "الحمراء",
    "zipcode": "٦١٧",
    "countryFullName": "Oman",
    "lng": 57.2994354,
    "lat": 23.1103746
  },
  {
    "slug": "msjd-lkhls-wly-lhmr-al-hamra-617-oman",
    "name": "مسجد الإخلاص",
    "image1": "https://cdn.mawaqit.net/images/backend/mosque/f7bebbb0-6ccc-4fb5-adfd-fab9c2cfec77/mosque/1efbef43-0c39-6b08-94be-0ef2881d9837.jpg",
    "address": "ولاية الحمراء",
    "city": "ولاية الحمراء",
    "zipcode": "617",
    "countryFullName": "Oman",
    "lng": 57.2875097,
    "lat": 23.1025508
  },
  {
    "slug": "masjid-chebli-lbrimi-512-oman",
    "name": "مسجد الشبلي",
    "image1": "https://cdn.mawaqit.net/images/backend/mosque/3573a7c3-ffb2-4e21-af2e-21a3e98f7f0c/mosque/1efc809d-6144-603a-9553-0e61b0058d45.jpeg",
    "address": "البريمي - سلطنة عمان",
    "city": "ولاية البريمي",
    "zipcode": "512",
    "countryFullName": "Oman",
    "lng": 55.798034664007,
    "lat": 24.228777272314
  },
  {
    "slug": "shinas-shinas-224-oman",
    "name": "جامع الوديات الشمالي",
    "image1": "https://cdn.mawaqit.net/images/backend/mosque/87b38260-ff31-4c77-ad95-9b754c94e081/mosque/1efded0d-1682-6c26-9218-0e61b0058d45.jpg",
    "address": "Shinas",
    "city": "SHINAS",
    "zipcode": "224",
    "countryFullName": "Oman",
    "lng": 56.4546667,
    "lat": 24.7816111
  },
  {
    "slug": "masjid-lkhalas-aabri-515-oman",
    "name": "مسجد الخلاص",
    "image1": "https://cdn.mawaqit.net/images/backend/mosque/e7b1acbe-2369-47c1-a23f-af43c450b7ce/mosque/1efe0b07-0053-6d16-9ff4-0ac178b258e1.jpg",
    "address": "العراقي",
    "city": "عبري",
    "zipcode": "515",
    "countryFullName": "Oman",
    "lng": 56.52961773701,
    "lat": 23.273612925869
  },
  {
    "slug": "ljlyl-saham-319-oman",
    "name": "الجليل",
    "image1": "https://cdn.mawaqit.net/images/backend/mosque/c3d92199-e6f0-4278-9c2b-2ce9d9587065/mosque/1efeb90a-0df5-65b2-8996-06ef9144e88f.jpeg",
    "address": "مجز الصغرى",
    "city": "SAHAM",
    "zipcode": "319",
    "countryFullName": "Oman",
    "lng": 56.8367335,
    "lat": 24.2152724
  },
  {
    "slug": "msjd-bn-sqr-lbrymy-512-oman",
    "name": "مسجد القبة - بن صقر",
    "image1": "https://cdn.mawaqit.net/images/backend/mosque/59ff4fd6-f27c-49a0-a56b-5c5046bba5a5/mosque/1eff3f17-4059-6970-96ed-06ef9144e88f.jpeg",
    "address": "البريمي",
    "city": "البريمي",
    "zipcode": "512",
    "countryFullName": "Oman",
    "lng": 55.783649682999,
    "lat": 24.246855725289
  },
  {
    "slug": "masjid-murtafaat-dut-dhank-514-oman",
    "name": "مسجد مرتفعات دوت",
    "image1": "https://cdn.mawaqit.net/images/backend/mosque/9a6656e1-54fb-42a2-bb01-492251f468a1/mosque/1effd43d-86e9-60a0-8556-06ef9144e88f.jpg",
    "address": "سلطنة عمان . ضنك . دوت",
    "city": "ضنك",
    "zipcode": "٥١٤",
    "countryFullName": "Oman",
    "lng": 56.343212127686,
    "lat": 23.541818964529
  },
  {
    "slug": "msjd-lmwmn-jl-jllh-lm-byl-ljnwby-111-oman",
    "name": "مسجد المؤمن جل جلاله",
    "image1": "https://cdn.mawaqit.net/images/backend/mosque/db836530-1630-4173-b58c-ae0e54f4e04f/mosque/1f000ae2-df62-69bc-a999-0e4fa23cf9cb.jpeg",
    "address": "السيب",
    "city": "المعبيلة الجنوبية",
    "zipcode": "١١١",
    "countryFullName": "Oman",
    "lng": 58.119022250175,
    "lat": 23.600376013238
  },
  {
    "slug": "masjid-al-wahid-jall-jalalah-seeb-134-al-mabela-south-oman-4o-mini",
    "name": "جامع الواحد جل جلاله",
    "image1": "https://cdn.mawaqit.net/images/backend/mosque/30b202e0-8a6f-4c9d-8e33-479bb81fb6f9/mosque/1f0081d4-274a-6fe6-a311-0e4fa23cf9cb.jpeg",
    "address": "Seeb",
    "city": "AL MABELAH SOUTH",
    "zipcode": "134",
    "countryFullName": "Oman",
    "lng": 58.133726119995,
    "lat": 23.604379821249
  },
  {
    "slug": "msjd-mthlth-ldf-llrymy-512-oman",
    "name": "مسجد مثلث الدفاع",
    "image1": "https://cdn.mawaqit.net/images/backend/mosque/1b1579f7-b196-46e4-ad30-2b248cb60db4/mosque/1f0106bb-4b0b-6a68-b212-06bdda781935.jpeg",
    "address": "البريمي - مثلث الدفاع",
    "city": "اللريمي",
    "zipcode": "512",
    "countryFullName": "Oman",
    "lng": 55.783315734238,
    "lat": 24.244582191556
  },
  {
    "slug": "lah-nour-lsamawat-wlard-hmassa-512-oman",
    "name": "رَبِّ اجْعَلْنِي مُقِيمَ الصَّلَاةِ",
    "image1": "https://cdn.mawaqit.net/images/backend/mosque/290119ff-8f25-4002-82b1-3edaf303b190/mosque/1f0167dc-ae67-61f2-8771-0ac73cfd41db.png",
    "address": "البريمي",
    "city": "حماسة",
    "zipcode": "512",
    "countryFullName": "Oman",
    "lng": 55.7684115,
    "lat": 24.2360672
  },
  {
    "slug": "msjd-bny-ys-lgrby-shr-311-oman",
    "name": "مسجد بني عيسى الغربي",
    "image1": "https://cdn.mawaqit.net/images/backend/mosque/9b8c40c0-7bd3-4786-b8f6-cd809aa71dce/mosque/1f01d0c0-bfc8-68a4-b98a-0e61b0058d45.jpg",
    "address": "غيل شبول",
    "city": "صحار",
    "zipcode": "311",
    "countryFullName": "Oman",
    "lng": 56.7075,
    "lat": 24.3461
  },
  {
    "slug": "msjd-lqrn-adam-111-oman",
    "name": "مسجد القرن",
    "image1": "https://cdn.mawaqit.net/images/backend/mosque/3b802cdb-ece5-4822-97bb-053de3127aeb/mosque/1f01f20a-9e96-64e0-86ba-0e61b0058d45.jpeg",
    "address": "ادم، Adam, Oman",
    "city": "ADAM",
    "zipcode": "111",
    "countryFullName": "Oman",
    "lng": 57.5249708,
    "lat": 22.386514
  },
  {
    "slug": "jm-jbryn-wly-bhl-107-oman",
    "name": "جامع جبرين",
    "image1": "https://cdn.mawaqit.net/images/backend/mosque/406693e9-a4e6-4e37-82aa-d1a94141da34/mosque/1f02413b-8705-6684-9d4c-06bdda781935.jpg",
    "address": "https://maps.app.goo.gl/WY6GiuRwe4oYs9LX6",
    "city": "ولاية بهلاء",
    "zipcode": "107",
    "countryFullName": "Oman",
    "lng": 57.2931571,
    "lat": 22.9510175
  },
  {
    "slug": "masjid-bn-umar-hmassa-512-oman",
    "name": "مَسْجِدُ بْنْ عُمَرْ",
    "image1": "https://cdn.mawaqit.net/images/backend/mosque/91cdeab3-333f-4fc9-bfce-c81c2392dba4/mosque/1f03d4d4-c216-6902-a102-06f7ea63bd95.png",
    "address": "محافظة البريمي، عمان",
    "city": "حماسة",
    "zipcode": "512",
    "countryFullName": "Oman",
    "lng": 55.7684115,
    "lat": 24.2360672
  }
]