[
  {
    "slug": "grande-mosquee-de-lucad-dakar",
    "name": "Grande Mosquée de l'UCAD",
    "image1": "https://cdn.mawaqit.net/images/backend/mosque_default_picture.png",
    "address": "Dakar Plateau",
    "city": "Dakar",
    "zipcode": "7541",
    "countryFullName": "SENEGAL",
    "lng": -17.4374803,
    "lat": 14.6629438
  },
  {
    "slug": "mosquee-al-aemar-dakar",
    "name": "Mosquée AL AEMAR",
    "image1": "https://cdn.mawaqit.net/images/backend/mosque_default_picture.png",
    "address": "Cité SOCABEG Thiaroye Azur",
    "city": "Dakar",
    "zipcode": "00248",
    "countryFullName": "Senegal",
    "lng": -17.463985,
    "lat": 14.6777715
  },
  {
    "slug": "mosquee-abu-waqas-dakar",
    "name": "Mosquée Abi waqas",
    "image1": "https://cdn.mawaqit.net/images/backend/mosque_default_picture.png",
    "address": "Unité 21",
    "city": "Dakar",
    "zipcode": "000221",
    "countryFullName": "SENEGAL",
    "lng": -17.4447648,
    "lat": 14.7542993
  },
  {
    "slug": "aboubakry-sidikh-dakar",
    "name": "Aboubakry sidikh",
    "image1": "https://cdn.mawaqit.net/images/backend/mosque_default_picture.png",
    "address": "Unité 21",
    "city": "Dakar",
    "zipcode": "000221",
    "countryFullName": "Senegal",
    "lng": -17.4447648,
    "lat": 14.7542993
  },
  {
    "slug": "omar-boun-khatab-dakar",
    "name": "Omar boun khatab",
    "image1": "https://cdn.mawaqit.net/images/backend/mosque_default_picture.png",
    "address": "Unité 17",
    "city": "Dakar",
    "zipcode": "000221",
    "countryFullName": "SENEGAL",
    "lng": -17.4676861,
    "lat": 14.716677
  },
  {
    "slug": "mosquee-cite-magistrat-dakar",
    "name": "Mosquée ACOMCIC",
    "image1": "https://cdn.mawaqit.net/images/backend/mosque_default_picture.png",
    "address": "Sud Foire, Cité magistrat",
    "city": "Dakar",
    "zipcode": "00248",
    "countryFullName": "SENEGAL",
    "lng": -17.4684255,
    "lat": 14.7412199
  },
  {
    "slug": "mosquee-abou-oubayda-dakar",
    "name": "Mosquée Abou Oubayda - U26",
    "image1": "https://cdn.mawaqit.net/images/backend/mosque/76c480b7-49df-44f2-9f23-3a965fd89ce9/mosque/1eea8da0-5db9-605c-93a0-066ed47a7584.jpg",
    "address": "Prcelles Assainies Unite 26",
    "city": "Dakar",
    "zipcode": "00248",
    "countryFullName": "Senegal",
    "lng": -17.4521585,
    "lat": 14.753727
  },
  {
    "slug": "kouba-dakar",
    "name": "MOSQUÉE KHOUBA",
    "image1": "https://cdn.mawaqit.net/images/backend/mosque/6cb08140-0898-4123-b46a-ae053470beb8/mosque/1eea8da0-c563-62a2-a028-066ed47a7584.jpeg",
    "address": "Cité Keur gorgui Dakar",
    "city": "Dakar",
    "zipcode": "99000",
    "countryFullName": "Senegal",
    "lng": -17.4684255,
    "lat": 14.7117003
  },
  {
    "slug": "thielol-kanel",
    "name": "Mosquée de Thielol",
    "image1": "https://cdn.mawaqit.net/images/backend/mosque/608ae451-5682-4204-801a-a0c984bee293/mosque/1eea8dab-ffcb-631c-be22-066ed47a7584.jpg",
    "address": "Unnamed Road",
    "city": "Kanel",
    "zipcode": "36032",
    "countryFullName": "Senegal",
    "lng": -13.1754767,
    "lat": 15.4884265
  },
  {
    "slug": "gmlouga",
    "name": "Grande Mosquée Louga",
    "image1": "https://cdn.mawaqit.net/images/backend/mosque/abd126cb-809b-40f8-8ca1-5c5ca33918f7/mosque/1eea8dae-7e04-6d8a-ad5e-066ed47a7584.jpg",
    "address": "Samba  Khary  Cisse",
    "city": "Louga",
    "zipcode": "93",
    "countryFullName": "Senegal",
    "lng": -16.2250176,
    "lat": 15.6244317
  },
  {
    "slug": "santhiaba-sud-louga",
    "name": "Grande Mosquée Santhiaba Sud",
    "image1": "https://cdn.mawaqit.net/images/backend/mosque/941a2be1-6928-42fc-b768-f7b11d078770/mosque/1eea8dae-ef6e-6142-a4c8-066ed47a7584.jpg",
    "address": "Rue 10",
    "city": "Louga",
    "zipcode": "BP-429",
    "countryFullName": "Senegal",
    "lng": -16.22868,
    "lat": 15.6141768
  },
  {
    "slug": "taariq-boune-zyad-waounde",
    "name": "Taariq Boune Zyad",
    "image1": "https://cdn.mawaqit.net/images/backend/mosque/919020d4-9d31-4ce6-802a-89f0fcb7b57a/mosque/1eea8dd1-25e2-6b0c-8dda-066ed47a7584.jpg",
    "address": "waoundé",
    "city": "Waoundé",
    "zipcode": "99",
    "countryFullName": "Senegal",
    "lng": -12.8658649,
    "lat": 15.2699767
  },
  {
    "slug": "mosquee-hlm-waounde",
    "name": "Mosquée HLM MODINGOULOU",
    "image1": "https://cdn.mawaqit.net/images/backend/mosque/fda8b574-3654-4909-8cc1-71e0a56a24fd/mosque/1eea8ded-0b00-66e2-b908-066ed47a7584.jpeg",
    "address": "AGNAM WORO CIRE AGNAM CIVOL",
    "city": "Waounde",
    "zipcode": "99000",
    "countryFullName": "Senegal",
    "lng": -13.6912718,
    "lat": 16.0062771
  },
  {
    "slug": "masjid-tawhid-diourbel-99-senegal",
    "name": "Masjid TAWHID Diourbel",
    "image1": "https://cdn.mawaqit.net/images/backend/mosque/14e9416b-2f72-4874-b72b-86eec3092a9a/mosque/1eea8e09-9845-6f90-b400-066ed47a7584.jpg",
    "address": "sessene",
    "city": "Diourbel",
    "zipcode": "99",
    "countryFullName": "Senegal",
    "lng": -16.2495482,
    "lat": 14.647907
  },
  {
    "slug": "mosquee-msas-dakar-4024-senegal",
    "name": "Mosquée MSAS",
    "image1": "https://cdn.mawaqit.net/images/backend/mosque/cbe84624-a554-4299-bae0-98e3a3d55ce5/mosque/1eea8e18-f99f-6dc2-9229-066ed47a7584.jpg",
    "address": "Fann Résidence Rue Aimée Césaire",
    "city": "Dakar",
    "zipcode": "4024",
    "countryFullName": "Senegal",
    "lng": -17.4665032,
    "lat": 14.6956909
  },
  {
    "slug": "grande-mosquee-de-ngor-extension-dakar-12000-senegal",
    "name": "Grande Mosquée de Ngor Extension",
    "image1": "https://cdn.mawaqit.net/images/backend/mosque/ccb3af8d-1e1b-4a8e-9b70-cc1aa1beb34d/mosque/1eea8e19-18e6-64b0-a66a-066ed47a7584.jpg",
    "address": "PFWM+GR9",
    "city": "Dakar",
    "zipcode": "12000",
    "countryFullName": "Senegal",
    "lng": -17.4676861,
    "lat": 14.716677
  },
  {
    "slug": "mosquee-de-la-cite-dalal-jam-dakar-112-golf-nord-senegal",
    "name": "Mosquée de la Cité Dalal Jam",
    "image1": "https://cdn.mawaqit.net/images/backend/mosque/511b8528-032d-49ad-918c-ce0c315a2754/mosque/1eea8e38-f9c2-68e8-ae63-066ed47a7584.jpg",
    "address": "Cité Dalal Jam TF N°2276/DP",
    "city": "Dakar",
    "zipcode": "112 Golf Nord",
    "countryFullName": "Senegal",
    "lng": -17.3944899,
    "lat": 14.7796075
  },
  {
    "slug": "mosquee-abou-darda-thies-23000-senegal",
    "name": "Mosquée Abou Darda",
    "image1": "https://cdn.mawaqit.net/images/backend/mosque/1d9e995d-4c9c-4f31-9ae3-d299bb5e856b/mosque/1ef3acf9-7bb8-6554-adee-0a67bcb0d635.jpeg",
    "address": "790 sis route de Dakar 2",
    "city": "Thiès",
    "zipcode": "23000",
    "countryFullName": "Senegal",
    "lng": -16.959575414658,
    "lat": 14.768938071579
  },
  {
    "slug": "mosquee-soninke-dakar-11111-senegal",
    "name": "Mosquée Centre Islamique_Coran & Sunna",
    "image1": "https://cdn.mawaqit.net/images/backend/mosque/be38525b-c98f-4a39-8741-ea7f3b3e6e1e/mosque/1eea8e45-2ab6-6448-98cc-066ed47a7584.jpg",
    "address": "N039 EL MALICK SYX 12 MEDINA 111 PLATEAU",
    "city": "Dakar",
    "zipcode": "11111",
    "countryFullName": "Senegal",
    "lng": -17.450951,
    "lat": 14.6821999
  },
  {
    "slug": "al-ikhlass-dakar-0000-senegal",
    "name": "Masjid Al Ikhlass",
    "image1": "https://cdn.mawaqit.net/images/backend/mosque/c4c41fc6-7f54-485b-9407-17a99e5e121b/mosque/1eea8e90-8d1d-699c-a988-066ed47a7584.jpg",
    "address": "113 YEUMBEUL NORD QT MEDINATOUL MOUNAWARA BOUNE",
    "city": "DAKAR",
    "zipcode": "0000",
    "countryFullName": "Senegal",
    "lng": -17.3932656,
    "lat": 14.7668625
  },
  {
    "slug": "mosquee-awnou-rahmane-dakar-13406-senegal",
    "name": "Mosquée_Awnou Rahmane",
    "image1": "https://cdn.mawaqit.net/images/backend/mosque/b096011b-f181-43a6-b9c6-8770df001646/mosque/1eea8e93-a043-6b18-a7af-066ed47a7584.jpg",
    "address": "Grand Yoff Darou Rahmane Villa N°36",
    "city": "DAKAR",
    "zipcode": "13406",
    "countryFullName": "Senegal",
    "lng": -17.431053,
    "lat": 14.7180103
  },
  {
    "slug": "grande-mosquee-des-mamelles-dakar-15000-senegal",
    "name": "Grande Mosquée des Mamelles",
    "image1": "https://cdn.mawaqit.net/images/backend/mosque/c4da6f2f-51f7-48ed-a5e6-f85ab2a94f56/mosque/1eea8e99-1e74-68fc-bfc6-066ed47a7584.jpg",
    "address": "106 Mamelles Aviation",
    "city": "DAKAR",
    "zipcode": "15000",
    "countryFullName": "Senegal",
    "lng": -17.499878253693,
    "lat": 14.729171298129
  },
  {
    "slug": "mosquee-taiba-1-dakar-7536-senegal",
    "name": "Mosquée Taiba 1",
    "image1": "https://cdn.mawaqit.net/images/backend/mosque/5ed63809-e662-4365-9b76-309e30630686/mosque/1eea8ebe-a45b-6162-a864-066ed47a7584.jpg",
    "address": "Grand yoff taiba 1",
    "city": "DAKAR",
    "zipcode": "7536",
    "countryFullName": "Senegal",
    "lng": -17.4502062,
    "lat": 14.7334896
  },
  {
    "slug": "grande-mosquee-ksl-louga-852-senegal",
    "name": "Grande Mosquee KSL",
    "image1": "https://cdn.mawaqit.net/images/backend/mosque/b15719a2-daf6-4533-aa3c-7e9ab8a583e8/mosque/1eea8ed9-7aab-6518-b06c-066ed47a7584.jpg",
    "address": "KEUR SERIGNE LOUGA",
    "city": "LOUGA",
    "zipcode": "852",
    "countryFullName": "Senegal",
    "lng": -16.2338635,
    "lat": 15.6062872
  },
  {
    "slug": "mosquee-gade-diagne-louga-852-senegal",
    "name": "Mosquée Gade Diagne",
    "image1": "https://cdn.mawaqit.net/images/backend/mosque/672ff0e5-381f-4d98-aa78-8270d886f47f/mosque/1eea8edf-46f3-631e-9ef0-066ed47a7584.jpg",
    "address": "Qut MBambara",
    "city": "LOUGA",
    "zipcode": "852",
    "countryFullName": "Senegal",
    "lng": -16.22868,
    "lat": 15.6141768
  },
  {
    "slug": "mosquee-ouest-foire-sc-moussa-feu-dior-106-senegal",
    "name": "GRANDE MOSQUEE OUEST FOIRE",
    "image1": "https://cdn.mawaqit.net/images/backend/mosque/4fa1e39d-ec6c-4874-916a-9290e8360fbf/mosque/1eea8edf-50e7-6e42-8e2e-066ed47a7584.jpg",
    "address": "Mosquee Ouest Foire",
    "city": "FEU DIOR",
    "zipcode": "106",
    "countryFullName": "Senegal",
    "lng": -17.4708861,
    "lat": 14.7506311
  },
  {
    "slug": "mosquee-montagne-nord-louga-louga-852-senegal",
    "name": "Mosquee Montagne Nord Louga",
    "image1": "https://cdn.mawaqit.net/images/backend/mosque/469934a7-6092-457e-b3ff-4587bc1e5c5d/mosque/1eea8ee2-12d0-6962-ab05-066ed47a7584.jpg",
    "address": "Mosquee Lot 5253",
    "city": "LOUGA",
    "zipcode": "852",
    "countryFullName": "Senegal",
    "lng": -16.22868,
    "lat": 15.6141768
  },
  {
    "slug": "masjid-tawhid-dakar-liberte-47299-senegal",
    "name": "Masjid Tawhid DAKAR HANN",
    "image1": "https://cdn.mawaqit.net/images/backend/mosque/f0b25a6f-13a3-49f0-9bda-5c58f14ee480/mosque/1eebac2f-0f1d-6462-a0d1-06acfcd1c88a.jpg",
    "address": "PH97+VVJ Dakar",
    "city": "DAKAR LIBERTE",
    "zipcode": "47299",
    "countryFullName": "Senegal",
    "lng": -17.4353594,
    "lat": 14.7197125
  },
  {
    "slug": "mosquee-ndime-santhiaba-sud-louga-louga-852-senegal",
    "name": "Grande Mosquee Ndime Santhiaba Sud Louga",
    "image1": "https://cdn.mawaqit.net/images/backend/mosque/f8ea027a-27a9-461b-b797-925b4adf55cc/mosque/1eebe08c-aa3d-6438-9f36-06acfcd1c88a.jpg",
    "address": "Quartier Sud Louga",
    "city": "LOUGA",
    "zipcode": "852",
    "countryFullName": "Senegal",
    "lng": -16.22868,
    "lat": 15.6141768
  },
  {
    "slug": "orphelinat-dakar-sebikotane-sebikhotane-11840-senegal",
    "name": "Orphelinat Dakar دار الأيتام دكارالسنغال",
    "image1": "https://cdn.mawaqit.net/images/backend/mosque/e7df4dd7-2ce5-4ac2-8ad8-fd5b8d7565ec/mosque/1ef1b518-dec3-6eee-a371-0e16b454dc53.jpg",
    "address": "cité feu colonel abdoulaye Sébikhotane",
    "city": "SÉBIKHOTANE",
    "zipcode": "11840",
    "countryFullName": "Senegal",
    "lng": -17.1336827,
    "lat": 14.7450749
  },
  {
    "slug": "mosquee-mbambara-keur-serigne-louga-sud-louga-852-senegal",
    "name": "MOSQUÉE DIAMAGUENE",
    "image1": "https://cdn.mawaqit.net/images/backend/mosque/ab255ffb-c528-447d-a58c-a7cc3b30b365/mosque/1ef443ad-d78f-6f9e-a9d0-0a67bcb0d635.jpg",
    "address": "Mosquee Mbambara Keur Serigne Louga Sud",
    "city": "LOUGA",
    "zipcode": "852",
    "countryFullName": "Senegal",
    "lng": -16.2144256,
    "lat": 15.6212445
  },
  {
    "slug": "mosquee-de-la-gare-de-louga-louga-852-senegal",
    "name": "Mosquee de la Gare de Louga",
    "image1": "https://cdn.mawaqit.net/images/backend/mosque/8e8b1bd7-5efa-42b2-b290-e30b5d781242/mosque/1ef5be7d-24e0-67b2-994e-0afeeb7ee923.jpg",
    "address": "Enceinte Gare Face Cheikh Tidiane Sylla - Artillerie",
    "city": "LOUGA",
    "zipcode": "852",
    "countryFullName": "Senegal",
    "lng": -16.2252223,
    "lat": 15.6230756
  },
  {
    "slug": "mosquee-santhiaba-nord-louga-852-senegal",
    "name": "MOSQUEE MAME CHEIKH MBAYE LOUGA",
    "image1": "https://cdn.mawaqit.net/images/backend/mosque/3ea14b56-cf46-4cac-a8fe-7fdbb6769e02/mosque/1ef78e9d-854c-687a-9358-0ecd6770c589.jpg",
    "address": "Santhiaba Nord",
    "city": "LOUGA",
    "zipcode": "852",
    "countryFullName": "Senegal",
    "lng": -16.2277649,
    "lat": 15.6142466
  },
  {
    "slug": "mosquee-al-imaane-dakar-10700-senegal",
    "name": "Mosquée Al-Imaane - مسجد الإمان",
    "image1": "https://cdn.mawaqit.net/images/backend/mosque/37c09177-ec31-45b4-b62a-7c3fe5f1fad4/mosque/1ef83303-62fe-6b8c-8a79-0671c73660c5.jpg",
    "address": "811 Boulevard Canal VI",
    "city": "DAKAR",
    "zipcode": "10700",
    "countryFullName": "Senegal",
    "lng": -17.4603769,
    "lat": 14.6818362
  },
  {
    "slug": "mosquee-ridwane-dakar-3280-senegal",
    "name": "Mosquée RIDWANE",
    "image1": "https://cdn.mawaqit.net/images/backend/mosque/8f8d528a-1c6f-4579-9dbc-a535b3848bbb/mosque/1ef89903-ba91-6b22-b7f0-0e9d077f5bb1.jpeg",
    "address": "51x52 mermoz pyrotechnie",
    "city": "DAKAR",
    "zipcode": "3280",
    "countryFullName": "Senegal",
    "lng": -17.4741094,
    "lat": 14.7127125
  },
  {
    "slug": "mosquee-serigne-mame-malick-sall-louga-852-senegal",
    "name": "Mosquee Serigne Mame Malick Sall",
    "image1": "https://cdn.mawaqit.net/images/backend/mosque/383fd217-536a-4efc-8573-faf871c9d7da/mosque/1ef945c0-cce7-649c-a207-0a0389a4e0f5.jpg",
    "address": "Montagne",
    "city": "LOUGA",
    "zipcode": "852",
    "countryFullName": "Senegal",
    "lng": -16.22868,
    "lat": 15.6141768
  },
  {
    "slug": "collectivite-musulmane-santhiaba-centre-louga-852-senegal",
    "name": "Collectivité Musulmane Santhiaba Centre",
    "image1": "https://cdn.mawaqit.net/images/backend/mosque/f0f240b6-1e05-4512-b010-b708c594e259/mosque/1ef9b670-55da-69e6-9754-0671c73660c5.jpg",
    "address": "Santhiaba Centre",
    "city": "LOUGA",
    "zipcode": "852",
    "countryFullName": "Senegal",
    "lng": -16.227784,
    "lat": 15.6275908
  },
  {
    "slug": "mosquee-payenne-santhiaba-sud-louga-louga-852-senegal",
    "name": "Mosquee Payenne Santhiaba Sud Louga",
    "image1": "https://cdn.mawaqit.net/images/backend/mosque/ea5a8e9a-57fd-4d8c-ae40-40d8e3afc8cc/mosque/1efaa64f-dab5-60ec-ac2a-0a0389a4e0f5.jpg",
    "address": "Louga Sud",
    "city": "LOUGA",
    "zipcode": "852",
    "countryFullName": "Senegal",
    "lng": -16.22868,
    "lat": 15.6141768
  },
  {
    "slug": "grande-mosquee-ndiang-bambodj-louga-852-senegal",
    "name": "Grande Mosquée  Ndiang Bambodj",
    "image1": "https://cdn.mawaqit.net/images/backend/mosque/f1f14ef6-dcf3-4969-bf5d-0d1d6cf19a87/mosque/1efbc954-9785-6f96-b732-0ef2881d9837.jpg",
    "address": "Santhiaba Nord",
    "city": "LOUGA",
    "zipcode": "852",
    "countryFullName": "Senegal",
    "lng": -16.2277649,
    "lat": 15.6142466
  },
  {
    "slug": "mosquee-imam-malick-dakar-17000-senegal",
    "name": "Mosquée Imam Malick",
    "image1": "https://cdn.mawaqit.net/images/backend/mosque/6fefec7b-b398-4e69-8b65-b440b00546ca/mosque/1efc16c5-8549-6f76-b4d0-06bada7b305f.jpg",
    "address": "Cité Sonatel Malika",
    "city": "DAKAR",
    "zipcode": "17000",
    "countryFullName": "Senegal",
    "lng": -17.335362,
    "lat": 14.7880652
  },
  {
    "slug": "masjid-al-ihsan-mbour-mbour-senegal",
    "name": "Masjid Al-Ihsan",
    "image1": "https://cdn.mawaqit.net/images/backend/mosque/78cd7cf7-5ad1-465b-92dc-06af28fe221f/mosque/1efe339c-1bdb-630a-bbc9-063aa5df5c67.png",
    "address": "73 Saly-Joseph",
    "city": "MBOUR",
    "zipcode": "Mbour",
    "countryFullName": "Senegal",
    "lng": -17.0147394,
    "lat": 14.4613803
  },
  {
    "slug": "masjid-taiba-1-dakar-002219100446-senegal",
    "name": "MASJID TAIBA 1",
    "image1": "https://cdn.mawaqit.net/images/backend/mosque/8866239b-7eb3-43ae-996d-8a1d91726859/mosque/1eff04e5-557c-654e-8005-0e61b0058d45.jpg",
    "address": "Grand yoff Taiba 1",
    "city": "DAKAR",
    "zipcode": "002219100446",
    "countryFullName": "Senegal",
    "lng": -17.4502062,
    "lat": 14.7334896
  },
  {
    "slug": "mosquee-maison-dallah-msjd-byt-llh-thies-221-senegal",
    "name": "MOSQUÉE MAISON D’ALLAH مسجد بيت الله",
    "image1": "https://cdn.mawaqit.net/images/backend/mosque/7400de68-1baa-4cbc-bca0-cd34f581156d/mosque/1eff6eb7-fab0-66a0-bf77-06ef9144e88f.jpg",
    "address": "BAYAKH",
    "city": "THIES",
    "zipcode": "221",
    "countryFullName": "Senegal",
    "lng": -17.129895687103,
    "lat": 14.834421612492
  },
  {
    "slug": "masdjidou-rassoul-dakar-221-senegal",
    "name": "MASDJIDOU RASSOUL VDN",
    "image1": "https://cdn.mawaqit.net/images/backend/mosque/d8e766d0-1e35-45c9-a4ff-cf739038e7c8/mosque/1effe88a-51ed-682c-b371-0a2e1c0b5725.jpg",
    "address": "OUEST FOIRE VDN",
    "city": "DAKAR",
    "zipcode": "221",
    "countryFullName": "Senegal",
    "lng": -17.472215320983,
    "lat": 14.741920513161
  },
  {
    "slug": "mosquee-cite-alia-diene-dakar-12000-senegal",
    "name": "Mosquée Cité Alia Diène",
    "image1": "https://cdn.mawaqit.net/images/backend/mosque/5efe7fcc-a619-426b-a047-08ca9eaa9d7c/mosque/1effe8ce-9e8e-6728-a64f-06ef9144e88f.jpg",
    "address": "264 rue YF 572",
    "city": "DAKAR",
    "zipcode": "12000",
    "countryFullName": "Senegal",
    "lng": -17.471349,
    "lat": 14.7540608
  },
  {
    "slug": "mor-thiam-bambilor-00000-senegal",
    "name": "Mor Thiam",
    "image1": "https://cdn.mawaqit.net/images/backend/mosque/6062272b-54a0-4451-b245-7af43b47fdee/mosque/1f004271-0131-6852-b11a-0ed38df5d5e5.jpg",
    "address": "Bambilor, Sénégal",
    "city": "BAMBILOR",
    "zipcode": "00000",
    "countryFullName": "Senegal",
    "lng": -17.1971291,
    "lat": 14.7945242
  },
  {
    "slug": "grande-mosquee-cite-hawo-dia-dakar-senegal-19529-senegal",
    "name": "Grande Mosquée Cité Hawo DIA",
    "image1": "https://cdn.mawaqit.net/images/backend/mosque/7f68c769-8301-45cc-844d-3e13b06c95b4/mosque/1f00fb2f-958c-67b4-9a85-0ac73cfd41db.png",
    "address": "CITE HAWO DIA, KOUNOUNE, SANGALKAM",
    "city": "DAKAR",
    "zipcode": "19529",
    "countryFullName": "Senegal",
    "lng": -17.249609,
    "lat": 14.756642
  },
  {
    "slug": "mosquee-ndeg1-unite-4-dakar-neant-senegal",
    "name": "Grande Mosquée de l'unité 4",
    "image1": "https://cdn.mawaqit.net/images/backend/mosque/94c538cf-cc32-46de-b144-c72d35c9f40d/mosque/1f01785f-773f-6254-8bc0-0e61b0058d45.jpg",
    "address": "Parcelles Assainies Unité 4 Guédiawaye",
    "city": "DAKAR",
    "zipcode": "Néant",
    "countryFullName": "Senegal",
    "lng": -17.3660116,
    "lat": 14.7644745
  },
  {
    "slug": "mosquee-1-unite-3-dakar-00000-senegal",
    "name": "Masdjidoul Khouba Unité 3",
    "image1": "https://cdn.mawaqit.net/images/backend/mosque/2a724edd-6b3a-4ffd-81a2-a11d4872369e/mosque/1f01d69a-e052-675c-a8b2-06bdda781935.jpeg",
    "address": "Parcelles Assainies Unité 3",
    "city": "DAKAR",
    "zipcode": "00000",
    "countryFullName": "Senegal",
    "lng": -17.432643,
    "lat": 14.754409
  },
  {
    "slug": "grande-mosquee-de-soprim-extension-dakar-11500-senegal",
    "name": "Grande Mosquée de Soprim-Extension",
    "image1": "https://cdn.mawaqit.net/images/backend/mosque/4f3fca75-48c1-4f70-9e2b-9c93f99094a2/mosque/1f01e220-b890-68b8-9f23-06bdda781935.jpeg",
    "address": "QH39+JVW, Dakar",
    "city": "DAKAR",
    "zipcode": "11500",
    "countryFullName": "Senegal",
    "lng": -17.4302969,
    "lat": 14.7541125
  },
  {
    "slug": "mosquee-abdallah-job-louga-852-senegal",
    "name": "مسجد عبد الله جوب",
    "image1": "https://cdn.mawaqit.net/images/backend/mosque/523c2cde-075f-4a12-bd2b-ea159282f352/mosque/1f0298e5-66d3-6efe-8c0d-0aa0def8c88b.jpg",
    "address": "Louga, Sénégal",
    "city": "LOUGA",
    "zipcode": "852",
    "countryFullName": "Senegal",
    "lng": -16.22868,
    "lat": 15.6141768
  },
  {
    "slug": "mosquee-ndiang-ba-mbodji-louga-31000-senegal",
    "name": "Mosquée NDIANG BA MBODJI N°2",
    "image1": "https://cdn.mawaqit.net/images/backend/mosque/55b0655f-eaec-49f3-8290-ddb2b0a9801d/mosque/1f029922-25a7-6736-bf36-063f15cb3ad3.jpg",
    "address": "Louga, Sénégal",
    "city": "LOUGA",
    "zipcode": "31000",
    "countryFullName": "Senegal",
    "lng": -16.22868,
    "lat": 15.6141768
  },
  {
    "slug": "masjid-ahlou-sounna-mbour-mbour-00021-senegal",
    "name": "MASJID AHLOU SOUNNA MBOUR مسجد اهل السنة",
    "image1": "https://cdn.mawaqit.net/images/backend/mosque/ce6f3da8-c498-41ab-8558-b7b9ef95592a/mosque/1f03af51-aa24-6126-a163-0611a4e5dd55.jpg",
    "address": "Mosquée Ahlou sounna Mbour, M'bour, Sénégal",
    "city": "M'BOUR",
    "zipcode": "00021",
    "countryFullName": "Senegal",
    "lng": -16.9834603,
    "lat": 14.4268042
  },
  {
    "slug": "grande-mosquee-de-la-commune-de-mbour-mbour-0021-senegal",
    "name": "GRANDE MOSQUEE DE MBOUR",
    "image1": "https://cdn.mawaqit.net/images/backend/mosque/c8c8143f-6daa-470c-bad4-1f985759c084/mosque/1f03ca4f-cf37-6a4e-a8f2-0afdac34284f.jpg",
    "address": "Grande mosquée de Mbour, M'bour, Sénégal",
    "city": "M'BOUR",
    "zipcode": "0021",
    "countryFullName": "Senegal",
    "lng": -16.9658024,
    "lat": 14.4125249
  }
]