[
  {
    "slug": "alrahman-mouske-vanersborg-46237-sweden",
    "name": "Alrahman mouske",
    "image1": "https://cdn.mawaqit.net/images/backend/mosque/7cf446ca-eca2-4cf5-b590-d1a7da8f07c1/mosque/1eea8e11-ee72-6424-88ae-066ed47a7584.jpg",
    "address": "Belfragegatan 34-32",
    "city": "Vänersborg",
    "zipcode": "46237",
    "countryFullName": "Sweden",
    "lng": 12.332034,
    "lat": 58.373488
  },
  {
    "slug": "frolunda-moske",
    "name": "FRÖLUNDA MASJID",
    "image1": "https://cdn.mawaqit.net/images/backend/mosque/77d459d5-3f8c-4e51-8998-f8df775a746b/mosque/1eea8e26-384f-6376-8163-066ed47a7584.jpg",
    "address": "beatrice Lesslies gata 10",
    "city": "Västra-Frölunda",
    "zipcode": "42131",
    "countryFullName": "Sweden",
    "lng": 11.9433905,
    "lat": 57.6579268
  },
  {
    "slug": "msjd-sndsfl-sundsvall-85236-sweden",
    "name": "Sundsvall mosque",
    "image1": "https://cdn.mawaqit.net/images/backend/mosque/7138e1e7-9aa5-4907-b824-5578ac40fbfa/mosque/1eea8e40-27c5-6efa-85a1-066ed47a7584.jpg",
    "address": "nybrogatan 37",
    "city": "Sundsvall",
    "zipcode": "85236",
    "countryFullName": "Sweden",
    "lng": 17.309312671423,
    "lat": 62.385925803891
  },
  {
    "slug": "arlovs-moske-msjd-rlwf-arlov-23238-sweden",
    "name": "Arlövs Moské  مسجد أرلوف",
    "image1": "https://cdn.mawaqit.net/images/backend/mosque/04bbd0f4-ac8f-4635-b50f-39227f1953d4/mosque/1eea8e74-1f51-6f06-af82-066ed47a7584.jpg",
    "address": "Hantverkaregatan 4",
    "city": "Arlöv",
    "zipcode": "23234",
    "countryFullName": "Sweden",
    "lng": 13.0766105,
    "lat": 55.6361507
  },
  {
    "slug": "ulricehamns-moske-ulricehamn-52337-sweden",
    "name": "Ulricehamns moské",
    "image1": "https://cdn.mawaqit.net/images/backend/mosque/02e70e11-c369-4dc9-a6dd-124f130c3b63/mosque/1eea8e8d-7e05-6b6a-bc35-066ed47a7584.jpg",
    "address": "Dalgatan 3-5",
    "city": "ULRICEHAMN",
    "zipcode": "52337",
    "countryFullName": "Sweden",
    "lng": 13.4148105,
    "lat": 57.798158
  },
  {
    "slug": "falkoping-falkoping-52144-sweden",
    "name": "Falköping",
    "image1": "https://cdn.mawaqit.net/images/backend/mosque/bda7b3e0-1955-42a9-9d52-cf39806076c6/mosque/1eea8e93-442f-6ade-a369-066ed47a7584.jpg",
    "address": "Sten Sturegatan 5, 521 32 Falköping",
    "city": "FALKöPING",
    "zipcode": "52144",
    "countryFullName": "Sweden",
    "lng": 13.5579133,
    "lat": 58.1778514
  },
  {
    "slug": "al-rahman-eskilstuna-63225-sweden",
    "name": "Al Rahman Moskén Eskilstuna",
    "image1": "https://cdn.mawaqit.net/images/backend/mosque/5582bf8c-ee24-46ac-932e-0b9b2423106d/mosque/1eea8e9a-d29a-6fb0-b4d1-066ed47a7584.jpg",
    "address": "Järntorget 2",
    "city": "ESKILSTUNA",
    "zipcode": "63225",
    "countryFullName": "Sweden",
    "lng": 16.5077384,
    "lat": 59.3667622
  },
  {
    "slug": "mevlana-cami-goteborg-41705-sweden",
    "name": "Mevlana Cami",
    "image1": "https://cdn.mawaqit.net/images/backend/mosque/58e44f1c-6dcc-47c1-9edb-6bc18eba5e34/mosque/1eea8ea3-5a84-6644-ac0c-066ed47a7584.jpg",
    "address": "Gamla Tuvevägen 22",
    "city": "GöTEBORG",
    "zipcode": "41705",
    "countryFullName": "Sweden",
    "lng": 11.9465415,
    "lat": 57.7245024
  },
  {
    "slug": "karlstad-moske-karlstad-656-32-sweden",
    "name": "Karlstad Moske",
    "image1": "https://cdn.mawaqit.net/images/backend/mosque/13a37ee4-17d2-4426-9802-66e238d692d0/mosque/1eea8ee6-7480-6e10-b732-066ed47a7584.jpg",
    "address": "Jakthornsgatan 98A",
    "city": "KARLSTAD",
    "zipcode": "656 32",
    "countryFullName": "Sweden",
    "lng": 13.5680658,
    "lat": 59.4058238
  },
  {
    "slug": "vanersborg-muslimer-moske-vanersborg-46232-sweden",
    "name": "Vänersborg Muslimer Moské",
    "image1": "https://cdn.mawaqit.net/images/backend/mosque/934e4960-16b3-4db1-bc51-4abf933c3025/mosque/1eea8ee7-4892-6730-886d-066ed47a7584.jpg",
    "address": "Torpavägen 3",
    "city": "VäNERSBORG",
    "zipcode": "46236",
    "countryFullName": "Sweden",
    "lng": 12.329344,
    "lat": 58.37324
  },
  {
    "slug": "islamiska-kulturforeningen-i-trollhattan-trollhattan-46161-sweden",
    "name": "Islamiska Kulturföreningen i Trollhättan",
    "image1": "https://cdn.mawaqit.net/images/backend/mosque/600ffb88-a4f6-49c2-b494-f39229b481ea/mosque/1eea8ee8-1283-6ddc-9d7c-066ed47a7584.jpg",
    "address": "Slåttervägen 70B",
    "city": "TROLLHäTTAN",
    "zipcode": "46161",
    "countryFullName": "Sweden",
    "lng": 12.2993727,
    "lat": 58.2696103
  },
  {
    "slug": "visby-gotland-moske-visby-62139-sweden",
    "name": "Visby Gotland moské",
    "image1": "https://cdn.mawaqit.net/images/backend/mosque/8009a416-748f-4ada-a4ef-1dfefcd4a8c0/mosque/1eeb8590-49b8-61f0-b332-0aedfd0440f0.jpeg",
    "address": "Mästergatan 2",
    "city": "VISBY",
    "zipcode": "62139",
    "countryFullName": "Sweden",
    "lng": 18.3126442,
    "lat": 57.6409418
  },
  {
    "slug": "astorps-moske-astorp-26534-sweden",
    "name": "Åstorps Moské",
    "image1": "https://cdn.mawaqit.net/images/backend/mosque/6af1ee26-5853-49b1-bd81-276d7c4aec5c/mosque/1eed41fb-ae7f-64ca-9c03-0a7eba2dd6b3.jpg",
    "address": "storgatan 6",
    "city": "ÅSTORP",
    "zipcode": "26534",
    "countryFullName": "Sweden",
    "lng": 12.9489478,
    "lat": 56.1353168
  },
  {
    "slug": "hudiksvall-moske-hudiksvall-82454-sweden",
    "name": "Hudiksvall Moské",
    "image1": "https://cdn.mawaqit.net/images/backend/mosque/0a842ce9-d06f-4c9a-8584-642322c01c5d/mosque/1ef03fa7-db59-628c-9487-0e8f4a8ce035.jpg",
    "address": "Hamngatan 45",
    "city": "HUDIKSVALL",
    "zipcode": "82454",
    "countryFullName": "Sweden",
    "lng": 17.1206232,
    "lat": 61.7271471
  },
  {
    "slug": "svenljunga-moske-svenljunga-51250-sweden-1",
    "name": "Svenljunga Möské",
    "image1": "https://cdn.mawaqit.net/images/backend/mosque/7cb6b0d6-5282-488b-a9b3-3aa3b7b14180/mosque/1ef1e869-a8ff-6284-a980-0acd791c875b.jpg",
    "address": "Torggatan 3, 512 50 Svenljunga",
    "city": "SVENLJUNGA",
    "zipcode": "51250",
    "countryFullName": "Sweden",
    "lng": 13.1116159,
    "lat": 57.4958329
  },
  {
    "slug": "26697",
    "name": "Bilal Moské مسجد بلال",
    "image1": "https://cdn.mawaqit.net/images/backend/mosque/3941c4f4-2d08-440f-9bd1-22bbd939217a/mosque/1efe8737-481f-6300-96b8-0e61b0058d45.png",
    "address": "Kvekatorpsvägen 2B, 311 75",
    "city": "FALKENBERG",
    "zipcode": "2B, 311",
    "countryFullName": "Sweden",
    "lng": 12.4808605,
    "lat": 56.9043079
  },
  {
    "slug": "skelleftea-moske-skelleftea-93130-sweden-2",
    "name": "Skellefteå Moské",
    "image1": "https://cdn.mawaqit.net/images/backend/mosque/591e55cb-ee89-4e8a-8799-e0c6e59b2581/mosque/1ef75303-ae0c-63da-a971-0affcb0701ab.jpeg",
    "address": "Hörnellgatan 13",
    "city": "SKELLEFTEå",
    "zipcode": "93130",
    "countryFullName": "Sweden",
    "lng": 20.9550712,
    "lat": 64.7508671
  },
  {
    "slug": "islamic-center-i-malmo-malmo-212-37-sweden",
    "name": "Islamic Center i Malmö",
    "image1": "https://cdn.mawaqit.net/images/backend/mosque/dcbe8413-3a08-4de1-8093-1ec0bb0f383f/mosque/1ef95270-e9c7-67a8-a21c-0a0389a4e0f5.jpg",
    "address": "Jägersrovägen 90",
    "city": "MALMö",
    "zipcode": "212 37",
    "countryFullName": "Sweden",
    "lng": 13.0513465,
    "lat": 55.5750559
  },
  {
    "slug": "orebro-moske-orebro-70370-sweden",
    "name": "Örebro Moské",
    "image1": "https://cdn.mawaqit.net/images/backend/mosque/8f31da57-0725-45df-95fb-1cc195694cd2/mosque/1ef9701d-f983-62c6-b669-0671c73660c5.jpg",
    "address": "Epiloggatan 1",
    "city": "ÖREBRO",
    "zipcode": "70370",
    "countryFullName": "Sweden",
    "lng": 15.1975403,
    "lat": 59.2984124
  },
  {
    "slug": "dar-assalam-moske-504-37-boras-sweden",
    "name": "Dar Assalam moské مسجد دار السلام",
    "image1": "https://cdn.mawaqit.net/images/backend/mosque/21346dad-ae9f-4e2d-84eb-8fec64d8fcbd/mosque/1efa4bfe-8de0-670e-bd14-0e9d077f5bb1.png",
    "address": "Östgötagatan 27",
    "city": "BORåS",
    "zipcode": "504 37",
    "countryFullName": "Sweden",
    "lng": 12.9310731,
    "lat": 57.7240468
  },
  {
    "slug": "msjd-lbyn-malmo-21367-sweden",
    "name": "مسجد البيان",
    "image1": "https://cdn.mawaqit.net/images/backend/mosque/93382de3-5abb-4443-9777-c6267792b784/mosque/1efa4cdb-bd8a-66a2-87d9-0e9d077f5bb1.png",
    "address": "Hårds väg 4c",
    "city": "MALMö",
    "zipcode": "21367",
    "countryFullName": "Sweden",
    "lng": 13.0315682,
    "lat": 55.5857707
  },
  {
    "slug": "laholmsmasjid-laholm-312-34-sweden",
    "name": "LAHOLMS MOSKÉ",
    "image1": "https://cdn.mawaqit.net/images/backend/mosque/0e1648d3-b0d5-462b-9d0c-ee6f0affc768/mosque/1efaa770-d381-63f8-ab95-0671c73660c5.jpg",
    "address": "Kullsgårdsvägen 29",
    "city": "LAHOLM",
    "zipcode": "312 34",
    "countryFullName": "Sweden",
    "lng": 13.0173878,
    "lat": 56.4985956
  },
  {
    "slug": "vetlanda-moske-vetlanda-57438-sweden",
    "name": "Vetlanda Moské",
    "image1": "https://cdn.mawaqit.net/images/backend/mosque/11bdc87d-3585-4ce6-8104-877981d80464/mosque/1efc6571-b840-6920-9a07-0a21b15e7a1f.jpg",
    "address": "Vasagatan 3, 574 38 Vetlanda",
    "city": "VETLANDA",
    "zipcode": "57438",
    "countryFullName": "Sweden",
    "lng": 15.0798735,
    "lat": 57.4213388
  },
  {
    "slug": "klipaan-mosken-klippan-26435-sweden",
    "name": "Klippans Moské   مسجد كليبان",
    "image1": "https://cdn.mawaqit.net/images/backend/mosque/a194f3f0-a862-4c03-892b-0281164cc6ef/mosque/1efeecbb-54f5-6162-8ac9-0a7d06691847.jpg",
    "address": "Åbyplan 2b",
    "city": "KLIPPAN",
    "zipcode": "26435",
    "countryFullName": "Sweden",
    "lng": 13.1299637,
    "lat": 56.1363849
  },
  {
    "slug": "hedemora-moske-hedemora-776-33-sweden",
    "name": "Hedemora Moske",
    "image1": "https://cdn.mawaqit.net/images/backend/mosque/7dd0bcb9-88de-470d-b8d1-ea03cbc09c7f/mosque/1eff69cb-780b-6c18-907e-0a4cfd8cef51.jpg",
    "address": "Melinsgatan 8A,",
    "city": "HEDEMORA",
    "zipcode": "776 33",
    "countryFullName": "Sweden",
    "lng": 15.9867625,
    "lat": 60.2829432
  },
  {
    "slug": "boras-mosken-boras-50435-sweden",
    "name": "Borås moskén",
    "image1": "https://cdn.mawaqit.net/images/backend/mosque/03018419-26c0-4643-927c-caddfb710f2a/mosque/1eff7223-1eed-661c-8354-0afdb4a7872f.jpg",
    "address": "Magasinsgatan 16",
    "city": "BORåS",
    "zipcode": "50435",
    "countryFullName": "Sweden",
    "lng": 12.9310457,
    "lat": 57.7212139
  },
  {
    "slug": "islamiskaultor-foraneningen-i-malmo-malmo-21367-sweden",
    "name": "Islamiskaultör Föraneningen I Malmö",
    "image1": "https://cdn.mawaqit.net/images/backend/mosque/f8430d47-dc79-4f76-9337-3f963b6b1ef7/mosque/1f003470-83b3-630c-9f65-0e4fa23cf9cb.jpg",
    "address": "Bennetsväg 8",
    "city": "MALMö",
    "zipcode": "21367",
    "countryFullName": "Sweden",
    "lng": 13.034332,
    "lat": 55.5874353
  },
  {
    "slug": "social-kultur-forening-ostra-karup-26941-sweden",
    "name": "Social kultur förening",
    "image1": "https://cdn.mawaqit.net/images/backend/mosque/23c181af-ca3f-43f4-8254-32d494b7b26c/mosque/1f003720-47c5-636a-9af8-0e61b0058d45.jpg",
    "address": "Tomtaholmsvägen 6",
    "city": "ÖSTRA KARUP",
    "zipcode": "26941",
    "countryFullName": "Sweden",
    "lng": 12.9390783,
    "lat": 56.4264607
  },
  {
    "slug": "gislaved-moske-gislaved-33232-sweden",
    "name": "GISLAVED MOSKE",
    "image1": "https://cdn.mawaqit.net/images/backend/mosque/c343e2de-1783-4a8f-ab0d-313aa4d3787c/mosque/1f02034e-d792-6244-a280-06bdda781935.jpeg",
    "address": "Västergatan 15 b",
    "city": "GISLAVED",
    "zipcode": "33232",
    "countryFullName": "Sweden",
    "lng": 13.532072,
    "lat": 57.303268
  },
  {
    "slug": "borlange-islamiska-forbundet-borlange-78441-sweden",
    "name": "Borlänge islamiska förbundet",
    "image1": "https://cdn.mawaqit.net/images/backend/mosque/92fd6611-5639-43be-a4ee-e8ea5d568649/mosque/1f010a11-0444-6aa4-9683-0e61b0058d45.jpg",
    "address": "Betesgatan 1",
    "city": "BORLäNGE",
    "zipcode": "78441",
    "countryFullName": "Sweden",
    "lng": 15.4136553,
    "lat": 60.4965634
  },
  {
    "slug": "al-rahman-moske-boras-504-37-sweden",
    "name": "AlRahman Moské",
    "image1": "https://cdn.mawaqit.net/images/backend/mosque/a802da09-0a80-4841-adcc-3a021ce608b4/mosque/1f01addc-161b-6024-b73a-06bdda781935.jpg",
    "address": "Marklandsgatan 5, Borås, Sverige",
    "city": "BORåS",
    "zipcode": "504 37",
    "countryFullName": "Sweden",
    "lng": 12.9757825,
    "lat": 57.7326369
  },
  {
    "slug": "uppsala-mosque-uppsala-754-19-sweden",
    "name": "Uppsala mosque",
    "image1": "https://cdn.mawaqit.net/images/backend/mosque/53965dee-f892-4f46-99b5-e0d4b4b84f5e/mosque/1f02105a-7a89-671e-8af1-06bdda781935.jpeg",
    "address": "Sportfältsvägen 1, 754 19 Uppsala, Sverige",
    "city": "UPPSALA",
    "zipcode": "754 19",
    "countryFullName": "Sweden",
    "lng": 17.6378336,
    "lat": 59.8742828
  }
]