[
  {
    "slug": "acmne-neuchatel",
    "name": "ACMNE",
    "image1": "https://cdn.mawaqit.net/images/backend/mosque_default_picture.png",
    "address": "Rue des Tunnels 36,",
    "city": "Neuchâtel",
    "zipcode": "2000",
    "countryFullName": "Switzerland",
    "lng": 6.9141318,
    "lat": 46.9901104
  },
  {
    "slug": "ccicdf",
    "name": "CCI de La Chaux-de-Fonds",
    "image1": "https://cdn.mawaqit.net/images/backend/mosque_default_picture.png",
    "address": "Rue du Parc 48",
    "city": "Chaux-de-Fonds",
    "zipcode": "2300",
    "countryFullName": "Switzerland",
    "lng": 6.8250626550335,
    "lat": 47.101633789772
  },
  {
    "slug": "centre-islamique-geneve",
    "name": "Centre islamique de Genève",
    "image1": "https://cdn.mawaqit.net/images/backend/mosque_default_picture.png",
    "address": "104 Rue des Eaux-Vives",
    "city": "Genève",
    "zipcode": "1207",
    "countryFullName": "SWITZERLAND",
    "lng": 6.1610893,
    "lat": 46.205719
  },
  {
    "slug": "ccml",
    "name": "CCML",
    "image1": "https://cdn.mawaqit.net/images/backend/mosque_default_picture.png",
    "address": "Avenue de la Confrérie 11",
    "city": "Prilly",
    "zipcode": "1008",
    "countryFullName": "Switzerland",
    "lng": 6.6071931551217,
    "lat": 46.530613201014
  },
  {
    "slug": "dabbour-le-locle",
    "name": "MOSQUÉE ACIL",
    "image1": "https://cdn.mawaqit.net/images/backend/mosque_default_picture.png",
    "address": "Rue du Raisin 7",
    "city": "Le-Locle",
    "zipcode": "2400",
    "countryFullName": "Switzerland",
    "lng": 6.7581661,
    "lat": 47.0623061
  },
  {
    "slug": "masjed-martigny-martigny",
    "name": "Masjid Martigny",
    "image1": "https://cdn.mawaqit.net/images/backend/mosque_default_picture.png",
    "address": "Rue de l’Ancienne Pointe 16",
    "city": "Martigny",
    "zipcode": "1920",
    "countryFullName": "Switzerland",
    "lng": 7.0931993,
    "lat": 46.1097142
  },
  {
    "slug": "ccmn",
    "name": "CCMN",
    "image1": "https://cdn.mawaqit.net/images/backend/mosque_default_picture.png",
    "address": "Av. du Mont-Blanc 31",
    "city": "Gland",
    "zipcode": "1196",
    "countryFullName": "Switzerland",
    "lng": 6.2724029,
    "lat": 46.4165179
  },
  {
    "slug": "mosquee-de-payerne-payerne",
    "name": "Mosquée de Payerne",
    "image1": "https://cdn.mawaqit.net/images/backend/mosque_default_picture.png",
    "address": "Route du Chatelard 13",
    "city": "Payerne",
    "zipcode": "1530",
    "countryFullName": "Switzerland",
    "lng": 6.9285931,
    "lat": 46.810819
  },
  {
    "slug": "bex",
    "name": "Le Bienfaisant",
    "image1": "https://cdn.mawaqit.net/images/backend/mosque/5dbd4372-4c53-48e4-8e53-1affad049b81/mosque/1eea8da2-666d-6548-8186-066ed47a7584.jpg",
    "address": "Rue du simplon 23",
    "city": "Bex",
    "zipcode": "1880",
    "countryFullName": "Switzerland",
    "lng": 7.0052415,
    "lat": 46.2473519
  },
  {
    "slug": "mosquee-de-morges-lonay",
    "name": "C.C.M.Morges",
    "image1": "https://cdn.mawaqit.net/images/backend/mosque/dd3654ba-bd1d-4955-a521-4aaa85640961/mosque/1eec9730-c4ae-6992-a3db-0ede686d7942.jpg",
    "address": "Chemin des mouettes, 1",
    "city": "LONAY",
    "zipcode": "1027",
    "countryFullName": "Switzerland",
    "lng": 6.5117849,
    "lat": 46.518694
  },
  {
    "slug": "assala-lausanne",
    "name": "مركز السلام",
    "image1": "https://cdn.mawaqit.net/images/backend/mosque_default_picture.png",
    "address": "Chemin Isabelle De Montolieu 117",
    "city": "Lausanne",
    "zipcode": "1010",
    "countryFullName": "Switzerland",
    "lng": 6.6469087,
    "lat": 46.5435082
  },
  {
    "slug": "omar-crissier",
    "name": "مسجد عمر بن الخطاب",
    "image1": "https://cdn.mawaqit.net/images/backend/mosque/fbcdcf94-afc4-490d-87de-4e92ada629e4/mosque/1eea8da9-9da2-65fc-b51f-066ed47a7584.jpg",
    "address": "Rue du Jura 7",
    "city": "Crissier",
    "zipcode": "1023",
    "countryFullName": "Switzerland",
    "lng": 6.578492,
    "lat": 46.539141
  },
  {
    "slug": "alboukhari-lausanne",
    "name": "Centre d'études islamiques Boukhari",
    "image1": "https://cdn.mawaqit.net/images/backend/mosque_default_picture.png",
    "address": "Avenue Severy 2",
    "city": "Lausanne",
    "zipcode": "1004",
    "countryFullName": "Switzerland",
    "lng": 6.6116763375869,
    "lat": 46.528057565767
  },
  {
    "slug": "alhikma-lausanne",
    "name": "مؤسسة الحكمة Fondation Al Hikma",
    "image1": "https://cdn.mawaqit.net/images/backend/mosque_default_picture.png",
    "address": "Route des Martines 111B",
    "city": "LE MONT-SUR-LAUSANNE",
    "zipcode": "1052",
    "countryFullName": "Switzerland",
    "lng": 6.6348519,
    "lat": 46.5428744
  },
  {
    "slug": "teeba-schaffhausen",
    "name": "مركز طيبة الإسلامي",
    "image1": "https://cdn.mawaqit.net/images/backend/mosque/b851a789-87c3-4deb-a740-e819e6168e51/mosque/1eea8daf-f54a-6650-bfe6-066ed47a7584.jpg",
    "address": "Bahnhofstrasse 102",
    "city": "Schaffhausen",
    "zipcode": "8200",
    "countryFullName": "Switzerland",
    "lng": 8.636021,
    "lat": 47.7007395
  },
  {
    "slug": "el-falah-sion",
    "name": "El-Falah",
    "image1": "https://cdn.mawaqit.net/images/backend/mosque/488dbb8f-5613-4251-b81a-da866ba00c2d/mosque/1eea8dbb-ed09-6eb2-90a5-066ed47a7584.jpg",
    "address": "Route des Carolins 2",
    "city": "Sion",
    "zipcode": "1950",
    "countryFullName": "Switzerland",
    "lng": 7.3632224,
    "lat": 46.2213851
  },
  {
    "slug": "dzematlozana",
    "name": "Džemat Lozana",
    "image1": "https://cdn.mawaqit.net/images/backend/mosque/72c9e370-3f40-4b82-a17f-b7789fd820ff/mosque/1eea8dbe-e10b-6a40-9271-066ed47a7584.jpeg",
    "address": "Chemin de champs-courbes 24",
    "city": "Ecublens",
    "zipcode": "1024",
    "countryFullName": "Switzerland",
    "lng": 6.549726,
    "lat": 46.5144451
  },
  {
    "slug": "amf-fribourg-1",
    "name": "Centre AMF",
    "image1": "https://cdn.mawaqit.net/images/backend/mosque/a865f38a-2b0e-4c54-8584-c1bab73f5959/mosque/1eea8dbf-5c9d-6e4c-8eef-066ed47a7584.JPG",
    "address": "Rue St-Nicolas de Flüe 20",
    "city": "Fribourg",
    "zipcode": "CH-1700",
    "countryFullName": "Switzerland",
    "lng": 7.1481528,
    "lat": 46.7929376
  },
  {
    "slug": "rahmane-bienne",
    "name": "مسجد الرحمان",
    "image1": "https://cdn.mawaqit.net/images/backend/mosque/1fc98576-3573-4ba8-b75f-04d8347b1143/mosque/1eea8dc2-2ec8-6f46-a1ad-066ed47a7584.jpg",
    "address": "Seelandweg 9",
    "city": "Biel/bienne",
    "zipcode": "2503",
    "countryFullName": "Switzerland",
    "lng": 7.2505067,
    "lat": 47.1310074
  },
  {
    "slug": "yverdon-les-bains",
    "name": "Dzemat Yverdon",
    "image1": "https://cdn.mawaqit.net/images/backend/mosque/52ed0c3f-cd62-48e5-89f8-dce63e1dab23/mosque/1eea8dcb-5847-677e-b929-066ed47a7584.jpg",
    "address": "Rue des Uttins 36",
    "city": "Yverdon-Les-Bains",
    "zipcode": "1400",
    "countryFullName": "Switzerland",
    "lng": 6.6232987,
    "lat": 46.7841891
  },
  {
    "slug": "essalam-lonay",
    "name": "مسجد السّلام",
    "image1": "https://cdn.mawaqit.net/images/backend/mosque/917f5955-7444-40fa-802f-a8ddb800a6a8/mosque/1ef19c63-0918-6b78-bc3f-069c71fb446f.jpg",
    "address": "Chemin du Bief 8",
    "city": "Lonay",
    "zipcode": "1027",
    "countryFullName": "Switzerland",
    "lng": 6.512753,
    "lat": 46.5187231
  },
  {
    "slug": "centre-islamique-de-fribourg-fribourg-1700-switzerland",
    "name": "Centre islamique de Fribourg",
    "image1": "https://cdn.mawaqit.net/images/backend/mosque/0748bd2d-4274-4594-9d60-3d6b4a357904/mosque/1eed88fe-db2d-6eb4-920d-06acfcd1c88a.jpg",
    "address": "Rue de l'industrie 2",
    "city": "Fribourg",
    "zipcode": "1700",
    "countryFullName": "Switzerland",
    "lng": 7.1547127515078,
    "lat": 46.79630587582
  },
  {
    "slug": "dzemat-fribourg",
    "name": "Džemat Fribourg",
    "image1": "https://cdn.mawaqit.net/images/backend/mosque/5df9f82f-a5b2-4b79-afec-b0ff781811f8/mosque/1eea8dd2-6914-64e2-954e-066ed47a7584.jpg",
    "address": "Rue Pierre-Yerly 10",
    "city": "Givisiez",
    "zipcode": "1762",
    "countryFullName": "Switzerland",
    "lng": 7.1363441615486,
    "lat": 46.815326033573
  },
  {
    "slug": "kosovobosniaken-dietlikon",
    "name": "DžkB",
    "image1": "https://cdn.mawaqit.net/images/backend/mosque/9e9140da-5658-445d-bf6b-a713d73c9a50/mosque/1eea8dd4-b71f-6d88-a123-066ed47a7584.jpg",
    "address": "Industriestrasse 14",
    "city": "Dietlikon",
    "zipcode": "8305",
    "countryFullName": "Switzerland",
    "lng": 8.6224526,
    "lat": 47.4149077
  },
  {
    "slug": "nur-jame-lausanne",
    "name": "বাইতুন নুর - Baitun Nur - بیت النور",
    "image1": "https://cdn.mawaqit.net/images/backend/mosque/42e2411f-f6b4-48ca-a555-4219828e7d12/mosque/1eea8dd5-0377-61b8-bfc5-066ed47a7584.JPG",
    "address": "Ch. Du Renens 47",
    "city": "Lausanne",
    "zipcode": "1004",
    "countryFullName": "Switzerland",
    "lng": 6.6064472,
    "lat": 46.5275725
  },
  {
    "slug": "m-dubendorf",
    "name": "Moschee Dübendorf",
    "image1": "https://cdn.mawaqit.net/images/backend/mosque/9dea7eb7-6494-431c-99ba-2651449ce279/mosque/1eea8dd5-9836-640c-81c9-066ed47a7584.jpg",
    "address": "Im Schörli 25",
    "city": "Dübendorf",
    "zipcode": "8600",
    "countryFullName": "Switzerland",
    "lng": 8.6364628,
    "lat": 47.3950565
  },
  {
    "slug": "iman-wadenswil",
    "name": "Iman Verein",
    "image1": "https://cdn.mawaqit.net/images/backend/mosque/ffe6cecc-c464-4643-92f4-869cb56888df/mosque/1eea8dd6-2cc7-6404-b51c-066ed47a7584.jpg",
    "address": "Florhofstrasse 7",
    "city": "Wädenswil",
    "zipcode": "8820",
    "countryFullName": "Switzerland",
    "lng": 8.6709261225991,
    "lat": 47.230813452518
  },
  {
    "slug": "ikre-xhamia-bruttisellen",
    "name": "Kulturverein „IKRE“ Xhamia Shqiptare",
    "image1": "https://cdn.mawaqit.net/images/backend/mosque/cf01244b-5e54-4ec2-b725-e14466a7c2b5/mosque/1eea8dd9-a985-6240-8996-066ed47a7584.jpg",
    "address": "Zurichstrasse 38a",
    "city": "Brüttisellen",
    "zipcode": "8306",
    "countryFullName": "Switzerland",
    "lng": 8.6284398,
    "lat": 47.4223997
  },
  {
    "slug": "mofri-fribourg",
    "name": "Mosquée de Fribourg - MOFRI",
    "image1": "https://cdn.mawaqit.net/images/backend/mosque/f3ebaf6e-a78f-4252-8b8c-c646eee574a2/mosque/1eea8ddc-0c7b-63a2-9b50-066ed47a7584.JPG",
    "address": "Rue des Charmettes 3",
    "city": "Fribourg",
    "zipcode": "1700",
    "countryFullName": "Switzerland",
    "lng": 7.1563205,
    "lat": 46.7947891
  },
  {
    "slug": "sig-burglen-moschee-burglen",
    "name": "SIG Bürglen Moschee",
    "image1": "https://cdn.mawaqit.net/images/backend/mosque/be86cfa3-4aad-435d-8986-49f4ec8e15ea/mosque/1eea8de0-f4c7-6774-bce8-066ed47a7584.jpg",
    "address": "Weinfelderstrasse 30",
    "city": "Bürglen",
    "zipcode": "8575",
    "countryFullName": "Switzerland",
    "lng": 9.147598,
    "lat": 47.5526021
  },
  {
    "slug": "mosque-madretsch-biel-bienne",
    "name": "Mosque Madretsch",
    "image1": "https://cdn.mawaqit.net/images/backend/mosque/40a88923-1975-4529-8a4d-aadd210c4c7c/mosque/1eea8de3-1b1b-643c-8ebe-066ed47a7584.jpg",
    "address": "Madretschstrasse 64",
    "city": "Biel/bienne",
    "zipcode": "2503",
    "countryFullName": "Switzerland",
    "lng": 7.255157,
    "lat": 47.1342491
  },
  {
    "slug": "islamisch-albanisch-kulturgemeinschaft-biel-bienne",
    "name": "Komuniteti Shqiptar Mysliman Bjenë",
    "image1": "https://cdn.mawaqit.net/images/backend/mosque/ac9e2187-7a8d-4c8d-a0f3-234c318816c0/mosque/1eea8de5-d151-6272-992a-066ed47a7584.jpg",
    "address": "Bözingenstrasse 37",
    "city": "Biel/bienne",
    "zipcode": "2502",
    "countryFullName": "Switzerland",
    "lng": 7.2555454,
    "lat": 47.1477525
  },
  {
    "slug": "mosquee-al-badr-le-locle",
    "name": "Mosquee Al-Badr",
    "image1": "https://cdn.mawaqit.net/images/backend/mosque/04441502-5034-4d6a-8e81-298e77f2e88a/mosque/1eea8de9-8839-6310-b323-066ed47a7584.jpg",
    "address": "29 Rue du Midi",
    "city": "Le-Locle",
    "zipcode": "2400",
    "countryFullName": "Switzerland",
    "lng": 6.7489249,
    "lat": 47.0520851
  },
  {
    "slug": "centre-islamique-de-bienne",
    "name": "(CIB) المركز الإسلامي-بيل",
    "image1": "https://cdn.mawaqit.net/images/backend/mosque/322646fa-3f52-44de-86a1-59844436df5a/mosque/1eea8dea-5b28-647e-8a75-066ed47a7584.jpeg",
    "address": "Rue de l'Avenir 49",
    "city": "Biel/bienne",
    "zipcode": "2503",
    "countryFullName": "Switzerland",
    "lng": 7.2495077,
    "lat": 47.1322673
  },
  {
    "slug": "al-ferdaws-moschee-basel",
    "name": "Al-Ferdaws Moschee",
    "image1": "https://cdn.mawaqit.net/images/backend/mosque/6f425fba-0d2f-43ca-ba01-6ba1008a2df1/mosque/1eea8dee-38d6-6ae8-8531-066ed47a7584.png",
    "address": "Leimgrubenweg 6",
    "city": "Basel",
    "zipcode": "4053",
    "countryFullName": "Switzerland",
    "lng": 7.607221,
    "lat": 47.5370283
  },
  {
    "slug": "annour-sion-1",
    "name": "Mosquée Annour - مسجد النور",
    "image1": "https://cdn.mawaqit.net/images/backend/mosque/2498369f-8d8f-4f16-9aeb-ed9d38a4dcac/mosque/1eea8df0-7d67-60f2-8e3c-066ed47a7584.jpg",
    "address": "Route de Chandoline 25",
    "city": "Sion",
    "zipcode": "1950",
    "countryFullName": "Switzerland",
    "lng": 7.3686138,
    "lat": 46.2251638
  },
  {
    "slug": "centre-islamique-gruyere-cciag-bulle",
    "name": "Centre islamique Gruyère (CCIAG)",
    "image1": "https://cdn.mawaqit.net/images/backend/mosque/29dd0021-15c9-4faf-bfd1-d22bbb693978/mosque/1eea8dfc-37fb-69f8-b95e-066ed47a7584.jpeg",
    "address": "Rue de Vevey 218",
    "city": "Bulle",
    "zipcode": "1630",
    "countryFullName": "Switzerland",
    "lng": 7.0421316169278,
    "lat": 46.613649523493
  },
  {
    "slug": "dar-assalam-kriens",
    "name": "Dar Assalam - Moschee",
    "image1": "https://cdn.mawaqit.net/images/backend/mosque/1ff80265-1be9-46a0-bd19-7a48bc3d0ff5/mosque/1eea8dfc-acae-6372-996b-066ed47a7584.jpg",
    "address": "Schlundstrasse 1",
    "city": "Kriens",
    "zipcode": "6010",
    "countryFullName": "Switzerland",
    "lng": 8.2933949,
    "lat": 47.0232473
  },
  {
    "slug": "nur-alhuda-moschee-ebikon",
    "name": "Nur Alhuda Moschee",
    "image1": "https://cdn.mawaqit.net/images/backend/mosque/54cf40e5-d6d9-437c-b3fb-24884cc6186a/mosque/1eea8dfd-4fa8-655a-bbe9-066ed47a7584.jpg",
    "address": "Schachenweidstrasse 46",
    "city": "Ebikon",
    "zipcode": "6030",
    "countryFullName": "Switzerland",
    "lng": 8.3285668,
    "lat": 47.0739201
  },
  {
    "slug": "islamischer-kulturverein-schaffhausen-neuhausen",
    "name": "Islamischer Kulturverein Schaffhausen",
    "image1": "https://cdn.mawaqit.net/images/backend/mosque/27654689-15d4-48b4-a780-ca3e50c63827/mosque/1eea8dfe-4b84-673e-9888-066ed47a7584.png",
    "address": "Zentralstrasse 77",
    "city": "Neuhausen",
    "zipcode": "8212",
    "countryFullName": "Switzerland",
    "lng": 8.6207397,
    "lat": 47.6830551
  },
  {
    "slug": "masjid-arrahma-bale-4057-switzerland",
    "name": "Masjid Arrahma",
    "image1": "https://cdn.mawaqit.net/images/backend/mosque/04114b6c-c2aa-4c51-b664-64a7fa1eed0d/mosque/1eea8e02-a2b7-6372-890a-066ed47a7584.jpg",
    "address": "Kleinhüningerstr 55",
    "city": "Basel",
    "zipcode": "4057",
    "countryFullName": "Switzerland",
    "lng": 7.5930664,
    "lat": 47.574259
  },
  {
    "slug": "masjid-assalam-bern-3007-switzerland",
    "name": "Masjid Assalam",
    "image1": "https://cdn.mawaqit.net/images/backend/mosque/edb09dbe-724e-45d8-854c-660af9d97e3f/mosque/1eea8e05-f0c5-62aa-b638-066ed47a7584.jpg",
    "address": "Sulgenrain 27",
    "city": "Bern",
    "zipcode": "3007",
    "countryFullName": "Switzerland",
    "lng": 7.4389564990997,
    "lat": 46.940725730455
  },
  {
    "slug": "bilal-moschee-baar-6340-switzerland",
    "name": "Bilal Moschee",
    "image1": "https://cdn.mawaqit.net/images/backend/mosque/5c63e97c-906f-4f75-bc5a-0fd691b1fe70/mosque/1efce659-5652-627c-addb-06bada7b305f.jpeg",
    "address": "Sihlbruggstrasse 3a",
    "city": "Baar",
    "zipcode": "6340",
    "countryFullName": "Switzerland",
    "lng": 8.5390162,
    "lat": 47.1983314
  },
  {
    "slug": "centre-culturel-albanais-de-neuchatel-milvignes-2014-switzerland",
    "name": "CCAN",
    "image1": "https://cdn.mawaqit.net/images/backend/mosque/50d12485-8a76-49db-8182-83e9b357a58b/mosque/1eea8e07-10a6-6ab4-a2e0-066ed47a7584.jpeg",
    "address": "La Vy d'Êtra 100",
    "city": "Milvignes",
    "zipcode": "2014",
    "countryFullName": "Switzerland",
    "lng": 6.8373774,
    "lat": 46.9617126
  },
  {
    "slug": "islamisches-zentrum-al-rahma-zurich-8048-switzerland",
    "name": "Islamisches Zentrum Al-Rahma",
    "image1": "https://cdn.mawaqit.net/images/backend/mosque/f5782dc7-f3b6-4b64-9de0-cf7b6a838f36/mosque/1eea8e12-852e-6084-8f2f-066ed47a7584.jpg",
    "address": "Hohlstrasse 615A, 8048 Zürich",
    "city": "Zürich",
    "zipcode": "8048",
    "countryFullName": "Switzerland",
    "lng": 8.4853144,
    "lat": 47.3915938
  },
  {
    "slug": "acmm-meyrin-1217-switzerland",
    "name": "ACMM",
    "image1": "https://cdn.mawaqit.net/images/backend/mosque/9235cd3f-7c61-4c76-a72f-cc9b6df2e027/mosque/1eea8e1b-6016-6676-bde3-066ed47a7584.jpg",
    "address": "Prom. des Champs-Fréchets 26",
    "city": "Meyrin",
    "zipcode": "1217",
    "countryFullName": "Switzerland",
    "lng": 6.0773609,
    "lat": 46.23703
  },
  {
    "slug": "osman-gazi-camii-zurich-zurich-8048-switzerland",
    "name": "Osman Gazi Camii / Moschee Zürich",
    "image1": "https://cdn.mawaqit.net/images/backend/mosque/2a83fbe2-b9a5-4bc2-9332-64663b454dca/mosque/1eea8e1b-6dcc-6a9a-a4d7-066ed47a7584.jpg",
    "address": "Calandastrasse 11",
    "city": "Zürich",
    "zipcode": "8048",
    "countryFullName": "Switzerland",
    "lng": 8.4895832,
    "lat": 47.3879608
  },
  {
    "slug": "csmr-montreux-1820-switzerland",
    "name": "Mosquée de Montreux CSMR",
    "image1": "https://cdn.mawaqit.net/images/backend/mosque/208ec9cc-8c78-4da3-a091-c275684e5272/mosque/1eeac0d7-be74-6008-8a4e-0edc40567d2a.jpeg",
    "address": "Grand Rue 3",
    "city": "Montreux",
    "zipcode": "1820",
    "countryFullName": "Switzerland",
    "lng": 6.9103413846571,
    "lat": 46.431631471601
  },
  {
    "slug": "centre-islamique-ar-rahman-du-jura-delemont-2800-switzerland",
    "name": "Centre islamique Ar-Rahman du Jura",
    "image1": "https://cdn.mawaqit.net/images/backend/mosque/13d0dfbe-2bfd-402c-ae82-5bbb7e5031db/mosque/1eea8e22-efea-6d4a-a084-066ed47a7584.jpg",
    "address": "Rue Auguste Quiquerez 76",
    "city": "Delémont",
    "zipcode": "2800",
    "countryFullName": "Switzerland",
    "lng": 7.3586406,
    "lat": 47.369555
  },
  {
    "slug": "stiftung-islamische-gemeinschaft-zurich-zurich-8057-switzerland",
    "name": "Stiftung Islamische Gemeinschaft ZH-CH",
    "image1": "https://cdn.mawaqit.net/images/backend/mosque/c171e9e0-d089-4fa7-ae0b-61d5ea4294b3/mosque/1eea8e43-a543-6442-bf6c-066ed47a7584.jpg",
    "address": "Rötelstrasse 86",
    "city": "Zürich",
    "zipcode": "8057",
    "countryFullName": "Switzerland",
    "lng": 8.5332541,
    "lat": 47.3948579
  },
  {
    "slug": "mosquee-de-vevey-vevey-1800-switzerland",
    "name": "Mosquée de Vevey",
    "image1": "https://cdn.mawaqit.net/images/backend/mosque/a6767585-29d4-4ada-b59b-71ac1d70f5ed/mosque/1eea8e46-167e-6fc4-a087-066ed47a7584.jpg",
    "address": "Rue des Communaux 1",
    "city": "Vevey",
    "zipcode": "1800",
    "countryFullName": "Switzerland",
    "lng": 6.8485217,
    "lat": 46.460761
  },
  {
    "slug": "es-selam-wil-9500-switzerland",
    "name": "Es-Selam",
    "image1": "https://cdn.mawaqit.net/images/backend/mosque/ef2a5be3-758e-4642-98de-3832b8ad990e/mosque/1eea8e4f-8677-6750-b183-066ed47a7584.jpg",
    "address": "Zürcherstrasse 10",
    "city": "Wil",
    "zipcode": "9500",
    "countryFullName": "Switzerland",
    "lng": 9.0281493,
    "lat": 47.4674899
  },
  {
    "slug": "masjid-as-sabr-urtenen-schonbuhl-3322-switzerland",
    "name": "Masjid As Sabr",
    "image1": "https://cdn.mawaqit.net/images/backend/mosque/969811b1-ce44-46ff-8d67-8eee5ca75811/mosque/1eea8e50-a80c-6e0a-9b16-066ed47a7584.jpg",
    "address": "Solothurnstrasse 28",
    "city": "Urtenen--Schönbühl",
    "zipcode": "3322",
    "countryFullName": "Switzerland",
    "lng": 7.5015831,
    "lat": 47.0241736
  },
  {
    "slug": "fondation-salam-geneve-1207-switzerland",
    "name": "Fondation Salam",
    "image1": "https://cdn.mawaqit.net/images/backend/mosque/c5715e26-0d1a-4f2d-b25c-f472dfcdf15b/mosque/1eea8e52-7c36-6cca-9f3c-066ed47a7584.jpg",
    "address": "Carrefour de Rive 1",
    "city": "Genève",
    "zipcode": "1207",
    "countryFullName": "Switzerland",
    "lng": 6.1554987,
    "lat": 46.2007532
  },
  {
    "slug": "oaza-bashkesia-islame-spreitenbach-spreitenbach-8957-switzerland",
    "name": "Oaza-Bashkësia Islame Spreitenbach",
    "image1": "https://cdn.mawaqit.net/images/backend/mosque/0e559276-3fec-4921-8c7d-bb48b0dc3bf7/mosque/1eea8e5a-9948-6040-a033-066ed47a7584.jpg",
    "address": "Härdlistrasse 11",
    "city": "Spreitenbach",
    "zipcode": "8957",
    "countryFullName": "Switzerland",
    "lng": 8.3689937,
    "lat": 47.4315663
  },
  {
    "slug": "moschee-forum-des-orients-zurich-8005-switzerland",
    "name": "Moschee Forum des Orients",
    "image1": "https://cdn.mawaqit.net/images/backend/mosque/d6639175-4a84-44bd-a194-57c3b22fdc8d/mosque/1eea8e5e-ce58-6da8-9145-066ed47a7584.jpg",
    "address": "Hafnerstrasse 41",
    "city": "Zürich",
    "zipcode": "8005",
    "countryFullName": "Switzerland",
    "lng": 8.5361004,
    "lat": 47.3817541
  },
  {
    "slug": "edeb-regensdorf-8105-switzerland",
    "name": "EDEB",
    "image1": "https://cdn.mawaqit.net/images/backend/mosque/35ce7dce-b0dd-48c1-aeda-948c4b1b50d9/mosque/1eea8e5f-aa39-60fc-a24d-066ed47a7584.jpg",
    "address": "Althardstrasse 146",
    "city": "Regensdorf",
    "zipcode": "8105",
    "countryFullName": "Switzerland",
    "lng": 8.4673789,
    "lat": 47.4408587
  },
  {
    "slug": "esselam-moschee-brugg-5200-switzerland",
    "name": "Salam Kulturverein",
    "image1": "https://cdn.mawaqit.net/images/backend/mosque/00eca404-e4f0-4b03-8568-ea04f4e14177/mosque/1eea8e62-08c6-6686-9b05-066ed47a7584.jpg",
    "address": "Hauptstrasse 4",
    "city": "Brugg",
    "zipcode": "5200",
    "countryFullName": "Switzerland",
    "lng": 8.2076442,
    "lat": 47.4834785
  },
  {
    "slug": "masjid-al-rahma-st-gallen-st-gallen-9000-switzerland",
    "name": "Masjid Al-Rahma",
    "image1": "https://cdn.mawaqit.net/images/backend/mosque/77e916fe-2922-43c2-98ce-fdb9301e9d09/mosque/1eea8e74-ec5a-617e-9dc2-066ed47a7584.jpg",
    "address": "Hintere Bahnhofstrasse 19",
    "city": "St.-Gallen",
    "zipcode": "9000",
    "countryFullName": "Switzerland",
    "lng": 9.3721291,
    "lat": 47.4248402
  },
  {
    "slug": "ikvem-embrach-8424-switzerland",
    "name": "IKVEM",
    "image1": "https://cdn.mawaqit.net/images/backend/mosque/de42c918-f8b4-42af-a07f-aaf85d37b362/mosque/1eea8e80-4b9f-69a8-a932-066ed47a7584.jpg",
    "address": "Hardhofstrasse 15",
    "city": "Embrach",
    "zipcode": "8424",
    "countryFullName": "Switzerland",
    "lng": 8.5951137,
    "lat": 47.5181155
  },
  {
    "slug": "mrkz-lkhlf-lrshdyn-fy-zywrykh-zurich-8004-switzerland",
    "name": "Al Khulafaa Urrashidin zentrum Zürich",
    "image1": "https://cdn.mawaqit.net/images/backend/mosque/78d2d3ec-5a7c-47c1-a0c6-c996f86715db/mosque/1eea8e99-95f0-6d72-8432-066ed47a7584.jpg",
    "address": "Militärstrasse 52",
    "city": "ZüRICH",
    "zipcode": "8004",
    "countryFullName": "Switzerland",
    "lng": 8.5314916,
    "lat": 47.3776703
  },
  {
    "slug": "mosquee-de-st-blaise-st-blaise-2072-switzerland",
    "name": "Mosquée de St-Blaise",
    "image1": "https://cdn.mawaqit.net/images/backend/mosque/a6712813-9851-4c4a-a568-83b738646d9b/mosque/1eeba338-6a45-6e48-ae65-0ede686d7942.jpg",
    "address": "Av. des Pâquiers 22",
    "city": "ST BLAISE",
    "zipcode": "2072",
    "countryFullName": "Switzerland",
    "lng": 6.9946537,
    "lat": 47.012141
  },
  {
    "slug": "mosquee-yverdon-les-bains-1400-switzerland",
    "name": "Mosquée d'Yverdon",
    "image1": "https://cdn.mawaqit.net/images/backend/mosque/a3aa1673-0b9f-4c5b-a67c-9c1479894239/mosque/1eebe0ef-8604-6536-b64d-0aedfd0440f0.jpeg",
    "address": "Rue des Prés-du-Lac 30 B",
    "city": "YVERDON-LES-BAINS",
    "zipcode": "1400",
    "countryFullName": "Switzerland",
    "lng": 6.6326849,
    "lat": 46.7915332
  },
  {
    "slug": "centre-acmb-granges-marnand-1523-switzerland",
    "name": "Centre ACMB",
    "image1": "https://cdn.mawaqit.net/images/backend/mosque/11e98a06-156b-4c87-922e-8f66cce38ec3/mosque/1eed5be0-7e92-6d1c-9b27-0ede686d7942.png",
    "address": "Chemin de Loveresses 5",
    "city": "GRANGES-MARNAND",
    "zipcode": "1523",
    "countryFullName": "Switzerland",
    "lng": 6.8944303,
    "lat": 46.760177
  },
  {
    "slug": "mosquee-de-geneve-nations-geneve-1202-switzerland",
    "name": "Mosquée de Genève-Nations",
    "image1": "https://cdn.mawaqit.net/images/backend/mosque/e15f69cc-4a2c-4723-849e-5471a7861af2/mosque/1eedaf40-270f-628a-8983-0a7eba2dd6b3.jpg",
    "address": "Rue de Vermont 18bis",
    "city": "GENÈVE",
    "zipcode": "1202",
    "countryFullName": "Switzerland",
    "lng": 6.1366657,
    "lat": 46.2179067
  },
  {
    "slug": "mosquee-de-nyon-nyon-1260-switzerland",
    "name": "Mosquée de Nyon",
    "image1": "https://cdn.mawaqit.net/images/backend/mosque/f9ba2a62-1434-4342-be99-9373b09a37b0/mosque/1eef82d4-6d33-6b4e-bc63-0a9258a77f81.jpg",
    "address": "Rue de la Gare 45",
    "city": "NYON",
    "zipcode": "1260",
    "countryFullName": "Switzerland",
    "lng": 6.2359809,
    "lat": 46.3836769
  },
  {
    "slug": "assalam-couvet-2108-switzerland",
    "name": "Assalam",
    "image1": "https://cdn.mawaqit.net/images/backend/mosque/fe21c975-a925-444d-bac6-c08f5c8a6662/mosque/1eef8458-6844-67ca-bde5-0621eb7171ad.jpg",
    "address": "Rue des Moulins 4",
    "city": "COUVET",
    "zipcode": "2108",
    "countryFullName": "Switzerland",
    "lng": 6.6358341,
    "lat": 46.924531
  },
  {
    "slug": "mosquee-de-neuchatel-marin-marin-epagnier-2074-switzerland",
    "name": "Mosquée de Neuchâtel",
    "image1": "https://cdn.mawaqit.net/images/backend/mosque/532f9dcf-fdc0-4719-af14-b135a1f6668c/mosque/1eefd069-90e8-6d7c-b916-0621eb7171ad.jpg",
    "address": "Rue de la Gare 15A",
    "city": "MARIN-EPAGNIER",
    "zipcode": "2074",
    "countryFullName": "Switzerland",
    "lng": 7.0085973,
    "lat": 47.0091801
  },
  {
    "slug": "masjid-leimbach-zurich-8041-switzerland",
    "name": "Masjid Bilal Leimbach",
    "image1": "https://cdn.mawaqit.net/images/backend/mosque/77f48cc1-4fd0-4605-ba4a-1022b2f261a8/mosque/1ef058b3-f9b2-6fd8-86d1-0621eb7171ad.jpeg",
    "address": "Leimbachstrasse 100",
    "city": "ZüRICH",
    "zipcode": "8041",
    "countryFullName": "Switzerland",
    "lng": 8.5156007,
    "lat": 47.3309326
  },
  {
    "slug": "mosquee-assalam-sierre-3960-switzerland",
    "name": "MASJID IHSANE",
    "image1": "https://cdn.mawaqit.net/images/backend/mosque/75aece67-8eba-420f-b982-5d8ca9003a1c/mosque/1ef095a6-8149-6bca-8e6b-0e8f4a8ce035.jpg",
    "address": "Rte du Simplon 28, , Switzerland",
    "city": "SIERRE",
    "zipcode": "3960",
    "countryFullName": "Switzerland",
    "lng": 7.5401546,
    "lat": 46.2963543
  },
  {
    "slug": "mosquee-de-clarens-clarens-1815-switzerland",
    "name": "Mosquée de Clarens",
    "image1": "https://cdn.mawaqit.net/images/backend/mosque/9ca1bfea-80aa-45bd-a6b8-d42c35e4e301/mosque/1ef14a65-8869-6bd4-9176-0a33d0408e15.jpg",
    "address": "Rue des Vergers 5, 1815 Clarens",
    "city": "CLARENS",
    "zipcode": "1815",
    "countryFullName": "Switzerland",
    "lng": 6.8940387,
    "lat": 46.4406489
  },
  {
    "slug": "xhamia-meshira-moschee-barmherzigkeit-luzern-6003-switzerland",
    "name": "Xhamia Mëshira / Moschee Barmherzigkeit",
    "image1": "https://cdn.mawaqit.net/images/backend/mosque/c3a5ced9-2626-4c96-9a5a-6490b90f25ab/mosque/1ef25083-5de6-6770-b160-069cfb0c4e97.jpeg",
    "address": "Baselstrasse 61A",
    "city": "LUZERN",
    "zipcode": "6003",
    "countryFullName": "Switzerland",
    "lng": 8.29281,
    "lat": 47.05313
  },
  {
    "slug": "mosquee-de-lausanne-lausanne-1006-switzerland",
    "name": "Mosquée de Lausanne",
    "image1": "https://cdn.mawaqit.net/images/backend/mosque/83e29554-580b-4f1b-9182-55e146f9def3/mosque/1ef3e269-0043-69aa-985a-0600dbafaeef.jpg",
    "address": "passage de Montriond 14",
    "city": "LAUSANNE",
    "zipcode": "1006",
    "countryFullName": "Switzerland",
    "lng": 6.6268641,
    "lat": 46.5156637
  },
  {
    "slug": "ascmc-mosquee-daigle-aigle-1860-switzerland-2",
    "name": "ASCMC",
    "image1": "https://cdn.mawaqit.net/images/backend/mosque/d32a8d78-e75a-4a62-8190-21e09487bfaa/mosque/1ef47827-1cdf-6f42-bb98-0600dbafaeef.jpg",
    "address": "Rue de la Gare 7",
    "city": "AIGLE",
    "zipcode": "1860",
    "countryFullName": "Switzerland",
    "lng": 6.9677829464853,
    "lat": 46.317688173218
  },
  {
    "slug": "moschee-freunde-der-sunnah-zurich-8052-switzerland",
    "name": "Moschee Freunde der Sunnah Zürich",
    "image1": "https://cdn.mawaqit.net/images/backend/mosque/41e430f0-4bd7-48e2-9fe1-71b74b75e879/mosque/1ef60db0-79c3-63ba-8ba5-0e4a41cdad45.jpeg",
    "address": "Köschenrütistrasse 6",
    "city": "ZüRICH",
    "zipcode": "8052",
    "countryFullName": "Switzerland",
    "lng": 8.5387814,
    "lat": 47.4232935
  },
  {
    "slug": "-27",
    "name": "Masjid ZemZem",
    "image1": "https://cdn.mawaqit.net/images/backend/mosque/83e66ddb-a173-44bf-88c3-03ec63c068e3/mosque/1ef621ca-fa23-6ee6-85a9-0600dbafaeef.png",
    "address": "Falkenstrasse 22, 2502 Biel",
    "city": "BIEL/BIENNE",
    "zipcode": "2502",
    "countryFullName": "Switzerland",
    "lng": 7.2580727,
    "lat": 47.1465639
  },
  {
    "slug": "moschee-thun-al-risala-gwatt-3645-switzerland",
    "name": "Moschee Thun - Al Risala",
    "image1": "https://cdn.mawaqit.net/images/backend/mosque/f1e963c9-869a-4579-bb03-78572fd15456/mosque/1ef91671-d32a-6a3a-938c-0affcb0701ab.jpg",
    "address": "C. F. L. Lohnerstrasse 24c",
    "city": "GWATT",
    "zipcode": "3645",
    "countryFullName": "Switzerland",
    "lng": 7.6179148,
    "lat": 46.7324076
  },
  {
    "slug": "taqua-verein-bern-3072-switzerland",
    "name": "Taqua Verein",
    "image1": "https://cdn.mawaqit.net/images/backend/mosque/06fbd674-a248-4750-8ab0-c9a7c50e3451/mosque/1ef9b4f9-e13e-629e-a160-0e9d077f5bb1.jpeg",
    "address": "Wegmühlegässli 6",
    "city": "BERN",
    "zipcode": "3072",
    "countryFullName": "Switzerland",
    "lng": 7.4945076,
    "lat": 46.9583949
  },
  {
    "slug": "masjid-ul-khair-bern-3014-switzerland",
    "name": "MASJID Ul Khair مسجد الخير",
    "image1": "https://cdn.mawaqit.net/images/backend/mosque/20385161-3a3a-4180-a850-cfca2360e7e1/mosque/1efa2a4a-e14d-6e94-b56f-0e9d077f5bb1.jpeg",
    "address": "Wylerringstrasse 36",
    "city": "BERN",
    "zipcode": "3014",
    "countryFullName": "Switzerland",
    "lng": 7.4491915,
    "lat": 46.963079
  },
  {
    "slug": "cibs-sion-1950-switzerland",
    "name": "CIBS",
    "image1": "https://cdn.mawaqit.net/images/backend/mosque/2b122e8c-86eb-4330-8875-4120fdb99c90/mosque/1efa76e2-604c-6414-b47f-0a0389a4e0f5.jpg",
    "address": "Rue des Ronquoz 10",
    "city": "SION",
    "zipcode": "1950",
    "countryFullName": "Switzerland",
    "lng": 7.3654316,
    "lat": 46.2268501
  },
  {
    "slug": "qendra-kulturore-shqiptare-xhamia-lugano-6900-switzerland",
    "name": "Qendra Kulturore Shqiptare \"Xhamia\"",
    "image1": "https://cdn.mawaqit.net/images/backend/mosque/da38cd22-19e9-4eb6-8a8a-9b963e4ef26b/mosque/1efd11b2-06fd-6e54-92a8-0a21b15e7a1f.jpeg",
    "address": "Viale Stefano Franscini 23",
    "city": "LUGANO",
    "zipcode": "6900",
    "countryFullName": "Switzerland",
    "lng": 8.9542729,
    "lat": 46.0107314
  },
  {
    "slug": "al-taqwa-moschee-emmenbrucke-6020-switzerland",
    "name": "Al-Taqwa Moschee",
    "image1": "https://cdn.mawaqit.net/images/backend/mosque/3313cdca-aa61-47f6-a023-6a836cfa2ecd/mosque/1f0239d3-1fd4-6272-af7c-0ac73cfd41db.jpeg",
    "address": "Landenbergstrasse 6",
    "city": "EMMENBRüCKE",
    "zipcode": "6020",
    "countryFullName": "Switzerland",
    "lng": 8.2735557,
    "lat": 47.0787457
  },
  {
    "slug": "dzemat-luzern-emmenbrucke-6020-switzerland",
    "name": "Dzemat Luzern",
    "image1": "https://cdn.mawaqit.net/images/backend/mosque/d472845f-4f80-4386-9d16-153c61e97e1f/mosque/1efdd8d9-f3e1-6f6a-814c-063aa5df5c67.png",
    "address": "Emmenweidstrasse 4",
    "city": "EMMENBRüCKE",
    "zipcode": "6020",
    "countryFullName": "Switzerland",
    "lng": 8.2770135,
    "lat": 47.0733
  },
  {
    "slug": "masjid-al-rawdah-schlieren-zh-8952-switzerland",
    "name": "Masjid al Rawdah",
    "image1": "https://cdn.mawaqit.net/images/backend/mosque/d8586666-5abb-4d42-928d-91581ab92030/mosque/1efe562f-575a-6dc6-bcd0-0e61b0058d45.jpg",
    "address": "Grabenstrasse 9",
    "city": "SCHLIEREN ZH",
    "zipcode": "8952",
    "countryFullName": "Switzerland",
    "lng": 8.4507310017943,
    "lat": 47.398742725792
  },
  {
    "slug": "masjid-al-salam-sevelen-9475-switzerland",
    "name": "Masjid Al Salam",
    "image1": "https://cdn.mawaqit.net/images/backend/mosque/2c9f1f66-dfc4-452a-9f73-a72166789d26/mosque/1eff4ed0-d97f-65dc-90aa-06ef9144e88f.png",
    "address": "Bahnweg N 31",
    "city": "SEVELEN",
    "zipcode": "9475",
    "countryFullName": "Switzerland",
    "lng": 9.4961784,
    "lat": 47.1236312
  },
  {
    "slug": "suhbah-zentrum-rudolfstetten-8964-switzerland",
    "name": "Suhbah Zentrum",
    "image1": "https://cdn.mawaqit.net/images/backend/mosque/d568522d-b6ba-4a27-b647-fa22202926aa/mosque/1eff505e-72c5-62c6-8e36-0e61b0058d45.png",
    "address": "Bernstrasse 2",
    "city": "RUDOLFSTETTEN",
    "zipcode": "8964",
    "countryFullName": "Switzerland",
    "lng": 8.388923,
    "lat": 47.3749862
  },
  {
    "slug": "association-al-taqwa-lausanne-1018-switzerland-1",
    "name": "Association Al-Taqwa",
    "image1": "https://cdn.mawaqit.net/images/backend/mosque/5380cad3-6c57-4deb-97ca-4afcd585e6f4/mosque/1effc2f7-fa2f-630e-8611-06ef9144e88f.jpg",
    "address": "Rue de la Borde 59",
    "city": "LAUSANNE",
    "zipcode": "1018",
    "countryFullName": "Switzerland",
    "lng": 6.629873,
    "lat": 46.5318997
  },
  {
    "slug": "xhamia-rinia-ijgb-basel-4057-switzerland",
    "name": "Xhamia Rinia - IJGB",
    "image1": "https://cdn.mawaqit.net/images/backend/mosque/17800423-4a74-4e13-a161-d0736bd379c5/mosque/1f019e44-ed8c-60c8-b8fa-06bdda781935.png",
    "address": "Amerbachstrasse 109, 4057 Basel, Schweiz",
    "city": "BASEL",
    "zipcode": "4057",
    "countryFullName": "Switzerland",
    "lng": 7.5973767,
    "lat": 47.5696217
  }
]