[
  {
    "slug": "msjd-slh-ldyn-m-wy",
    "name": "مسجد صلاح الدين",
    "image1": "https://cdn.mawaqit.net/images/backend/mosque/96090221-aeb3-47db-95a5-6af5c47d2b0c/mosque/1eea8dec-3589-6900-b07f-066ed47a7584.jpeg",
    "address": "معاوية,فلسطين 48",
    "city": "معاوية",
    "zipcode": "30023",
    "countryFullName": "Palestinian Territories",
    "lng": 35.100975036621,
    "lat": 32.530514594527
  },
  {
    "slug": "masjimasjid-muhammed-alfatih-um-alfahm",
    "name": "مسجد محمد الفاتح",
    "image1": "https://cdn.mawaqit.net/images/backend/mosque/a1095530-6632-467a-90ec-5ea320a3391c/mosque/1eea8dee-f466-6a56-9dcd-066ed47a7584.jpeg",
    "address": "حي الظهر",
    "city": "ام-الفحم",
    "zipcode": "30010",
    "countryFullName": "Palestinian Territories",
    "lng": 35.158814191818,
    "lat": 32.535200060573
  },
  {
    "slug": "msjd-lrbt-m-lqtf",
    "name": "مسجد الرباط",
    "image1": "https://cdn.mawaqit.net/images/backend/mosque/e6c4ae3d-8dfe-46cf-ab94-af056c460141/mosque/1eea8def-9e33-6dc2-95fc-066ed47a7584.png",
    "address": "ام القطف",
    "city": "ام-القطف",
    "zipcode": "3785700",
    "countryFullName": "Palestinian Territories",
    "lng": 35.059149,
    "lat": 32.468084
  },
  {
    "slug": "masjid-ezzahra-basma",
    "name": "مسجد الزهراء_معاويه",
    "image1": "https://cdn.mawaqit.net/images/backend/mosque/1249a27b-e473-4566-b47c-ad29b701c02f/mosque/1eea8df1-612b-66f8-80c9-066ed47a7584.jpg",
    "address": "معاويه",
    "city": "معاويه",
    "zipcode": "30023",
    "countryFullName": "Palestinian Territories",
    "lng": 35.106682777405,
    "lat": 32.530966870247
  },
  {
    "slug": "masjid-ben-alarqam-omalfahm",
    "name": "مسجد دار الأرقم",
    "image1": "https://cdn.mawaqit.net/images/backend/mosque/4d66076b-19ad-40c1-a70c-2f915505f2c8/mosque/1eea8e00-4b4c-663e-8fd1-066ed47a7584.jpg",
    "address": "ام الفحم",
    "city": "ام-الفحم",
    "zipcode": "3001000",
    "countryFullName": "Palestinian Territories",
    "lng": 35.148529,
    "lat": 32.517127
  },
  {
    "slug": "masjid-ibn-taymia-oum-elfahm-3001000-palestinian-territories",
    "name": "مسجد ابن تيمية",
    "image1": "https://cdn.mawaqit.net/images/backend/mosque/5c98a16f-9072-48a2-a1c8-3e0ffca9c0ab/mosque/1eea8e04-9a6c-60bc-a64c-066ed47a7584.jpg",
    "address": "ام الفحم",
    "city": "ام-الفحم",
    "zipcode": "3001000",
    "countryFullName": "Palestinian Territories",
    "lng": 35.15242738523,
    "lat": 32.526768876901
  },
  {
    "slug": "msjd-lhjr-m-lfhm-3001000-palestinian-territories",
    "name": "مسجد الهجرة",
    "image1": "https://cdn.mawaqit.net/images/backend/mosque/c6b9854d-05b6-42d6-a9db-6ef0ba298212/mosque/1eea8e0a-5dc1-6bac-8cff-066ed47a7584.jpg",
    "address": "حي عين الوسطى - وادي النسور",
    "city": "ام-الفحم",
    "zipcode": "3001000",
    "countryFullName": "Palestinian Territories",
    "lng": 35.154924988747,
    "lat": 32.510313639429
  },
  {
    "slug": "masjid-abd-alkader-aljilani-oum-alfahm-3001000-palestinian-territories",
    "name": "عبد القادر الجيلاني",
    "image1": "https://cdn.mawaqit.net/images/backend/mosque/83b62a8e-6c40-40f5-8fc1-1c3778ca4725/mosque/1eea8e0b-5a83-64da-a32f-066ed47a7584.jpg",
    "address": "حي الشرفة",
    "city": "ام-الفحم",
    "zipcode": "3001000",
    "countryFullName": "Palestinian Territories",
    "lng": 35.162681937218,
    "lat": 32.52084439489
  },
  {
    "slug": "masjid-khalid-ibn-alwalid-oum-alfahm-3001000-palestinian-territories",
    "name": "مسجد خالد بن الوليد",
    "image1": "https://cdn.mawaqit.net/images/backend/mosque/55f82822-2c71-44f2-b9bb-810baad6e124/mosque/1eea8e0d-269e-6a00-89f6-066ed47a7584.jpg",
    "address": "عين خالد",
    "city": "ام-الفحم",
    "zipcode": "3001000",
    "countryFullName": "Palestinian Territories",
    "lng": 35.140563,
    "lat": 32.5163381
  },
  {
    "slug": "masjid-qouba-oum-alfahm-3001000-palestinian-territories",
    "name": "مسجد قباء",
    "image1": "https://cdn.mawaqit.net/images/backend/mosque/e73f0d4f-8da6-4412-b352-64bf333d306b/mosque/1eea8e0d-35be-6f9e-a123-066ed47a7584.jpg",
    "address": "حي الشيكون",
    "city": "ام-الفحم",
    "zipcode": "3001000",
    "countryFullName": "Palestinian Territories",
    "lng": 35.145013083462,
    "lat": 32.519115305699
  },
  {
    "slug": "yn-brhym-m-lfhm-3001000-palestinian-territories",
    "name": "مسجد عين ابراهيم",
    "image1": "https://cdn.mawaqit.net/images/backend/mosque/6213a191-2e80-4c56-98ab-da9c5d12e6c1/mosque/1eea8e0e-b701-6da8-a699-066ed47a7584.jpg",
    "address": "عين ابراهيم",
    "city": "ام-الفحم",
    "zipcode": "3001000",
    "countryFullName": "Palestinian Territories",
    "lng": 35.147336,
    "lat": 32.5350378
  },
  {
    "slug": "msjd-lstqll-hyf-3309110-palestinian-territories",
    "name": "مسجد الاستقلال",
    "image1": "https://cdn.mawaqit.net/images/backend/mosque/c39d71ae-5e83-450d-9d93-de7ee67be541/mosque/1eea8e10-20b9-64c0-8877-066ed47a7584.jpg",
    "address": "حيفا",
    "city": "حيفا",
    "zipcode": "3309110",
    "countryFullName": "Palestinian Territories",
    "lng": 34.989571,
    "lat": 32.7940463
  },
  {
    "slug": "masjid-mshirfa-3092000-palestinian-territories",
    "name": "مسجد مشيرفة القديم",
    "image1": "https://cdn.mawaqit.net/images/backend/mosque/7fb4cc85-3c00-4836-b833-99796aa9d43d/mosque/1eea8e10-582c-6d3a-b5ca-066ed47a7584.jpg",
    "address": "مشيرفة",
    "city": "مشيرفة",
    "zipcode": "3092000",
    "countryFullName": "Palestinian Territories",
    "lng": 35.15573305548,
    "lat": 32.554960999179
  },
  {
    "slug": "masjid-alhouda-mshirfa-3092000-palestinian-territories",
    "name": "مسجد الهدى مشيرفة",
    "image1": "https://cdn.mawaqit.net/images/backend/mosque/d1eb388d-cf37-44b2-bf8d-2afafa90997a/mosque/1eea8e11-4fcf-6be6-9a6c-066ed47a7584.jpg",
    "address": "مشيرفة",
    "city": "طلعة-عارة",
    "zipcode": "3092000",
    "countryFullName": "Palestinian Territories",
    "lng": 35.158151849063,
    "lat": 32.552578053895
  },
  {
    "slug": "msjd-ltqw-m-lfhm-3001000-palestinian-territories",
    "name": "مسجد التقوى - عين إبراهيم",
    "image1": "https://cdn.mawaqit.net/images/backend/mosque/a116c461-f68c-409f-987d-24c0b4faecad/mosque/1eea8e14-f0a4-69ce-868e-066ed47a7584.jpg",
    "address": "عين ابراهبم",
    "city": "ام-الفحم",
    "zipcode": "3001000",
    "countryFullName": "Palestinian Territories",
    "lng": 35.145327,
    "lat": 32.535879
  },
  {
    "slug": "msjd-lgzly-m-lfhm-300310-palestinian-territories",
    "name": "مسجد الغزالي",
    "image1": "https://cdn.mawaqit.net/images/backend/mosque/b62ba476-ef16-43c6-af0d-e150928852ea/mosque/1eea8e15-0334-6f9e-b78e-066ed47a7584.jpg",
    "address": "حي العيون",
    "city": "ام-الفحم",
    "zipcode": "300310",
    "countryFullName": "Palestinian Territories",
    "lng": 35.161296,
    "lat": 32.524836
  },
  {
    "slug": "masjid-abou-bakr-assidiq-oum-lfahm-3001000-palestinian-territories",
    "name": "مسجد أبي بكر الصِّدِّيق",
    "image1": "https://cdn.mawaqit.net/images/backend/mosque/ebdcfca3-44d2-4ab0-9fd8-9e220de0ec73/mosque/1eea8e1b-851d-6e2e-b7d6-066ed47a7584.jpg",
    "address": "حي المحاميد",
    "city": "ام-الفحم",
    "zipcode": "3001000",
    "countryFullName": "Palestinian Territories",
    "lng": 35.152061730623,
    "lat": 32.514691143401
  },
  {
    "slug": "masjid-iskander-um-alfahm-3001000-palestinian-territories",
    "name": "مسجد اسكندر",
    "image1": "https://cdn.mawaqit.net/images/backend/mosque/66bcbdf2-cf0c-42cf-8c2b-c70007846ec4/mosque/1eea8e1f-2bcf-67e2-ad22-066ed47a7584.jpg",
    "address": "ام الفحم",
    "city": "ام-الفحم",
    "zipcode": "3001000",
    "countryFullName": "Palestinian Territories",
    "lng": 35.152150722512,
    "lat": 32.514702434839
  },
  {
    "slug": "msjd-lrf-y-tl-r-3092000-palestinian-territories",
    "name": "مسجد عمار بن ياسر",
    "image1": "https://cdn.mawaqit.net/images/backend/mosque/f91c55c3-ff62-4610-ba1f-93af1cd9058e/mosque/1eea8e21-0fe5-6746-9e8d-066ed47a7584.jpg",
    "address": "سالم",
    "city": "طلعة-عارة",
    "zipcode": "3092000",
    "countryFullName": "Palestinian Territories",
    "lng": 35.196752732557,
    "lat": 32.545876203447
  },
  {
    "slug": "trq-bn-zyd-m-lfhm-3001000-palestinian-territories",
    "name": "مسجد طارق بن زياد-حي الأندلس",
    "image1": "https://cdn.mawaqit.net/images/backend/mosque/f320624c-5880-409e-87af-a10accd15d42/mosque/1eea8e21-1df2-6a96-8f54-066ed47a7584.jpg",
    "address": "حي الاندلس",
    "city": "ام-الفحم",
    "zipcode": "3001000",
    "countryFullName": "Palestinian Territories",
    "lng": 35.148529,
    "lat": 32.517127
  },
  {
    "slug": "masjid-annour-bir-almaksour-1792500-palestinian-territories",
    "name": "مسجد النور",
    "image1": "https://cdn.mawaqit.net/images/backend/mosque/c331a270-8c28-4a61-9c10-bdfdef90889e/mosque/1eea8e21-2bc0-663c-b188-066ed47a7584.jpg",
    "address": "حاره المكمان",
    "city": "بئر-المكسور",
    "zipcode": "1792500",
    "countryFullName": "Palestinian Territories",
    "lng": 35.220571,
    "lat": 32.777291
  },
  {
    "slug": "masjid-bilal-ibn-rabah-um-algahm-3001000-palestinian-territories",
    "name": "مسجد بلال بن رباح",
    "image1": "https://cdn.mawaqit.net/images/backend/mosque/90aa1b13-7670-4cc1-b3bc-66cd6def132b/mosque/1eea8e22-8c04-656a-ab52-066ed47a7584.jpg",
    "address": "حي عين جرار",
    "city": "ام-الفحم",
    "zipcode": "3001000",
    "countryFullName": "Palestinian Territories",
    "lng": 35.144517347217,
    "lat": 32.509800188323
  },
  {
    "slug": "masjid-ennour-deburya-1691000-palestinian-territories",
    "name": "مسجد النور",
    "image1": "https://cdn.mawaqit.net/images/backend/mosque/45e0997c-6a67-4880-bb58-5bb6b9f87da9/mosque/1eea8e25-3e79-682e-93d2-066ed47a7584.jpg",
    "address": "قرية دبورية",
    "city": "دبورية",
    "zipcode": "1691000",
    "countryFullName": "Palestinian Territories",
    "lng": 35.375457555056,
    "lat": 32.694172438917
  },
  {
    "slug": "msjd-brwd-karmiel-2161002-israel",
    "name": "مصلى  براودة",
    "image1": "https://cdn.mawaqit.net/images/backend/mosque/3e840238-39f7-49b3-be0c-3824e3fbd19f/mosque/1eea8e29-3112-64ca-83a4-066ed47a7584.jpg",
    "address": "Karmiel",
    "city": "Karmiel",
    "zipcode": "2161002",
    "countryFullName": "Palestinian Territories",
    "lng": 35.292417,
    "lat": 32.914671
  },
  {
    "slug": "msjd-lslm-tmr-30811-palestinian-territories",
    "name": "مسجد السلام",
    "image1": "https://cdn.mawaqit.net/images/backend/mosque/11bf06d9-6dd1-4438-827b-4812eca1868d/mosque/1eea8e29-3f8a-64ee-a941-066ed47a7584.jpg",
    "address": "طمرة",
    "city": "طمرة",
    "zipcode": "30811",
    "countryFullName": "Palestinian Territories",
    "lng": 35.201315,
    "lat": 32.852247
  },
  {
    "slug": "msjd-lnwr-m-lfhm-3001000-israel",
    "name": "مسجد النور -حي الخلايل",
    "image1": "https://cdn.mawaqit.net/images/backend/mosque/a00094a1-8bf5-47d3-abaf-d8c460855764/mosque/1eea8e29-4d9d-6ebe-8a4e-066ed47a7584.jpg",
    "address": "حي الخلايل",
    "city": "ام-الفحم",
    "zipcode": "3001000",
    "countryFullName": "Palestinian Territories",
    "lng": 35.141848,
    "lat": 32.512752
  },
  {
    "slug": "msjd-bw-bkr-lmzr-2280700-israel",
    "name": "مسجد ابو بكر-المزرعة",
    "image1": "https://cdn.mawaqit.net/images/backend/mosque/13fa3d68-b02f-47bc-99c9-ed6bc366edb6/mosque/1eea8e29-ce8d-60d8-89a2-066ed47a7584.jpg",
    "address": "المزرعه",
    "city": "المزرعة-Israel",
    "zipcode": "2280700",
    "countryFullName": "Palestinian Territories",
    "lng": 34.851612,
    "lat": 31.046051
  },
  {
    "slug": "msjd-lhj-bd-llh-hyf-33000-palestinian-territories",
    "name": "مسجد الحاج عبد الله",
    "image1": "https://cdn.mawaqit.net/images/backend/mosque/35b1e169-cf81-4801-a0a0-51092d590c5c/mosque/1eea8e2b-a00f-6f7e-9d44-066ed47a7584.jpg",
    "address": "haifa",
    "city": "حيفا",
    "zipcode": "33000",
    "countryFullName": "Palestinian Territories",
    "lng": 34.989571,
    "lat": 32.7940463
  },
  {
    "slug": "masjd-abou-oubayda-amr-bn-ljarah-talaa-aara-3092000-palestinian-territories",
    "name": "مسجد ابو عبيدة عامر بن الجراح-زلفة",
    "image1": "https://cdn.mawaqit.net/images/backend/mosque/cca701c7-e3f7-419b-8bd7-56efccf2dde7/mosque/1eea8e2c-f974-6bc2-a800-066ed47a7584.jpg",
    "address": "زلفة",
    "city": "طلعة-عارة",
    "zipcode": "3092000",
    "countryFullName": "Palestinian Territories",
    "lng": 35.183497,
    "lat": 32.549975
  },
  {
    "slug": "masjid-lbiina-1692400-palestinian-territories",
    "name": "مسجد البعينة",
    "image1": "https://cdn.mawaqit.net/images/backend/mosque/8d2738fd-1e3a-419c-a804-a55990d96ca0/mosque/1eea8e2f-def9-6ae2-932e-066ed47a7584.jpg",
    "address": "البعينة",
    "city": "البعينة",
    "zipcode": "1692400",
    "countryFullName": "Palestinian Territories",
    "lng": 35.36527,
    "lat": 32.807711
  },
  {
    "slug": "masjid-omar-mokhtar-yafa-nassera-1695500-palestinian-territories",
    "name": "مسجد عمر المختار",
    "image1": "https://cdn.mawaqit.net/images/backend/mosque/533b4684-1723-4b46-8e66-90a883261174/mosque/1eea8e31-d4d6-60b8-8dc9-066ed47a7584.jpg",
    "address": "يافة الناصرة",
    "city": "يافة-الناصرة",
    "zipcode": "1695500",
    "countryFullName": "Palestinian Territories",
    "lng": 35.28201,
    "lat": 32.695002
  },
  {
    "slug": "masjid-abi-bakr-omelqatf-3785700-palestinian-territories",
    "name": "مسجد ابي بكر الصديق",
    "image1": "https://cdn.mawaqit.net/images/backend/mosque/b01eb8c2-d3a3-4274-a055-020ba3c31003/mosque/1eea8e36-5f8a-608e-83b5-066ed47a7584.jpg",
    "address": "ام القطف",
    "city": "ام-القطف",
    "zipcode": "3785700",
    "countryFullName": "Palestinian Territories",
    "lng": 35.059149,
    "lat": 32.468084
  },
  {
    "slug": "masjid-salah-dine-oum-lfahm-3001000-israel",
    "name": "مسجد صلاح الدين",
    "image1": "https://cdn.mawaqit.net/images/backend/mosque/00017e88-5202-420c-9993-dcaf409d106d/mosque/1eea8e43-ec2a-640a-b22d-066ed47a7584.jpg",
    "address": "حي البراغلة",
    "city": "ام-الفحم",
    "zipcode": "3001000",
    "countryFullName": "Palestinian Territories",
    "lng": 35.1649662,
    "lat": 32.5183908
  },
  {
    "slug": "masjid-wmjm-l-tsm-llqy-8499100-palestinian-territories",
    "name": "مُجَمَّع وَمَسْجِد أَلإِعْتِصام",
    "image1": "https://cdn.mawaqit.net/images/backend/mosque/611d2273-22f1-46f9-9a66-31fa9a4d241e/mosque/1eea8e4e-0da2-63e4-9eb0-066ed47a7584.jpg",
    "address": "اللقية",
    "city": "اللقية",
    "zipcode": "8499100",
    "countryFullName": "Palestinian Territories",
    "lng": 34.862177968025,
    "lat": 31.323039624838
  },
  {
    "slug": "msjd-lfrdws-qry-lfrydys-3089800-palestinian-territories",
    "name": "مسجد الفردوس",
    "image1": "https://cdn.mawaqit.net/images/backend/mosque/e4a83a08-e26b-4bbb-a976-20ecb7151e94/mosque/1eea8e4f-f716-625e-93b8-066ed47a7584.jpg",
    "address": "منطقة الظهرات",
    "city": "قرية-الفريديس",
    "zipcode": "3089800",
    "countryFullName": "Palestinian Territories",
    "lng": 34.951899,
    "lat": 32.597351
  },
  {
    "slug": "msjd-lrhmn-eilat-8810001-palestinian-territories",
    "name": "مسجد الرحمن - ايلات",
    "image1": "https://cdn.mawaqit.net/images/backend/mosque/b3cc42ab-f391-4a22-a456-e4f99653545a/mosque/1eea8e50-141d-61ae-898d-066ed47a7584.jpg",
    "address": "ايلات",
    "city": "Eilat",
    "zipcode": "8810001",
    "countryFullName": "Palestinian Territories",
    "lng": 34.951925,
    "lat": 29.557669
  },
  {
    "slug": "masjid-lrahma-yafa-lnasra-3658300-palestinian-territories",
    "name": "مسجد الرحمة",
    "image1": "https://cdn.mawaqit.net/images/backend/mosque/58e75e1c-cb47-4c67-9516-4adc63235a10/mosque/1eea8e53-ca61-6390-94b6-066ed47a7584.jpg",
    "address": "يافة الناصرة",
    "city": "يافة-الناصرة",
    "zipcode": "3658300",
    "countryFullName": "Palestinian Territories",
    "lng": 35.28201,
    "lat": 32.695002
  },
  {
    "slug": "soulayman-namir-lhaj-kafr-yassif-2490800-palestinian-territories",
    "name": "مسجد سليمان نمر الحاج",
    "image1": "https://cdn.mawaqit.net/images/backend/mosque/834a88bf-3468-4b0e-91dd-6207ab55b6b3/mosque/1eea8e5d-1560-6b6c-b025-066ed47a7584.jpg",
    "address": "كفر ياسيف",
    "city": "كفر-ياسيف",
    "zipcode": "2490800",
    "countryFullName": "Palestinian Territories",
    "lng": 35.1642782,
    "lat": 32.9529385
  },
  {
    "slug": "masjid-abou-abkr-lsidiq-ain-mahel-1790200-palestinian-territories",
    "name": "مسجد  أبو  بكر الصديق",
    "image1": "https://cdn.mawaqit.net/images/backend/mosque/73787d14-beef-4bff-8a59-c66726903471/mosque/1eea8e81-534f-6d8c-a307-066ed47a7584.jpg",
    "address": "عين ماهل",
    "city": "عين-ماهل",
    "zipcode": "1790200",
    "countryFullName": "Palestinian Territories",
    "lng": 35.353369,
    "lat": 32.724295
  },
  {
    "slug": "al-aqsa-palestine",
    "name": "المسجد الأقصى المبارك",
    "image1": "https://cdn.mawaqit.net/images/backend/mosque/317e3e56-252f-4214-bcb9-fd8d5d4dd9be/mosque/1eea8e84-9c46-64c0-b9da-066ed47a7584.jpg",
    "address": "القدس",
    "city": "القدس",
    "zipcode": "القدس",
    "countryFullName": "Palestinian Territories",
    "lng": 35.235546513875,
    "lat": 31.776178943875
  },
  {
    "slug": "masjid-omar-bn-lkhattab-kabul-24963-palestinian-territories",
    "name": "مسجد عمر بن الخطاب كابول",
    "image1": "https://cdn.mawaqit.net/images/backend/mosque/f0ac7c93-6748-4d79-a7be-e31ae695ca18/mosque/1eea8e90-9b24-6c66-a73b-066ed47a7584.jpg",
    "address": "كابول , شارع عمر بن الخطاب",
    "city": "KABUL",
    "zipcode": "24963",
    "countryFullName": "Palestinian Territories",
    "lng": 35.207489,
    "lat": 32.871787
  },
  {
    "slug": "lmasjid-lqad8m-tamra-3081100-palestinian-territories",
    "name": "المسجد القديم",
    "image1": "https://cdn.mawaqit.net/images/backend/mosque/3574e043-9e95-4e2d-8560-34026209f8fb/mosque/1ef283ba-f819-65e4-9c20-0abc556dbbf3.jpeg",
    "address": "طمرة",
    "city": "طمرة",
    "zipcode": "3081100",
    "countryFullName": "Palestinian Territories",
    "lng": 35.201315,
    "lat": 32.852247
  },
  {
    "slug": "msjd-mqybl-mqybl-1935400-palestinian-territories",
    "name": "مسجد مقيبلة",
    "image1": "https://cdn.mawaqit.net/images/backend/mosque/361849fe-6b31-46b8-ada7-8ec6eae893be/mosque/1eea8ed6-e885-6e4c-803a-066ed47a7584.jpg",
    "address": "مقيبلة",
    "city": "مقيبلة",
    "zipcode": "1935400",
    "countryFullName": "Palestinian Territories",
    "lng": 35.294815179873,
    "lat": 32.514231248402
  },
  {
    "slug": "masjid-abd-llah-bn-massoud-oum-lfahm-3001000-palestinian-territories",
    "name": "مسجد عبد الله بن مسعود",
    "image1": "https://cdn.mawaqit.net/images/backend/mosque/25f87762-19a1-44be-b5e7-b853ea7aaa88/mosque/1eea8ed7-b56c-60aa-b624-066ed47a7584.jpg",
    "address": "ام الفحم",
    "city": "ام الفحم",
    "zipcode": "3001000",
    "countryFullName": "Palestinian Territories",
    "lng": 35.148529,
    "lat": 32.517127
  },
  {
    "slug": "masjid-chouhada-kafr-qassim-4881000-palestinian-territories",
    "name": "مسجد الشهداء",
    "image1": "https://cdn.mawaqit.net/images/backend/mosque/6e67b8e5-e732-4a9b-a5bf-2e15e2d3ab84/mosque/1eea8ed9-0ef7-69de-8455-066ed47a7584.jpg",
    "address": "كفر قاسم",
    "city": "كفر قاسم",
    "zipcode": "4881000",
    "countryFullName": "Palestinian Territories",
    "lng": 34.972767,
    "lat": 32.114093
  },
  {
    "slug": "masjid-bab-lrayan-yafa-6195001-palestinian-territories",
    "name": "مسجد باب الريان",
    "image1": "https://cdn.mawaqit.net/images/backend/mosque/292c2a29-b9ac-4c44-884a-64ced90ed3d6/mosque/1eea8ee2-8e23-6754-870e-066ed47a7584.jpg",
    "address": "يافا",
    "city": "يافا",
    "zipcode": "6195001",
    "countryFullName": "Palestinian Territories",
    "lng": 34.756111,
    "lat": 32.033973
  },
  {
    "slug": "abou-bakr-lsidiq-bou-snan-2490500-palestinian-territories",
    "name": "ابو بكر الصديق",
    "image1": "https://cdn.mawaqit.net/images/backend/mosque/d10314b9-fbf3-4574-8586-9195f6edd246/mosque/1eeaeead-2d7d-66d6-bcf1-06acfcd1c88a.jpg",
    "address": "ابو سنان",
    "city": "ابو سنان",
    "zipcode": "2490500",
    "countryFullName": "Palestinian Territories",
    "lng": 35.171969,
    "lat": 32.95803
  },
  {
    "slug": "masjid-daoud-kafr-qasm-4881000-palestinian-territories",
    "name": "مسجد داوود",
    "image1": "https://cdn.mawaqit.net/images/backend/mosque/997869f6-c26e-49f1-84a6-cb98020c174d/mosque/1eeaf87f-82e5-6156-953f-06acfcd1c88a.jpg",
    "address": "كفر قاسم",
    "city": "كفر قاسم",
    "zipcode": "4881000",
    "countryFullName": "Palestinian Territories",
    "lng": 34.972767,
    "lat": 32.114093
  },
  {
    "slug": "masjid-khoulat-chrif-tamra-3081100-palestinian-territories",
    "name": "مسجد خلة الشريف - طمرة",
    "image1": "https://cdn.mawaqit.net/images/backend/mosque/d1c54dac-0f8c-4a58-b13c-e97ce3802281/mosque/1eeb0600-a5a5-6e82-8bbe-06acfcd1c88a.jpg",
    "address": "خلة الشريف",
    "city": "TAMRA",
    "zipcode": "3081100",
    "countryFullName": "Palestinian Territories",
    "lng": 35.188528,
    "lat": 32.861912
  },
  {
    "slug": "masjid-lnour-kafr-mounda-1790700-palestinian-territories",
    "name": "مسجد النور",
    "image1": "https://cdn.mawaqit.net/images/backend/mosque/85b2c0e7-682b-43eb-ab83-3fbc26cd1c8d/mosque/1eeb7ef5-8e72-6dfa-923b-0ede686d7942.jpeg",
    "address": "حي الغربي كفر مندا",
    "city": "كفر مندا",
    "zipcode": "1790700",
    "countryFullName": "Palestinian Territories",
    "lng": 35.256114006042,
    "lat": 32.811930672533
  },
  {
    "slug": "masjid-lfarouq-kafr-yasif-24908-palestinian-territories",
    "name": "مسجد الفاروق",
    "image1": "https://cdn.mawaqit.net/images/backend/mosque/5caa4f68-8bd8-4dea-9986-49058b669fed/mosque/1eebb6cf-4cbc-69d0-afd4-0aedfd0440f0.jpg",
    "address": "كفر ياسيف",
    "city": "كفر ياسيف",
    "zipcode": "24908",
    "countryFullName": "Palestinian Territories",
    "lng": 35.1599957,
    "lat": 32.9520318
  },
  {
    "slug": "lmasjid-lqadim-tamra-3081100-palestinian-territories",
    "name": "المسجد القديم",
    "image1": "https://cdn.mawaqit.net/images/backend/mosque/5e68d8a1-5c98-49ac-b5e4-c7b422461957/mosque/1eed000e-09dc-6ba4-8736-0a7eba2dd6b3.jpg",
    "address": "palestinian territories",
    "city": "طمرة",
    "zipcode": "3081100",
    "countryFullName": "Palestinian Territories",
    "lng": 35.201315,
    "lat": 32.852247
  },
  {
    "slug": "masjid-nidaa-lislam-ltayba-4045001-palestinian-territories",
    "name": "مسجد نداء الإسلام",
    "image1": "https://cdn.mawaqit.net/images/backend/mosque/ea792c8b-5a28-4555-b07a-09ef686afeb2/mosque/1eeeaa82-5524-67b8-8a4c-0a0c9324ab13.jpg",
    "address": "الطيبة",
    "city": "الطيبة",
    "zipcode": "4045001",
    "countryFullName": "Palestinian Territories",
    "lng": 35.298483,
    "lat": 31.958114
  },
  {
    "slug": "masjid-aly-bn-abi-talib-kafr-bra-4586300-palestinian-territories",
    "name": "مسجد علي بن أبي طالب",
    "image1": "https://cdn.mawaqit.net/images/backend/mosque/29398dea-ae8c-46b2-a0e2-6e2d712a6182/mosque/1eefa4d9-e6bb-6b34-8702-0621eb7171ad.jpg",
    "address": "كفر برا",
    "city": "كفر برا",
    "zipcode": "4586300",
    "countryFullName": "Palestinian Territories",
    "lng": 34.970108,
    "lat": 32.130911
  },
  {
    "slug": "masjid-ltaqwa-kafr-mounda-1790700-palestinian-territories",
    "name": "مسجد التقوى",
    "image1": "https://cdn.mawaqit.net/images/backend/mosque/ef07cc13-a073-4b37-9581-ff255d57b187/mosque/1ef0a1e0-5fbb-6ce2-878b-0a382b7256a1.jpeg",
    "address": "مسجد التقوى كفر مندا حي التين",
    "city": "كفر مندا",
    "zipcode": "1790700",
    "countryFullName": "Palestinian Territories",
    "lng": 35.257708,
    "lat": 32.808214
  },
  {
    "slug": "masjid-omar-bn-lkhatab-tlaa-aara-3092000-palestinian-territories",
    "name": "مسجد عمر بن الخطاب - مصمص",
    "image1": "https://cdn.mawaqit.net/images/backend/mosque/9e8acffd-a878-4143-8081-fdd4e5794a3f/mosque/1ef0c97c-aab1-6c2e-a888-0a33d0408e15.jpg",
    "address": "طلعة عارة",
    "city": "طلعة عارة",
    "zipcode": "3092000",
    "countryFullName": "Palestinian Territories",
    "lng": 35.182499,
    "lat": 32.554128
  },
  {
    "slug": "masjid-abd-lah-younes-basmah-3002300-palestinian-territories",
    "name": "مسجد عبد الله يونس",
    "image1": "https://cdn.mawaqit.net/images/backend/mosque/68e6efed-5614-49c0-837a-6b48e3d198d4/mosque/1ef176a7-d580-6382-9309-0aba62afbac5.jpg",
    "address": "برطعه",
    "city": "بسمه",
    "zipcode": "3002300",
    "countryFullName": "Palestinian Territories",
    "lng": 35.085653,
    "lat": 32.475079
  },
  {
    "slug": "masjid-lhijra-kawkb-abou-lhayja-2018500-palestinian-territories",
    "name": "مسجد الهجرة",
    "image1": "https://cdn.mawaqit.net/images/backend/mosque/fa3d523e-a318-4b67-8178-cb99bd1726bd/mosque/1ef19e81-db00-6026-b16a-069c71fb446f.jpeg",
    "address": "مسجد الهجرة",
    "city": "كوكب ابو الهيجاء",
    "zipcode": "2018500",
    "countryFullName": "Palestinian Territories",
    "lng": 35.248701,
    "lat": 32.831888
  },
  {
    "slug": "khalid-bn-lwalid-tlaa-aara-3092000-palestinian-territories",
    "name": "مسجد خالد بن الوليد-مصمص",
    "image1": "https://cdn.mawaqit.net/images/backend/mosque/eb97d195-6082-4b6b-b121-a556df0d0187/mosque/1ef1a9d6-f975-6208-b990-0aca279fa1dd.jpg",
    "address": "مصمص",
    "city": "طلعة عارة",
    "zipcode": "3092000",
    "countryFullName": "Palestinian Territories",
    "lng": 35.1559754,
    "lat": 32.5456836
  },
  {
    "slug": "ali-bn-abi-talib-lbir-oum-lfahm-300310-palestinian-territories-1",
    "name": "مسجد علي بن أبي طالب - البير",
    "image1": "https://cdn.mawaqit.net/images/backend/mosque/e955976b-2870-4a62-8c05-598bf4d034fd/mosque/1ef1b7c0-df57-64dc-a5ef-0aca279fa1dd.jpg",
    "address": "حي البير",
    "city": "أم الفحم",
    "zipcode": "300310",
    "countryFullName": "Palestinian Territories",
    "lng": 35.157386,
    "lat": 32.522186
  },
  {
    "slug": "masjid-lqadim-kafr-munda-1790700-palestinian-territories",
    "name": "المسجد القديم",
    "image1": "https://cdn.mawaqit.net/images/backend/mosque/14a68e8e-163c-4cf1-9359-9098fd5f28d7/mosque/1ef252db-9faa-63fa-963e-069cfb0c4e97.jpeg",
    "address": "العين",
    "city": "كفر مندا",
    "zipcode": "1790700",
    "countryFullName": "Palestinian Territories",
    "lng": 35.258613,
    "lat": 32.81236
  },
  {
    "slug": "masjid-salman-lfarissi-asfia-3009000-israel",
    "name": "مسجد سلمان الفارسي عسفيا",
    "image1": "https://cdn.mawaqit.net/images/backend/mosque/de223a95-5c83-4204-9490-eb39e8be0591/mosque/1efc6cd5-fa43-6596-bfb1-0a21b15e7a1f.jpeg",
    "address": "شارع سيدنا سلمان الفارسي",
    "city": "ISFIYA",
    "zipcode": "3009000",
    "countryFullName": "Palestinian Territories",
    "lng": 35.059087,
    "lat": 32.720737
  },
  {
    "slug": "masjid-hudayfa-7210202-palestinian-territories",
    "name": "مسجد حذيفة بن اليمان",
    "image1": "https://cdn.mawaqit.net/images/backend/mosque/aa12eaa5-86ee-4da7-94b8-2afd436dba30/mosque/1ef3d645-3bfd-6e12-82a6-0a67bcb0d635.jpeg",
    "address": "الرملة",
    "city": "الرملة",
    "zipcode": "7210202",
    "countryFullName": "Palestinian Territories",
    "lng": 34.872938,
    "lat": 31.931566
  },
  {
    "slug": "masjid-saad-bn-abi-waqas-jadidah-lmakr-2510500-palestinian-territories",
    "name": "مسجد سعد بن ابي وقاص",
    "image1": "https://cdn.mawaqit.net/images/backend/mosque/9de2f0e7-a600-4840-bcf0-0d622bba744a/mosque/1ef41fce-64ad-6db2-9999-0eccd22c0f01.jpg",
    "address": "جديده المكر",
    "city": "جديده المكر",
    "zipcode": "2510500",
    "countryFullName": "Palestinian Territories",
    "lng": 35.1394,
    "lat": 32.93394
  },
  {
    "slug": "omar-bn-lkhatab-nazareth-1650400-palestinian-territories",
    "name": "عمر بن الخطاب - الناصرة",
    "image1": "https://cdn.mawaqit.net/images/backend/mosque/2b323df3-8cad-4d5c-8b15-993c5bba333a/mosque/1ef4c33c-ec9a-6e0c-a297-0a67bcb0d635.jpg",
    "address": "karm el jamal",
    "city": "NAZARETH",
    "zipcode": "1650400",
    "countryFullName": "Palestinian Territories",
    "lng": 35.303546,
    "lat": 32.699635
  },
  {
    "slug": "lnabi-saain-lnasrah-1650400-palestinian-territories",
    "name": "النبي ساعين",
    "image1": "https://cdn.mawaqit.net/images/backend/mosque/571b055e-dc70-487a-904e-88bb4477dce6/mosque/1ef4f623-6c02-6654-9ebd-0eccd22c0f01.png",
    "address": "رؤس الجبال 39",
    "city": "الناصره",
    "zipcode": "1650400",
    "countryFullName": "Palestinian Territories",
    "lng": 35.297161,
    "lat": 32.70948
  },
  {
    "slug": "masjid-ali-bn-abi-talib-kaboul-2496300-palestinian-territories",
    "name": "مسجد علي بن ابي طالب",
    "image1": "https://cdn.mawaqit.net/images/backend/mosque/8b7c89fa-efee-4113-8ff4-3946acf55737/mosque/1ef6878e-9cd9-646e-a886-0a30a0d770d7.jpg",
    "address": "كابول",
    "city": "كابول",
    "zipcode": "2496300",
    "countryFullName": "Palestinian Territories",
    "lng": 35.22031545652,
    "lat": 32.865141071723
  },
  {
    "slug": "masjid-sandalah-1935300-palestinian-territories",
    "name": "مسجد عمر بن الخطاب صندلة",
    "image1": "https://cdn.mawaqit.net/images/backend/mosque/053e68f6-c51d-47b6-b784-75dbae72f881/mosque/1ef6c8ca-b9a5-61d8-94a7-0a30a0d770d7.jpeg",
    "address": "صندله فلسطين",
    "city": "صندله",
    "zipcode": "1935300",
    "countryFullName": "Palestinian Territories",
    "lng": 35.324289,
    "lat": 32.522863
  },
  {
    "slug": "masjid-ltwahid-lqods-921100-palestinian-territories",
    "name": "مسجد التوحيد",
    "image1": "https://cdn.mawaqit.net/images/backend/mosque/3c5d418a-a439-4a97-9240-da545931955e/mosque/1ef6e77b-4e44-6d74-b3c3-0600dbafaeef.jpg",
    "address": "عناتا",
    "city": "القدس",
    "zipcode": "921100",
    "countryFullName": "Palestinian Territories",
    "lng": 35.259602,
    "lat": 31.811201
  },
  {
    "slug": "masjid-lmansour-17925-palestinian-territories",
    "name": "مسجد المنصور بئر المكسور",
    "image1": "https://cdn.mawaqit.net/images/backend/mosque/5cc9393a-437d-4195-ba02-8061bd399107/mosque/1efaf4be-f9c4-6808-a20b-066b4b62726d.jpeg",
    "address": "بئر المكسور",
    "city": "بئر المكسور",
    "zipcode": "17925",
    "countryFullName": "Palestinian Territories",
    "lng": 35.2216895,
    "lat": 32.7781997
  },
  {
    "slug": "bw-bkr-lsdyq-kfr-qr-3007500-palestinian-territories",
    "name": "مسجد أبي بكر الصديق",
    "image1": "https://cdn.mawaqit.net/images/backend/mosque/9e171c25-a9f0-4b42-9bce-0ab28c5341ec/mosque/1efe7a9a-1bf4-6a4a-8867-063aa5df5c67.jpeg",
    "address": "ابو عبيدة",
    "city": "كفر قرع",
    "zipcode": "3007500",
    "countryFullName": "Palestinian Territories",
    "lng": 35.0580314,
    "lat": 32.4995044
  },
  {
    "slug": "masjid-lkhoulafa-lrachidin-jerusalem-0097415-palestinian-territories",
    "name": "مسجد الخلفاء الراشدين",
    "image1": "https://cdn.mawaqit.net/images/backend/mosque/94eb5846-2ced-4ac5-a465-26b0bc1ada9b/mosque/1efe7fa6-515f-6980-9604-0e61b0058d45.jpg",
    "address": "واد الحمص",
    "city": "JERUSALEM",
    "zipcode": "0097415",
    "countryFullName": "Palestinian Territories",
    "lng": 35.2548007,
    "lat": 31.7228281
  },
  {
    "slug": "masjid-abou-bzkr-lsidiq-brtaah-3002300-palestinian-territories",
    "name": "مسجد أبو بكر الصديق",
    "image1": "https://cdn.mawaqit.net/images/backend/mosque/1db16e93-728b-48ab-bf5d-adc7c59e2546/mosque/1efe9264-aa6a-6d4c-9f5f-0a7d06691847.jpeg",
    "address": "برطعه",
    "city": "برطعه",
    "zipcode": "3002300",
    "countryFullName": "Palestinian Territories",
    "lng": 35.091973,
    "lat": 32.475484
  },
  {
    "slug": "msjd-lhsn-brt-3002300-palestinian-territories",
    "name": "مسجد الإحسان",
    "image1": "https://cdn.mawaqit.net/images/backend/mosque/38aa97b0-0eca-4b80-bdc4-83201706b5c4/mosque/1eff690f-768b-6968-a7ee-0e61b0058d45.jpg",
    "address": "برطعة",
    "city": "برطعة",
    "zipcode": "3002300",
    "countryFullName": "Palestinian Territories",
    "lng": 35.091973,
    "lat": 32.475484
  },
  {
    "slug": "msjd-lrhm-tmr-tamra-3081100-palestinian-territories",
    "name": "مسجد الرحمة - طمرة",
    "image1": "https://cdn.mawaqit.net/images/backend/mosque/9bebc48d-4df6-4c60-83cd-6c26ea984d9c/mosque/1eff9af2-cbf4-6052-ad6b-0afdb4a7872f.jpg",
    "address": "الشارع الشمالي",
    "city": "TAMRA",
    "zipcode": "3081100",
    "countryFullName": "Palestinian Territories",
    "lng": 35.199229717255,
    "lat": 32.855562673193
  },
  {
    "slug": "khld-bn-lwlyd-lqds-88406-palestinian-territories",
    "name": "مسجد خالد بن الوليد",
    "image1": "https://cdn.mawaqit.net/images/backend/mosque/ccd1dc6d-2182-4967-8c97-875d2a9637cf/mosque/1f02a2f0-f279-6bc4-b7a0-063f15cb3ad3.jpg",
    "address": "جبل المكبر، القدس",
    "city": "القدس",
    "zipcode": "88406",
    "countryFullName": "Palestinian Territories",
    "lng": 35.239927,
    "lat": 31.754196
  },
  {
    "slug": "msjd-qb-kfr-qr-3007500-palestinian-territories",
    "name": "مسجد قباء",
    "image1": "https://cdn.mawaqit.net/images/backend/mosque/f722da54-aa30-40e8-8bda-99b30a97a102/mosque/1f02b3cd-9af3-6c68-8847-0635836831ef.jpeg",
    "address": "بلال بن رباح 2 كفر قرع",
    "city": "كفر قرع",
    "zipcode": "3007500",
    "countryFullName": "Palestinian Territories",
    "lng": 35.048811,
    "lat": 32.505255
  },
  {
    "slug": "msjd-lsndhwy-kfr-qr-3007500-palestinian-territories",
    "name": "مسجد الصندحاوي",
    "image1": "https://cdn.mawaqit.net/images/backend/mosque/7b37c879-4a89-4765-a522-dcba71d8086d/mosque/1f02b455-0e56-6f7a-b089-0aa0def8c88b.jpeg",
    "address": "الصندحاوي 15 كفر قرع",
    "city": "كفر قرع",
    "zipcode": "3007500",
    "countryFullName": "Palestinian Territories",
    "lng": 35.048811,
    "lat": 32.505255
  },
  {
    "slug": "msjd-lhd-twlkrm-p303-palestinian-territories",
    "name": "مسجد الهدى",
    "image1": "https://cdn.mawaqit.net/images/backend/mosque/f7d6e187-f83f-40f5-9c1c-0e259bbbb461/mosque/1f02d889-3299-67ea-a711-0efc9ea15c0b.jpg",
    "address": "فلسطين- طولكرم-الصوانة",
    "city": "طولكرم",
    "zipcode": "P303",
    "countryFullName": "Palestinian Territories",
    "lng": 35.034956976454,
    "lat": 32.298902131108
  },
  {
    "slug": "msjd-lsfryny-twlkrm-p304-palestinian-territories",
    "name": "مسجد السفاريني",
    "image1": "https://cdn.mawaqit.net/images/backend/mosque/23cc751d-6de6-4bad-b972-4b0dce6c712d/mosque/1f032628-8304-61a2-9a27-0a17f0e78aa5.jpg",
    "address": "فلسطين _ طولكرم _ شارع فرعون",
    "city": "طولكرم",
    "zipcode": "P304",
    "countryFullName": "Palestinian Territories",
    "lng": 35.032065148147,
    "lat": 32.298368944144
  },
  {
    "slug": "msjd-bw-lrb-twlkrm-p304-palestinian-territories",
    "name": "مسجد السلام \"أبو الرب\"",
    "image1": "https://cdn.mawaqit.net/images/backend/mosque/82332557-0fbb-4fb2-8709-c64bcc519ebf/mosque/1f033290-d5f9-6906-881d-062b68c2166d.jpg",
    "address": "فلسطين_طولكرم_فوق مفرق ابو صفية",
    "city": "طولكرم",
    "zipcode": "P304",
    "countryFullName": "Palestinian Territories",
    "lng": 35.036709308624,
    "lat": 32.308099961897
  },
  {
    "slug": "msjd-ltwhyd-twlkrm-zyt-3000004-palestinian-territories",
    "name": "مسجد التوحيد",
    "image1": "https://cdn.mawaqit.net/images/backend/mosque/aead5982-afa3-4f85-95b1-8342b8707f10/mosque/1f033eca-3d40-6e4e-8185-062b68c2166d.jpg",
    "address": "زيتا/طولكرم",
    "city": "طولكرم/زيتا",
    "zipcode": "3000004",
    "countryFullName": "Palestinian Territories",
    "lng": 35.0293727,
    "lat": 32.3116459
  },
  {
    "slug": "masjid-al-ain-tamra-palestine",
    "name": "مسجد العين - طمرة",
    "image1": "https://cdn.mawaqit.net/images/backend/mosque/ed62642c-8e16-426e-bf8e-32e938f3f7b5/mosque/1f03b96f-7f2f-613c-8375-0afdac34284f.png",
    "address": "طمرة",
    "city": "TAMRA",
    "zipcode": "30811",
    "countryFullName": "Palestinian Territories",
    "lng": 35.211868286133,
    "lat": 32.853706045611
  }
]